$GNRMC,211236.00,A,3114.53909,N,12117.69853,E,0.029,,101217,,,A*60
$GNRMC,211237.00,A,3114.53914,N,12117.69852,E,0.013,,101217,,,A*65
$GNRMC,211238.00,A,3114.53917,N,12117.69855,E,0.011,,101217,,,A*6C
$GNRMC,211239.00,A,3114.53919,N,12117.69858,E,0.004,,101217,,,A*6A
$GNRMC,211239.00,A,3114.53913,N,12117.69857,E,0.017,,101217,,,A*6D
$GNRMC,211240.00,A,3114.53907,N,12117.69858,E,0.004,,101217,,,A*6B
$GNRMC,211241.00,A,3114.53899,N,12117.69859,E,0.008,,101217,,,A*61
$GNRMC,211242.00,A,3114.53892,N,12117.69860,E,0.005,,101217,,,A*6E
$GNRMC,211243.00,A,3114.53887,N,12117.69859,E,0.003,,101217,,,A*67
$GNRMC,211244.00,A,3114.53882,N,12117.69858,E,0.004,,101217,,,A*63
$GNRMC,211245.00,A,3114.53877,N,12117.69858,E,0.011,,101217,,,A*6C
$GNRMC,211246.00,A,3114.53871,N,12117.69858,E,0.009,,101217,,,A*60
$GNRMC,211247.00,A,3114.53864,N,12117.69857,E,0.017,,101217,,,A*65
$GNRMC,211248.00,A,3114.53858,N,12117.69858,E,0.008,,101217,,,A*64
$GNRMC,211249.00,A,3114.53853,N,12117.69859,E,0.010,,101217,,,A*66
$GNRMC,211250.00,A,3114.53849,N,12117.69857,E,0.010,,101217,,,A*6B
$GNRMC,211251.00,A,3114.53845,N,12117.69856,E,0.011,,101217,,,A*66
$GNRMC,211252.00,A,3114.53841,N,12117.69854,E,0.007,,101217,,,A*64
$GNRMC,211253.00,A,3114.53837,N,12117.69851,E,0.008,,101217,,,A*6E
$GNRMC,211254.00,A,3114.53834,N,12117.69848,E,0.005,,101217,,,A*6F
$GNRMC,211255.00,A,3114.53831,N,12117.69846,E,0.010,,101217,,,A*61
$GNRMC,211256.00,A,3114.53827,N,12117.69846,E,0.010,,101217,,,A*65
$GNRMC,211257.00,A,3114.53825,N,12117.69844,E,0.004,,101217,,,A*61
$GNRMC,211258.00,A,3114.53823,N,12117.69843,E,0.005,,101217,,,A*6E
$GNRMC,211259.00,A,3114.53821,N,12117.69842,E,0.008,,101217,,,A*61
$GNRMC,211300.00,A,3114.53819,N,12117.69840,E,0.016,,101217,,,A*6A
$GNRMC,211301.00,A,3114.53819,N,12117.69839,E,0.005,,101217,,,A*67
$GNRMC,211302.00,A,3114.53817,N,12117.69839,E,0.003,,101217,,,A*6C
$GNRMC,211303.00,A,3114.53815,N,12117.69838,E,0.004,,101217,,,A*69
$GNRMC,211304.00,A,3114.53813,N,12117.69839,E,0.014,,101217,,,A*68
$GNRMC,211305.00,A,3114.53810,N,12117.69840,E,0.004,,101217,,,A*65
$GNRMC,211306.00,A,3114.53808,N,12117.69842,E,0.004,,101217,,,A*6D
$GNRMC,211307.00,A,3114.53806,N,12117.69844,E,0.011,,101217,,,A*60
$GNRMC,211308.00,A,3114.53805,N,12117.69845,E,0.005,,101217,,,A*68
$GNRMC,211309.00,A,3114.53803,N,12117.69845,E,0.005,,101217,,,A*6F
$GNRMC,211310.00,A,3114.53800,N,12117.69845,E,0.010,,101217,,,A*60
$GNRMC,211311.00,A,3114.53797,N,12117.69847,E,0.009,,101217,,,A*6A
$GNRMC,211312.00,A,3114.53793,N,12117.69849,E,0.001,,101217,,,A*6B
$GNRMC,211313.00,A,3114.53791,N,12117.69850,E,0.007,,101217,,,A*66
$GNRMC,211314.00,A,3114.53789,N,12117.69852,E,0.016,,101217,,,A*6A
$GNRMC,211315.00,A,3114.53788,N,12117.69853,E,0.014,,101217,,,A*69
$GNRMC,211316.00,A,3114.53786,N,12117.69854,E,0.023,,101217,,,A*67
$GNRMC,211317.00,A,3114.53783,N,12117.69855,E,0.018,,101217,,,A*6A
$GNRMC,211318.00,A,3114.53781,N,12117.69857,E,0.020,,101217,,,A*6E
$GNRMC,211319.00,A,3114.53779,N,12117.69858,E,0.006,,101217,,,A*63
$GNRMC,211320.00,A,3114.53778,N,12117.69860,E,0.009,,101217,,,A*6C
$GNRMC,211321.00,A,3114.53777,N,12117.69863,E,0.018,,101217,,,A*61
$GNRMC,211322.00,A,3114.53776,N,12117.69866,E,0.005,,101217,,,A*6A
$GNRMC,211323.00,A,3114.53776,N,12117.69868,E,0.013,,101217,,,A*62
$GNRMC,211324.00,A,3114.53776,N,12117.69870,E,0.005,,101217,,,A*6B
$GNRMC,211325.00,A,3114.53777,N,12117.69872,E,0.013,,101217,,,A*6E
$GNRMC,211326.00,A,3114.53778,N,12117.69875,E,0.007,,101217,,,A*60
$GNRMC,211327.00,A,3114.53778,N,12117.69877,E,0.002,,101217,,,A*66
$GNRMC,211328.00,A,3114.53779,N,12117.69879,E,0.004,,101217,,,A*60
$GNRMC,211329.00,A,3114.53781,N,12117.69880,E,0.013,,101217,,,A*66
$GNRMC,211330.00,A,3114.53783,N,12117.69882,E,0.011,,101217,,,A*6C
$GNRMC,211331.00,A,3114.53786,N,12117.69883,E,0.003,,101217,,,A*6A
$GNRMC,211332.00,A,3114.53789,N,12117.69884,E,0.005,,101217,,,A*67
$GNRMC,211333.00,A,3114.53792,N,12117.69885,E,0.014,,101217,,,A*6D
$GNRMC,211334.00,A,3114.53796,N,12117.69885,E,0.005,,101217,,,A*6E
$GNRMC,211335.00,A,3114.53800,N,12117.69885,E,0.017,,101217,,,A*6C
$GNRMC,211336.00,A,3114.53804,N,12117.69884,E,0.011,,101217,,,A*6C
$GNRMC,211337.00,A,3114.53808,N,12117.69883,E,0.006,,101217,,,A*60
$GNRMC,211338.00,A,3114.53813,N,12117.69881,E,0.011,,101217,,,A*61
$GNRMC,211339.00,A,3114.53818,N,12117.69880,E,0.006,,101217,,,A*6C
$GNRMC,211340.00,A,3114.53822,N,12117.69878,E,0.009,,101217,,,A*63
$GNRMC,211341.00,A,3114.53826,N,12117.69877,E,0.007,,101217,,,A*67
$GNRMC,211342.00,A,3114.53829,N,12117.69875,E,0.011,,101217,,,A*6E
$GNRMC,211343.00,A,3114.53832,N,12117.69874,E,0.015,,101217,,,A*60
$GNRMC,211344.00,A,3114.53833,N,12117.69873,E,0.007,,101217,,,A*62
$GNRMC,211345.00,A,3114.53833,N,12117.69873,E,0.023,,101217,,,A*65
$GNRMC,211346.00,A,3114.53832,N,12117.69873,E,0.015,,101217,,,A*62
$GNRMC,211347.00,A,3114.53830,N,12117.69873,E,0.014,,101217,,,A*60
$GNRMC,211348.00,A,3114.53830,N,12117.69873,E,0.007,,101217,,,A*6D
$GNRMC,211349.00,A,3114.53828,N,12117.69873,E,0.008,,101217,,,A*6A
$GNRMC,211350.00,A,3114.53826,N,12117.69873,E,0.012,,101217,,,A*67
$GNRMC,211351.00,A,3114.53824,N,12117.69873,E,0.024,,101217,,,A*61
$GNRMC,211352.00,A,3114.53822,N,12117.69874,E,0.009,,101217,,,A*6C
$GNRMC,211353.00,A,3114.53818,N,12117.69875,E,0.008,,101217,,,A*64
$GNRMC,211354.00,A,3114.53816,N,12117.69876,E,0.003,,101217,,,A*65
$GNRMC,211355.00,A,3114.53813,N,12117.69876,E,0.022,,101217,,,A*62
$GNRMC,211356.00,A,3114.53811,N,12117.69876,E,0.013,,101217,,,A*61
$GNRMC,211357.00,A,3114.53809,N,12117.69878,E,0.006,,101217,,,A*63
$GNRMC,211358.00,A,3114.53806,N,12117.69880,E,0.008,,101217,,,A*6A
$GNRMC,211359.00,A,3114.53806,N,12117.69880,E,0.018,,101217,,,A*6A
$GNRMC,211400.00,A,3114.53805,N,12117.69879,E,0.014,,101217,,,A*68
$GNRMC,211401.00,A,3114.53804,N,12117.69879,E,0.011,,101217,,,A*6D
$GNRMC,211402.00,A,3114.53804,N,12117.69880,E,0.003,,101217,,,A*6B
$GNRMC,211403.00,A,3114.53803,N,12117.69880,E,0.014,,101217,,,A*6B
$GNRMC,211404.00,A,3114.53802,N,12117.69881,E,0.013,,101217,,,A*6B
$GNRMC,211405.00,A,3114.53800,N,12117.69882,E,0.023,,101217,,,A*68
$GNRMC,211406.00,A,3114.53798,N,12117.69883,E,0.010,,101217,,,A*64
$GNRMC,211407.00,A,3114.53796,N,12117.69885,E,0.011,,101217,,,A*6C
$GNRMC,211408.00,A,3114.53795,N,12117.69887,E,0.002,,101217,,,A*60
$GNRMC,211409.00,A,3114.53794,N,12117.69889,E,0.005,,101217,,,A*69
$GNRMC,211410.00,A,3114.53794,N,12117.69890,E,0.004,,101217,,,A*68
$GNRMC,211411.00,A,3114.53793,N,12117.69891,E,0.013,,101217,,,A*69
$GNRMC,211412.00,A,3114.53791,N,12117.69891,E,0.008,,101217,,,A*62
$GNRMC,211413.00,A,3114.53790,N,12117.69892,E,0.013,,101217,,,A*6B
$GNRMC,211414.00,A,3114.53788,N,12117.69896,E,0.011,,101217,,,D*66
$GNRMC,211415.00,A,3114.53787,N,12117.69899,E,0.011,,101217,,,D*67
$GNRMC,211416.00,A,3114.53785,N,12117.69902,E,0.016,,101217,,,D*62
$GNRMC,211417.00,A,3114.53784,N,12117.69906,E,0.009,,101217,,,D*68
$GNRMC,211418.00,A,3114.53783,N,12117.69908,E,0.008,,101217,,,D*6F
$GNRMC,211419.00,A,3114.53783,N,12117.69911,E,0.007,,101217,,,D*69
$GNRMC,211420.00,A,3114.53782,N,12117.69914,E,0.013,,101217,,,D*62
$GNRMC,211421.00,A,3114.53782,N,12117.69916,E,0.006,,101217,,,D*65
$GNRMC,211422.00,A,3114.53782,N,12117.69918,E,0.011,,101217,,,D*6E
$GNRMC,211423.00,A,3114.53782,N,12117.69918,E,0.006,,101217,,,D*69
$GNRMC,211424.00,A,3114.53782,N,12117.69919,E,0.003,,101217,,,D*6A
$GNRMC,211425.00,A,3114.53782,N,12117.69920,E,0.010,,101217,,,D*63
$GNRMC,211426.00,A,3114.53783,N,12117.69921,E,0.013,,101217,,,D*63
$GNRMC,211427.00,A,3114.53784,N,12117.69921,E,0.007,,101217,,,D*60
$GNRMC,211428.00,A,3114.53785,N,12117.69922,E,0.009,,101217,,,D*63
$GNRMC,211429.00,A,3114.53786,N,12117.69923,E,0.008,,101217,,,D*61
$GNRMC,211430.00,A,3114.53788,N,12117.69923,E,0.021,,101217,,,D*6C
$GNRMC,211431.00,A,3114.53790,N,12117.69923,E,0.009,,101217,,,D*6E
$GNRMC,211432.00,A,3114.53792,N,12117.69924,E,0.006,,101217,,,D*67
$GNRMC,211433.00,A,3114.53793,N,12117.69926,E,0.020,,101217,,,D*61
$GNRMC,211434.00,A,3114.53795,N,12117.69928,E,0.012,,101217,,,D*6F
$GNRMC,211435.00,A,3114.53797,N,12117.69930,E,0.012,,101217,,,D*65
$GNRMC,211436.00,A,3114.53799,N,12117.69931,E,0.054,,101217,,,D*6B
$GNRMC,211437.00,A,3114.53801,N,12117.69934,E,0.002,,101217,,,D*62
$GNRMC,211438.00,A,3114.53803,N,12117.69937,E,0.005,,101217,,,D*6B
$GNRMC,211439.00,A,3114.53804,N,12117.69940,E,0.009,,101217,,,D*61
$GNRMC,211440.00,A,3114.53806,N,12117.69943,E,0.008,,101217,,,D*6F
$GNRMC,211441.00,A,3114.53807,N,12117.69947,E,0.009,,101217,,,D*6A
$GNRMC,211442.00,A,3114.53809,N,12117.69949,E,0.010,,101217,,,D*61
$GNRMC,211443.00,A,3114.53810,N,12117.69951,E,0.003,,101217,,,D*63
$GNRMC,211444.00,A,3114.53812,N,12117.69953,E,0.009,,101217,,,D*6E
$GNRMC,211445.00,A,3114.53813,N,12117.69953,E,0.013,,101217,,,D*65
$GNRMC,211446.00,A,3114.53815,N,12117.69953,E,0.017,,101217,,,D*64
$GNRMC,211447.00,A,3114.53817,N,12117.69952,E,0.016,,101217,,,D*67
$GNRMC,211448.00,A,3114.53819,N,12117.69952,E,0.010,,101217,,,D*60
$GNRMC,211449.00,A,3114.53821,N,12117.69951,E,0.010,,101217,,,D*69
$GNRMC,211450.00,A,3114.53823,N,12117.69950,E,0.014,,101217,,,D*66
$GNRMC,211451.00,A,3114.53825,N,12117.69948,E,0.004,,101217,,,D*69
$GNRMC,211452.00,A,3114.53827,N,12117.69948,E,0.011,,101217,,,D*6C
$GNRMC,211453.00,A,3114.53829,N,12117.69946,E,0.007,,101217,,,D*6A
$GNRMC,211454.00,A,3114.53829,N,12117.69945,E,0.005,,101217,,,D*6C
$GNRMC,211455.00,A,3114.53830,N,12117.69945,E,0.013,,101217,,,D*62
$GNRMC,211456.00,A,3114.53831,N,12117.69945,E,0.006,,101217,,,D*64
$GNRMC,211457.00,A,3114.53832,N,12117.69945,E,0.006,,101217,,,D*66
$GNRMC,211458.00,A,3114.53832,N,12117.69944,E,0.008,,101217,,,D*66
$GNRMC,211459.00,A,3114.53831,N,12117.69944,E,0.016,,101217,,,D*6B
$GNRMC,211500.00,A,3114.53831,N,12117.69943,E,0.003,,101217,,,D*65
$GNRMC,211501.00,A,3114.53830,N,12117.69944,E,0.008,,101217,,,D*69
$GNRMC,211502.00,A,3114.53829,N,12117.69944,E,0.023,,101217,,,D*6B
$GNRMC,211503.00,A,3114.53828,N,12117.69943,E,0.013,,101217,,,D*6F
$GNRMC,211504.00,A,3114.53827,N,12117.69942,E,0.007,,101217,,,D*63
$GNRMC,211505.00,A,3114.53826,N,12117.69942,E,0.018,,101217,,,D*6D
$GNRMC,211506.00,A,3114.53825,N,12117.69942,E,0.027,,101217,,,D*61
$GNRMC,211507.00,A,3114.53825,N,12117.69942,E,0.006,,101217,,,D*63
$GNRMC,211508.00,A,3114.53825,N,12117.69942,E,0.007,,101217,,,D*6D
$GNRMC,211509.00,A,3114.53826,N,12117.69941,E,0.007,,101217,,,D*6C
$GNRMC,211510.00,A,3114.53826,N,12117.69940,E,0.003,,101217,,,D*61
$GNRMC,211511.00,A,3114.53827,N,12117.69938,E,0.004,,101217,,,D*69
$GNRMC,211512.00,A,3114.53827,N,12117.69937,E,0.004,,101217,,,D*65
$GNRMC,211513.00,A,3114.53828,N,12117.69936,E,0.009,,101217,,,D*67
$GNRMC,211514.00,A,3114.53828,N,12117.69936,E,0.002,,101217,,,D*6B
$GNRMC,211515.00,A,3114.53829,N,12117.69935,E,0.013,,101217,,,D*68
$GNRMC,211516.00,A,3114.53830,N,12117.69933,E,0.018,,101217,,,D*6E
$GNRMC,211517.00,A,3114.53831,N,12117.69931,E,0.016,,101217,,,D*62
$GNRMC,211518.00,A,3114.53833,N,12117.69928,E,0.009,,101217,,,D*69
$GNRMC,211519.00,A,3114.53835,N,12117.69925,E,0.007,,101217,,,D*6D
$GNRMC,211520.00,A,3114.53838,N,12117.69922,E,0.008,,101217,,,D*62
$GNRMC,211521.00,A,3114.53841,N,12117.69918,E,0.010,,101217,,,D*6D
$GNRMC,211522.00,A,3114.53844,N,12117.69915,E,0.007,,101217,,,D*60
$GNRMC,211523.00,A,3114.53847,N,12117.69911,E,0.002,,101217,,,D*63
$GNRMC,211524.00,A,3114.53850,N,12117.69907,E,0.008,,101217,,,D*6F
$GNRMC,211525.00,A,3114.53852,N,12117.69902,E,0.022,,101217,,,D*61
$GNRMC,211526.00,A,3114.53854,N,12117.69898,E,0.024,,101217,,,D*60
$GNRMC,211527.00,A,3114.53856,N,12117.69893,E,0.014,,101217,,,D*6B
$GNRMC,211528.00,A,3114.53858,N,12117.69889,E,0.013,,101217,,,D*66
$GNRMC,211529.00,A,3114.53859,N,12117.69886,E,0.007,,101217,,,D*6C
$GNRMC,211530.00,A,3114.53860,N,12117.69882,E,0.005,,101217,,,D*68
$GNRMC,211531.00,A,3114.53860,N,12117.69878,E,0.016,,101217,,,D*6E
$GNRMC,211532.00,A,3114.53859,N,12117.69876,E,0.011,,101217,,,D*6E
$GNRMC,211533.00,A,3114.53857,N,12117.69874,E,0.001,,101217,,,D*62
$GNRMC,211534.00,A,3114.53855,N,12117.69872,E,0.004,,101217,,,D*64
$GNRMC,211535.00,A,3114.53853,N,12117.69869,E,0.006,,101217,,,D*6B
$GNRMC,211536.00,A,3114.53851,N,12117.69867,E,0.013,,101217,,,D*60
$GNRMC,211537.00,A,3114.53848,N,12117.69866,E,0.009,,101217,,,D*63
$GNRMC,211538.00,A,3114.53846,N,12117.69864,E,0.007,,101217,,,D*6E
$GNRMC,211539.00,A,3114.53844,N,12117.69863,E,0.005,,101217,,,D*68
$GNRMC,211540.00,A,3114.53842,N,12117.69862,E,0.008,,101217,,,D*6C
$GNRMC,211541.00,A,3114.53840,N,12117.69861,E,0.009,,101217,,,D*6D
$GNRMC,211542.00,A,3114.53839,N,12117.69859,E,0.005,,101217,,,D*67
$GNRMC,211543.00,A,3114.53837,N,12117.69856,E,0.007,,101217,,,D*65
$GNRMC,211544.00,A,3114.53836,N,12117.69853,E,0.005,,101217,,,D*64
$GNRMC,211545.00,A,3114.53835,N,12117.69852,E,0.009,,101217,,,D*6B
$GNRMC,211546.00,A,3114.53833,N,12117.69851,E,0.019,,101217,,,D*6C
$GNRMC,211547.00,A,3114.53831,N,12117.69850,E,0.020,,101217,,,D*64
$GNRMC,211548.00,A,3114.53830,N,12117.69848,E,0.013,,101217,,,D*63
$GNRMC,211549.00,A,3114.53828,N,12117.69848,E,0.005,,101217,,,D*6C
$GNRMC,211550.00,A,3114.53827,N,12117.69848,E,0.004,,101217,,,D*6A
$GNRMC,211551.00,A,3114.53826,N,12117.69850,E,0.007,,101217,,,D*60
$GNRMC,211552.00,A,3114.53824,N,12117.69851,E,0.006,,101217,,,D*61
$GNRMC,211553.00,A,3114.53822,N,12117.69853,E,0.010,,101217,,,D*63
$GNRMC,211554.00,A,3114.53820,N,12117.69854,E,0.010,,101217,,,D*61
$GNRMC,211555.00,A,3114.53818,N,12117.69855,E,0.011,,101217,,,D*6B
$GNRMC,211556.00,A,3114.53817,N,12117.69856,E,0.012,,101217,,,D*67
$GNRMC,211557.00,A,3114.53814,N,12117.69856,E,0.003,,101217,,,D*65
$GNRMC,211558.00,A,3114.53811,N,12117.69857,E,0.003,,101217,,,D*6E
$GNRMC,211559.00,A,3114.53809,N,12117.69855,E,0.016,,101217,,,D*60
$GNRMC,211600.00,A,3114.53806,N,12117.69853,E,0.014,,101217,,,D*64
$GNRMC,211601.00,A,3114.53803,N,12117.69851,E,0.002,,101217,,,D*65
$GNRMC,211602.00,A,3114.53799,N,12117.69849,E,0.010,,101217,,,D*60
$GNRMC,211603.00,A,3114.53796,N,12117.69848,E,0.004,,101217,,,D*6A
$GNRMC,211604.00,A,3114.53793,N,12117.69847,E,0.005,,101217,,,D*66
$GNRMC,211605.00,A,3114.53790,N,12117.69846,E,0.015,,101217,,,D*64
$GNRMC,211606.00,A,3114.53787,N,12117.69846,E,0.022,,101217,,,D*65
$GNRMC,211607.00,A,3114.53784,N,12117.69846,E,0.009,,101217,,,D*6E
$GNRMC,211608.00,A,3114.53781,N,12117.69846,E,0.005,,101217,,,D*68
$GNRMC,211609.00,A,3114.53778,N,12117.69847,E,0.007,,101217,,,D*6C
$GNRMC,211610.00,A,3114.53776,N,12117.69850,E,0.016,,101217,,,D*6C
$GNRMC,211611.00,A,3114.53774,N,12117.69852,E,0.007,,101217,,,D*6D
$GNRMC,211612.00,A,3114.53773,N,12117.69853,E,0.006,,101217,,,D*69
$GNRMC,211613.00,A,3114.53772,N,12117.69855,E,0.004,,101217,,,D*6D
$GNRMC,211614.00,A,3114.53772,N,12117.69857,E,0.006,,101217,,,D*6A
$GNRMC,211615.00,A,3114.53771,N,12117.69860,E,0.017,,101217,,,D*6C
$GNRMC,211616.00,A,3114.53771,N,12117.69862,E,0.018,,101217,,,D*62
$GNRMC,211617.00,A,3114.53771,N,12117.69864,E,0.010,,101217,,,D*6D
$GNRMC,211618.00,A,3114.53771,N,12117.69865,E,0.007,,101217,,,D*65
$GNRMC,211619.00,A,3114.53772,N,12117.69867,E,0.011,,101217,,,D*62
$GNRMC,211620.00,A,3114.53773,N,12117.69869,E,0.003,,101217,,,D*64
$GNRMC,211621.00,A,3114.53774,N,12117.69870,E,0.013,,101217,,,D*6B
$GNRMC,211622.00,A,3114.53775,N,12117.69870,E,0.027,,101217,,,D*6E
$GNRMC,211623.00,A,3114.53776,N,12117.69872,E,0.009,,101217,,,D*62
$GNRMC,211624.00,A,3114.53777,N,12117.69874,E,0.008,,101217,,,D*63
$GNRMC,211625.00,A,3114.53778,N,12117.69875,E,0.017,,101217,,,D*62
$GNRMC,211626.00,A,3114.53777,N,12117.69878,E,0.020,,101217,,,D*67
$GNRMC,211627.00,A,3114.53778,N,12117.69879,E,0.008,,101217,,,D*62
$GNRMC,211628.00,A,3114.53779,N,12117.69880,E,0.006,,101217,,,D*64
$GNRMC,211629.00,A,3114.53779,N,12117.69882,E,0.005,,101217,,,D*64
$GNRMC,211630.00,A,3114.53779,N,12117.69883,E,0.004,,101217,,,D*6C
$GNRMC,211631.00,A,3114.53778,N,12117.69884,E,0.003,,101217,,,D*6C
$GNRMC,211632.00,A,3114.53776,N,12117.69885,E,0.005,,101217,,,D*66
$GNRMC,211633.00,A,3114.53774,N,12117.69887,E,0.014,,101217,,,D*67
$GNRMC,211634.00,A,3114.53772,N,12117.69888,E,0.001,,101217,,,D*6D
$GNRMC,211635.00,A,3114.53770,N,12117.69889,E,0.008,,101217,,,D*66
$GNRMC,211636.00,A,3114.53767,N,12117.69889,E,0.017,,101217,,,D*6D
$GNRMC,211637.00,A,3114.53764,N,12117.69888,E,0.013,,101217,,,D*6A
$GNRMC,211638.00,A,3114.53762,N,12117.69887,E,0.010,,101217,,,D*6F
$GNRMC,211639.00,A,3114.53760,N,12117.69886,E,0.003,,101217,,,D*6F
$GNRMC,211640.00,A,3114.53758,N,12117.69885,E,0.011,,101217,,,D*6A
$GNRMC,211641.00,A,3114.53756,N,12117.69884,E,0.009,,101217,,,D*6D
$GNRMC,211642.00,A,3114.53756,N,12117.69883,E,0.002,,101217,,,D*62
$GNRMC,211643.00,A,3114.53755,N,12117.69882,E,0.001,,101217,,,D*62
$GNRMC,211644.00,A,3114.53754,N,12117.69881,E,0.008,,101217,,,D*6E
$GNRMC,211645.00,A,3114.53753,N,12117.69881,E,0.007,,101217,,,D*67
$GNRMC,211646.00,A,3114.53752,N,12117.69880,E,0.017,,101217,,,D*65
$GNRMC,211647.00,A,3114.53751,N,12117.69879,E,0.012,,101217,,,D*64
$GNRMC,211648.00,A,3114.53751,N,12117.69878,E,0.010,,101217,,,D*68
$GNRMC,211649.00,A,3114.53751,N,12117.69876,E,0.005,,101217,,,D*63
$GNRMC,211650.00,A,3114.53751,N,12117.69875,E,0.004,,101217,,,D*69
$GNRMC,211651.00,A,3114.53751,N,12117.69874,E,0.003,,101217,,,D*6E
$GNRMC,211652.00,A,3114.53752,N,12117.69871,E,0.014,,101217,,,D*6D
$GNRMC,211653.00,A,3114.53752,N,12117.69868,E,0.005,,101217,,,D*64
$GNRMC,211654.00,A,3114.53753,N,12117.69865,E,0.003,,101217,,,D*69
$GNRMC,211655.00,A,3114.53753,N,12117.69862,E,0.005,,101217,,,D*69
$GNRMC,211656.00,A,3114.53753,N,12117.69859,E,0.013,,101217,,,D*65
$GNRMC,211657.00,A,3114.53753,N,12117.69855,E,0.012,,101217,,,D*69
$GNRMC,211658.00,A,3114.53752,N,12117.69853,E,0.010,,101217,,,D*63
$GNRMC,211659.00,A,3114.53749,N,12117.69851,E,0.009,,101217,,,D*62
$GNRMC,211700.00,A,3114.53747,N,12117.69850,E,0.007,,101217,,,D*6E
$GNRMC,211701.00,A,3114.53744,N,12117.69850,E,0.017,,101217,,,D*6D
$GNRMC,211702.00,A,3114.53742,N,12117.69849,E,0.012,,101217,,,D*65
$GNRMC,211703.00,A,3114.53741,N,12117.69850,E,0.007,,101217,,,D*6B
$GNRMC,211704.00,A,3114.53740,N,12117.69849,E,0.002,,101217,,,D*60
$GNRMC,211705.00,A,3114.53740,N,12117.69849,E,0.006,,101217,,,D*65
$GNRMC,211706.00,A,3114.53740,N,12117.69848,E,0.013,,101217,,,D*63
$GNRMC,211707.00,A,3114.53739,N,12117.69846,E,0.001,,101217,,,D*61
$GNRMC,211708.00,A,3114.53739,N,12117.69846,E,0.010,,101217,,,D*6E
$GNRMC,211709.00,A,3114.53738,N,12117.69846,E,0.004,,101217,,,D*6B
$GNRMC,211710.00,A,3114.53737,N,12117.69847,E,0.002,,101217,,,D*6B
$GNRMC,211711.00,A,3114.53736,N,12117.69849,E,0.004,,101217,,,D*63
$GNRMC,211712.00,A,3114.53735,N,12117.69852,E,0.006,,101217,,,D*6B
$GNRMC,211713.00,A,3114.53734,N,12117.69855,E,0.012,,101217,,,D*69
$GNRMC,211714.00,A,3114.53732,N,12117.69859,E,0.013,,101217,,,D*65
$GNRMC,211715.00,A,3114.53730,N,12117.69864,E,0.007,,101217,,,D*6D
$GNRMC,211716.00,A,3114.53728,N,12117.69867,E,0.007,,101217,,,D*64
$GNRMC,211717.00,A,3114.53725,N,12117.69871,E,0.006,,101217,,,D*6E
$GNRMC,211718.00,A,3114.53723,N,12117.69874,E,0.003,,101217,,,D*67
$GNRMC,211719.00,A,3114.53720,N,12117.69877,E,0.007,,101217,,,D*62
$GNRMC,211720.00,A,3114.53718,N,12117.69880,E,0.012,,101217,,,D*6F
$GNRMC,211721.00,A,3114.53717,N,12117.69882,E,0.007,,101217,,,D*67
$GNRMC,211722.00,A,3114.53715,N,12117.69884,E,0.005,,101217,,,D*62
$GNRMC,211723.00,A,3114.53714,N,12117.69887,E,0.012,,101217,,,D*67
$GNRMC,211724.00,A,3114.53712,N,12117.69890,E,0.012,,101217,,,D*60
$GNRMC,211725.00,A,3114.53711,N,12117.69891,E,0.007,,101217,,,D*67
$GNRMC,211726.00,A,3114.53710,N,12117.69893,E,0.004,,101217,,,D*64
$GNRMC,211727.00,A,3114.53709,N,12117.69894,E,0.003,,101217,,,D*6D
$GNRMC,211728.00,A,3114.53708,N,12117.69896,E,0.007,,101217,,,D*65
$GNRMC,211729.00,A,3114.53707,N,12117.69897,E,0.010,,101217,,,D*6C
$GNRMC,211730.00,A,3114.53706,N,12117.69898,E,0.002,,101217,,,D*69
$GNRMC,211731.00,A,3114.53706,N,12117.69899,E,0.010,,101217,,,D*6A
$GNRMC,211732.00,A,3114.53705,N,12117.69899,E,0.001,,101217,,,D*6A
$GNRMC,211733.00,A,3114.53704,N,12117.69899,E,0.007,,101217,,,D*6C
$GNRMC,211734.00,A,3114.53703,N,12117.69898,E,0.008,,101217,,,D*62
$GNRMC,211735.00,A,3114.53702,N,12117.69898,E,0.010,,101217,,,D*6B
$GNRMC,211736.00,A,3114.53701,N,12117.69898,E,0.004,,101217,,,D*6E
$GNRMC,211737.00,A,3114.53700,N,12117.69898,E,0.001,,101217,,,D*6B
$GNRMC,211738.00,A,3114.53700,N,12117.69898,E,0.004,,101217,,,D*61
$GNRMC,211739.00,A,3114.53699,N,12117.69898,E,0.007,,101217,,,D*62
$GNRMC,211740.00,A,3114.53699,N,12117.69898,E,0.000,,101217,,,D*6B
$GNRMC,211741.00,A,3114.53699,N,12117.69898,E,0.008,,101217,,,D*62
$GNRMC,211742.00,A,3114.53699,N,12117.69898,E,0.014,,101217,,,D*6C
$GNRMC,211743.00,A,3114.53698,N,12117.69897,E,0.003,,101217,,,D*65
$GNRMC,211744.00,A,3114.53698,N,12117.69897,E,0.007,,101217,,,D*66
$GNRMC,211745.00,A,3114.53698,N,12117.69896,E,0.003,,101217,,,D*62
$GNRMC,211746.00,A,3114.53697,N,12117.69895,E,0.012,,101217,,,D*6D
$GNRMC,211747.00,A,3114.53697,N,12117.69895,E,0.006,,101217,,,D*69
$GNRMC,211748.00,A,3114.53696,N,12117.69894,E,0.013,,101217,,,D*62
$GNRMC,211749.00,A,3114.53695,N,12117.69893,E,0.005,,101217,,,D*60
$GNRMC,211750.00,A,3114.53695,N,12117.69892,E,0.012,,101217,,,D*6F
$GNRMC,211751.00,A,3114.53696,N,12117.69891,E,0.013,,101217,,,D*6F
$GNRMC,211752.00,A,3114.53695,N,12117.69890,E,0.011,,101217,,,D*6C
$GNRMC,211753.00,A,3114.53695,N,12117.69889,E,0.004,,101217,,,D*61
$GNRMC,211754.00,A,3114.53694,N,12117.69890,E,0.004,,101217,,,D*6F
$GNRMC,211755.00,A,3114.53693,N,12117.69889,E,0.005,,101217,,,D*60
$GNRMC,211756.00,A,3114.53692,N,12117.69888,E,0.010,,101217,,,D*67
$GNRMC,211757.00,A,3114.53690,N,12117.69887,E,0.014,,101217,,,D*6F
$GNRMC,211758.00,A,3114.53688,N,12117.69887,E,0.014,,101217,,,D*69
$GNRMC,211759.00,A,3114.53686,N,12117.69887,E,0.011,,101217,,,D*63
$GNRMC,211800.00,A,3114.53684,N,12117.69886,E,0.004,,101217,,,D*67
$GNRMC,211801.00,A,3114.53683,N,12117.69886,E,0.007,,101217,,,D*62
$GNRMC,211802.00,A,3114.53682,N,12117.69885,E,0.006,,101217,,,D*62
$GNRMC,211803.00,A,3114.53681,N,12117.69884,E,0.008,,101217,,,D*6F
$GNRMC,211804.00,A,3114.53680,N,12117.69883,E,0.005,,101217,,,D*63
$GNRMC,211805.00,A,3114.53680,N,12117.69883,E,0.015,,101217,,,D*63
$GNRMC,211806.00,A,3114.53679,N,12117.69882,E,0.014,,101217,,,D*66
$GNRMC,211807.00,A,3114.53679,N,12117.69882,E,0.004,,101217,,,D*66
$GNRMC,211808.00,A,3114.53679,N,12117.69881,E,0.006,,101217,,,D*68
$GNRMC,211809.00,A,3114.53678,N,12117.69881,E,0.005,,101217,,,D*6B
$GNRMC,211810.00,A,3114.53678,N,12117.69880,E,0.006,,101217,,,D*61
$GNRMC,211811.00,A,3114.53677,N,12117.69880,E,0.014,,101217,,,D*6C
$GNRMC,211812.00,A,3114.53677,N,12117.69880,E,0.003,,101217,,,D*69
$GNRMC,211813.00,A,3114.53677,N,12117.69880,E,0.006,,101217,,,D*6D
$GNRMC,211814.00,A,3114.53677,N,12117.69880,E,0.006,,101217,,,D*6A
$GNRMC,211815.00,A,3114.53678,N,12117.69880,E,0.019,,101217,,,D*6A
$GNRMC,211816.00,A,3114.53678,N,12117.69881,E,0.012,,101217,,,D*63
$GNRMC,211817.00,A,3114.53678,N,12117.69882,E,0.003,,101217,,,D*61
$GNRMC,211818.00,A,3114.53679,N,12117.69883,E,0.004,,101217,,,D*69
$GNRMC,211819.00,A,3114.53680,N,12117.69884,E,0.002,,101217,,,D*6F
$GNRMC,211820.00,A,3114.53681,N,12117.69885,E,0.005,,101217,,,D*62
$GNRMC,211821.00,A,3114.53682,N,12117.69886,E,0.006,,101217,,,D*60
$GNRMC,211822.00,A,3114.53682,N,12117.69887,E,0.007,,101217,,,D*63
$GNRMC,211823.00,A,3114.53683,N,12117.69888,E,0.004,,101217,,,D*6F
$GNRMC,211824.00,A,3114.53683,N,12117.69888,E,0.006,,101217,,,D*6A
$GNRMC,211825.00,A,3114.53684,N,12117.69888,E,0.012,,101217,,,D*69
$GNRMC,211826.00,A,3114.53684,N,12117.69888,E,0.020,,101217,,,D*6B
$GNRMC,211827.00,A,3114.53685,N,12117.69887,E,0.013,,101217,,,D*64
$GNRMC,211828.00,A,3114.53687,N,12117.69887,E,0.001,,101217,,,D*6A
$GNRMC,211829.00,A,3114.53691,N,12117.69886,E,0.009,,101217,,,D*65
$GNRMC,211830.00,A,3114.53695,N,12117.69885,E,0.008,,101217,,,D*6B
$GNRMC,211831.00,A,3114.53701,N,12117.69883,E,0.009,,101217,,,D*61
$GNRMC,211832.00,A,3114.53707,N,12117.69881,E,0.012,,101217,,,D*6C
$GNRMC,211833.00,A,3114.53713,N,12117.69878,E,0.006,,101217,,,D*6B
$GNRMC,211834.00,A,3114.53719,N,12117.69875,E,0.003,,101217,,,D*6E
$GNRMC,211835.00,A,3114.53723,N,12117.69873,E,0.010,,101217,,,D*62
$GNRMC,211836.00,A,3114.53728,N,12117.69870,E,0.004,,101217,,,D*6C
$GNRMC,211837.00,A,3114.53734,N,12117.69867,E,0.008,,101217,,,D*6A
$GNRMC,211838.00,A,3114.53739,N,12117.69864,E,0.011,,101217,,,D*63
$GNRMC,211839.00,A,3114.53744,N,12117.69861,E,0.009,,101217,,,D*64
$GNRMC,211840.00,A,3114.53749,N,12117.69858,E,0.000,,101217,,,D*64
$GNRMC,211841.00,A,3114.53754,N,12117.69855,E,0.006,,101217,,,D*62
$GNRMC,211842.00,A,3114.53757,N,12117.69851,E,0.003,,101217,,,D*63
$GNRMC,211843.00,A,3114.53760,N,12117.69848,E,0.007,,101217,,,D*6A
$GNRMC,211844.00,A,3114.53763,N,12117.69844,E,0.019,,101217,,,D*6D
$GNRMC,211845.00,A,3114.53764,N,12117.69839,E,0.012,,101217,,,D*6A
$GNRMC,211846.00,A,3114.53766,N,12117.69835,E,0.015,,101217,,,D*60
$GNRMC,211847.00,A,3114.53767,N,12117.69832,E,0.015,,101217,,,D*67
$GNRMC,211848.00,A,3114.53769,N,12117.69828,E,0.007,,101217,,,D*6E
$GNRMC,211849.00,A,3114.53770,N,12117.69823,E,0.008,,101217,,,D*63
$GNRMC,211850.00,A,3114.53773,N,12117.69819,E,0.009,,101217,,,D*60
$GNRMC,211851.00,A,3114.53775,N,12117.69816,E,0.009,,101217,,,D*68
$GNRMC,211852.00,A,3114.53777,N,12117.69813,E,0.010,,101217,,,D*64
$GNRMC,211853.00,A,3114.53778,N,12117.69811,E,0.010,,101217,,,D*68
$GNRMC,211854.00,A,3114.53780,N,12117.69809,E,0.005,,101217,,,D*65
$GNRMC,211855.00,A,3114.53782,N,12117.69808,E,0.005,,101217,,,D*67
$GNRMC,211856.00,A,3114.53783,N,12117.69808,E,0.017,,101217,,,D*66
$GNRMC,211857.00,A,3114.53786,N,12117.69808,E,0.004,,101217,,,D*60
$GNRMC,211858.00,A,3114.53788,N,12117.69808,E,0.005,,101217,,,D*60
$GNRMC,211859.00,A,3114.53791,N,12117.69808,E,0.006,,101217,,,D*6A
$GNRMC,211900.00,A,3114.53793,N,12117.69808,E,0.008,,101217,,,D*6B
$GNRMC,211901.00,A,3114.53795,N,12117.69807,E,0.007,,101217,,,D*6C
$GNRMC,211902.00,A,3114.53797,N,12117.69807,E,0.007,,101217,,,D*6D
$GNRMC,211903.00,A,3114.53799,N,12117.69806,E,0.008,,101217,,,D*6C
$GNRMC,211904.00,A,3114.53801,N,12117.69805,E,0.005,,101217,,,D*6B
$GNRMC,211905.00,A,3114.53802,N,12117.69805,E,0.012,,101217,,,D*6F
$GNRMC,211906.00,A,3114.53802,N,12117.69806,E,0.012,,101217,,,D*6F
$GNRMC,211907.00,A,3114.53803,N,12117.69806,E,0.011,,101217,,,D*6C
$GNRMC,211908.00,A,3114.53804,N,12117.69807,E,0.007,,101217,,,D*62
$GNRMC,211909.00,A,3114.53805,N,12117.69807,E,0.006,,101217,,,D*63
$GNRMC,211910.00,A,3114.53806,N,12117.69807,E,0.008,,101217,,,D*66
$GNRMC,211911.00,A,3114.53806,N,12117.69807,E,0.001,,101217,,,D*6E
$GNRMC,211912.00,A,3114.53807,N,12117.69808,E,0.004,,101217,,,D*66
$GNRMC,211913.00,A,3114.53808,N,12117.69808,E,0.004,,101217,,,D*68
$GNRMC,211914.00,A,3114.53808,N,12117.69809,E,0.002,,101217,,,D*68
$GNRMC,211915.00,A,3114.53809,N,12117.69810,E,0.005,,101217,,,D*67
$GNRMC,211916.00,A,3114.53809,N,12117.69811,E,0.011,,101217,,,D*60
$GNRMC,211917.00,A,3114.53808,N,12117.69812,E,0.007,,101217,,,D*64
$GNRMC,211918.00,A,3114.53809,N,12117.69812,E,0.009,,101217,,,D*64
$GNRMC,211919.00,A,3114.53810,N,12117.69812,E,0.009,,101217,,,D*6D
$GNRMC,211920.00,A,3114.53811,N,12117.69813,E,0.005,,101217,,,D*6B
$GNRMC,211921.00,A,3114.53810,N,12117.69815,E,0.007,,101217,,,D*6F
$GNRMC,211922.00,A,3114.53809,N,12117.69818,E,0.009,,101217,,,D*67
$GNRMC,211923.00,A,3114.53807,N,12117.69822,E,0.007,,101217,,,D*6F
$GNRMC,211924.00,A,3114.53804,N,12117.69825,E,0.006,,101217,,,D*6D
$GNRMC,211925.00,A,3114.53802,N,12117.69829,E,0.006,,101217,,,D*66
$GNRMC,211926.00,A,3114.53800,N,12117.69831,E,0.015,,101217,,,D*6C
$GNRMC,211927.00,A,3114.53797,N,12117.69834,E,0.010,,101217,,,D*6C
$GNRMC,211928.00,A,3114.53795,N,12117.69836,E,0.005,,101217,,,D*67
$GNRMC,211929.00,A,3114.53793,N,12117.69837,E,0.004,,101217,,,D*60
$GNRMC,211930.00,A,3114.53792,N,12117.69838,E,0.008,,101217,,,D*6A
$GNRMC,211931.00,A,3114.53790,N,12117.69840,E,0.004,,101217,,,D*6A
$GNRMC,211932.00,A,3114.53789,N,12117.69842,E,0.011,,101217,,,D*67
$GNRMC,211933.00,A,3114.53787,N,12117.69843,E,0.005,,101217,,,D*6C
$GNRMC,211934.00,A,3114.53786,N,12117.69844,E,0.006,,101217,,,D*6E
$GNRMC,211935.00,A,3114.53784,N,12117.69845,E,0.001,,101217,,,D*6B
$GNRMC,211936.00,A,3114.53782,N,12117.69846,E,0.009,,101217,,,D*65
$GNRMC,211937.00,A,3114.53779,N,12117.69847,E,0.003,,101217,,,D*6B
$GNRMC,211938.00,A,3114.53776,N,12117.69848,E,0.011,,101217,,,D*67
$GNRMC,211939.00,A,3114.53774,N,12117.69849,E,0.004,,101217,,,D*61
$GNRMC,211940.00,A,3114.53771,N,12117.69850,E,0.011,,101217,,,D*66
$GNRMC,211941.00,A,3114.53768,N,12117.69850,E,0.004,,101217,,,D*6B
$GNRMC,211942.00,A,3114.53766,N,12117.69851,E,0.012,,101217,,,D*60
$GNRMC,211943.00,A,3114.53764,N,12117.69852,E,0.011,,101217,,,D*63
$GNRMC,211944.00,A,3114.53762,N,12117.69854,E,0.006,,101217,,,D*62
$GNRMC,211945.00,A,3114.53760,N,12117.69855,E,0.004,,101217,,,D*62
$GNRMC,211946.00,A,3114.53758,N,12117.69857,E,0.008,,101217,,,D*64
$GNRMC,211947.00,A,3114.53757,N,12117.69859,E,0.008,,101217,,,D*64
$GNRMC,211948.00,A,3114.53757,N,12117.69860,E,0.007,,101217,,,D*6E
$GNRMC,211949.00,A,3114.53757,N,12117.69861,E,0.006,,101217,,,D*6F
$GNRMC,211950.00,A,3114.53757,N,12117.69863,E,0.005,,101217,,,D*66
$GNRMC,211951.00,A,3114.53756,N,12117.69865,E,0.002,,101217,,,D*67
$GNRMC,211952.00,A,3114.53756,N,12117.69867,E,0.012,,101217,,,D*67
$GNRMC,211953.00,A,3114.53756,N,12117.69869,E,0.001,,101217,,,D*6A
$GNRMC,211954.00,A,3114.53756,N,12117.69872,E,0.008,,101217,,,D*6E
$GNRMC,211955.00,A,3114.53755,N,12117.69875,E,0.006,,101217,,,D*65
$GNRMC,211956.00,A,3114.53754,N,12117.69877,E,0.007,,101217,,,D*64
$GNRMC,211957.00,A,3114.53753,N,12117.69878,E,0.006,,101217,,,D*6C
$GNRMC,211958.00,A,3114.53752,N,12117.69879,E,0.008,,101217,,,D*6D
$GNRMC,211959.00,A,3114.53751,N,12117.69881,E,0.009,,101217,,,D*69
$GNRMC,212000.00,A,3114.53749,N,12117.69882,E,0.018,,101217,,,D*65
$GNRMC,212001.00,A,3114.53748,N,12117.69883,E,0.004,,101217,,,D*69
$GNRMC,212002.00,A,3114.53748,N,12117.69884,E,0.015,,101217,,,D*6D
$GNRMC,212003.00,A,3114.53746,N,12117.69885,E,0.007,,101217,,,D*60
$GNRMC,212004.00,A,3114.53745,N,12117.69886,E,0.006,,101217,,,D*66
$GNRMC,212005.00,A,3114.53741,N,12117.69887,E,0.011,,101217,,,D*64
$GNRMC,212006.00,A,3114.53738,N,12117.69888,E,0.008,,101217,,,D*6E
$GNRMC,212007.00,A,3114.53734,N,12117.69890,E,0.008,,101217,,,D*6A
$GNRMC,212008.00,A,3114.53730,N,12117.69892,E,0.011,,101217,,,D*6B
$GNRMC,212009.00,A,3114.53727,N,12117.69895,E,0.008,,101217,,,D*63
$GNRMC,212010.00,A,3114.53725,N,12117.69896,E,0.005,,101217,,,D*67
$GNRMC,212011.00,A,3114.53724,N,12117.69898,E,0.008,,101217,,,D*64
$GNRMC,212012.00,A,3114.53723,N,12117.69900,E,0.009,,101217,,,D*61
$GNRMC,212013.00,A,3114.53722,N,12117.69902,E,0.012,,101217,,,D*69
$GNRMC,212014.00,A,3114.53721,N,12117.69905,E,0.001,,101217,,,D*68
$GNRMC,212015.00,A,3114.53720,N,12117.69908,E,0.006,,101217,,,D*62
$GNRMC,212016.00,A,3114.53719,N,12117.69911,E,0.005,,101217,,,D*60
$GNRMC,212017.00,A,3114.53717,N,12117.69915,E,0.015,,101217,,,D*6A
$GNRMC,212018.00,A,3114.53715,N,12117.69917,E,0.010,,101217,,,D*60
$GNRMC,212019.00,A,3114.53713,N,12117.69918,E,0.004,,101217,,,D*6D
$GNRMC,212020.00,A,3114.53713,N,12117.69919,E,0.006,,101217,,,D*64
$GNRMC,212021.00,A,3114.53712,N,12117.69919,E,0.005,,101217,,,D*67
$GNRMC,212022.00,A,3114.53710,N,12117.69918,E,0.012,,101217,,,D*61
$GNRMC,212023.00,A,3114.53710,N,12117.69919,E,0.002,,101217,,,D*60
$GNRMC,212024.00,A,3114.53709,N,12117.69919,E,0.010,,101217,,,D*6C
$GNRMC,212025.00,A,3114.53709,N,12117.69918,E,0.011,,101217,,,D*6D
$GNRMC,212026.00,A,3114.53709,N,12117.69918,E,0.009,,101217,,,D*67
$GNRMC,212027.00,A,3114.53708,N,12117.69917,E,0.008,,101217,,,D*69
$GNRMC,212028.00,A,3114.53707,N,12117.69916,E,0.011,,101217,,,D*60
$GNRMC,212029.00,A,3114.53705,N,12117.69916,E,0.007,,101217,,,D*64
$GNRMC,212030.00,A,3114.53704,N,12117.69916,E,0.001,,101217,,,D*6B
$GNRMC,212031.00,A,3114.53702,N,12117.69917,E,0.007,,101217,,,D*6B
$GNRMC,212032.00,A,3114.53701,N,12117.69917,E,0.005,,101217,,,D*69
$GNRMC,212033.00,A,3114.53700,N,12117.69917,E,0.012,,101217,,,D*6F
$GNRMC,212034.00,A,3114.53698,N,12117.69915,E,0.009,,101217,,,D*60
$GNRMC,212035.00,A,3114.53696,N,12117.69913,E,0.016,,101217,,,D*67
$GNRMC,212036.00,A,3114.53695,N,12117.69910,E,0.010,,101217,,,D*62
$GNRMC,212037.00,A,3114.53694,N,12117.69907,E,0.013,,101217,,,D*67
$GNRMC,212038.00,A,3114.53693,N,12117.69905,E,0.007,,101217,,,D*68
$GNRMC,212039.00,A,3114.53692,N,12117.69902,E,0.010,,101217,,,D*69
$GNRMC,212040.00,A,3114.53692,N,12117.69901,E,0.002,,101217,,,D*67
$GNRMC,212041.00,A,3114.53692,N,12117.69899,E,0.002,,101217,,,D*66
$GNRMC,212042.00,A,3114.53693,N,12117.69898,E,0.005,,101217,,,D*62
$GNRMC,212043.00,A,3114.53693,N,12117.69896,E,0.008,,101217,,,D*60
$GNRMC,212044.00,A,3114.53693,N,12117.69894,E,0.005,,101217,,,D*68
$GNRMC,212045.00,A,3114.53693,N,12117.69893,E,0.006,,101217,,,D*6D
$GNRMC,212046.00,A,3114.53693,N,12117.69891,E,0.008,,101217,,,D*62
$GNRMC,212047.00,A,3114.53692,N,12117.69890,E,0.007,,101217,,,D*6C
$GNRMC,212048.00,A,3114.53692,N,12117.69890,E,0.009,,101217,,,D*6D
$GNRMC,212049.00,A,3114.53691,N,12117.69890,E,0.014,,101217,,,D*63
$GNRMC,212050.00,A,3114.53691,N,12117.69890,E,0.006,,101217,,,D*68
$GNRMC,212051.00,A,3114.53691,N,12117.69891,E,0.009,,101217,,,D*67
$GNRMC,212052.00,A,3114.53692,N,12117.69891,E,0.005,,101217,,,D*6B
$GNRMC,212053.00,A,3114.53693,N,12117.69891,E,0.004,,101217,,,D*6A
$GNRMC,212054.00,A,3114.53693,N,12117.69891,E,0.004,,101217,,,D*6D
$GNRMC,212055.00,A,3114.53694,N,12117.69891,E,0.004,,101217,,,D*6B
$GNRMC,212056.00,A,3114.53695,N,12117.69891,E,0.009,,101217,,,D*64
$GNRMC,212057.00,A,3114.53695,N,12117.69892,E,0.006,,101217,,,D*69
$GNRMC,212058.00,A,3114.53695,N,12117.69893,E,0.010,,101217,,,D*60
$GNRMC,212059.00,A,3114.53695,N,12117.69895,E,0.006,,101217,,,D*60
$GNRMC,212100.00,A,3114.53696,N,12117.69896,E,0.006,,101217,,,D*6D
$GNRMC,212101.00,A,3114.53696,N,12117.69897,E,0.002,,101217,,,D*69
$GNRMC,212102.00,A,3114.53696,N,12117.69898,E,0.012,,101217,,,D*64
$GNRMC,212103.00,A,3114.53697,N,12117.69899,E,0.008,,101217,,,D*6E
$GNRMC,212104.00,A,3114.53697,N,12117.69901,E,0.006,,101217,,,D*67
$GNRMC,212105.00,A,3114.53696,N,12117.69902,E,0.006,,101217,,,D*64
$GNRMC,212106.00,A,3114.53694,N,12117.69903,E,0.006,,101217,,,D*64
$GNRMC,212107.00,A,3114.53693,N,12117.69904,E,0.009,,101217,,,D*6A
$GNRMC,212108.00,A,3114.53691,N,12117.69903,E,0.012,,101217,,,D*6A
$GNRMC,212109.00,A,3114.53690,N,12117.69903,E,0.004,,101217,,,D*6D
$GNRMC,212110.00,A,3114.53689,N,12117.69902,E,0.008,,101217,,,D*60
$GNRMC,212111.00,A,3114.53688,N,12117.69902,E,0.004,,101217,,,D*6C
$GNRMC,212112.00,A,3114.53688,N,12117.69903,E,0.004,,101217,,,D*6E
$GNRMC,212113.00,A,3114.53688,N,12117.69903,E,0.003,,101217,,,D*68
$GNRMC,212114.00,A,3114.53688,N,12117.69905,E,0.004,,101217,,,D*6E
$GNRMC,212115.00,A,3114.53687,N,12117.69906,E,0.013,,101217,,,D*65
$GNRMC,212116.00,A,3114.53686,N,12117.69907,E,0.016,,101217,,,D*63
$GNRMC,212117.00,A,3114.53685,N,12117.69909,E,0.015,,101217,,,D*6C
$GNRMC,212118.00,A,3114.53684,N,12117.69910,E,0.008,,101217,,,D*66
$GNRMC,212119.00,A,3114.53683,N,12117.69910,E,0.006,,101217,,,D*6E
$GNRMC,212120.00,A,3114.53683,N,12117.69910,E,0.005,,101217,,,D*67
$GNRMC,212121.00,A,3114.53682,N,12117.69910,E,0.003,,101217,,,D*61
$GNRMC,212122.00,A,3114.53683,N,12117.69910,E,0.003,,101217,,,D*63
$GNRMC,212123.00,A,3114.53684,N,12117.69909,E,0.002,,101217,,,D*6C
$GNRMC,212124.00,A,3114.53685,N,12117.69909,E,0.003,,101217,,,D*6B
$GNRMC,212125.00,A,3114.53685,N,12117.69908,E,0.001,,101217,,,D*69
$GNRMC,212126.00,A,3114.53686,N,12117.69906,E,0.003,,101217,,,D*65
$GNRMC,212127.00,A,3114.53687,N,12117.69905,E,0.003,,101217,,,D*66
$GNRMC,212128.00,A,3114.53689,N,12117.69903,E,0.002,,101217,,,D*60
$GNRMC,212129.00,A,3114.53690,N,12117.69902,E,0.015,,101217,,,D*6E
$GNRMC,212130.00,A,3114.53691,N,12117.69902,E,0.003,,101217,,,D*60
$GNRMC,212131.00,A,3114.53691,N,12117.69901,E,0.012,,101217,,,D*62
$GNRMC,212132.00,A,3114.53692,N,12117.69900,E,0.005,,101217,,,D*65
$GNRMC,212133.00,A,3114.53693,N,12117.69900,E,0.012,,101217,,,D*63
$GNRMC,212134.00,A,3114.53692,N,12117.69899,E,0.007,,101217,,,D*60
$GNRMC,212135.00,A,3114.53693,N,12117.69898,E,0.001,,101217,,,D*67
$GNRMC,212136.00,A,3114.53694,N,12117.69897,E,0.006,,101217,,,D*6B
$GNRMC,212137.00,A,3114.53694,N,12117.69896,E,0.008,,101217,,,D*65
$GNRMC,212138.00,A,3114.53695,N,12117.69894,E,0.010,,101217,,,D*60
$GNRMC,212139.00,A,3114.53696,N,12117.69892,E,0.011,,101217,,,D*65
$GNRMC,212140.00,A,3114.53696,N,12117.69889,E,0.008,,101217,,,D*69
$GNRMC,212141.00,A,3114.53696,N,12117.69886,E,0.010,,101217,,,D*6E
$GNRMC,212142.00,A,3114.53696,N,12117.69882,E,0.015,,101217,,,D*6C
$GNRMC,212143.00,A,3114.53696,N,12117.69879,E,0.006,,101217,,,D*6B
$GNRMC,212144.00,A,3114.53697,N,12117.69876,E,0.006,,101217,,,D*62
$GNRMC,212145.00,A,3114.53698,N,12117.69873,E,0.009,,101217,,,D*66
$GNRMC,212146.00,A,3114.53698,N,12117.69870,E,0.010,,101217,,,D*6E
$GNRMC,212147.00,A,3114.53699,N,12117.69868,E,0.008,,101217,,,D*6E
$GNRMC,212148.00,A,3114.53699,N,12117.69865,E,0.012,,101217,,,D*67
$GNRMC,212149.00,A,3114.53700,N,12117.69863,E,0.008,,101217,,,D*6A
$GNRMC,212150.00,A,3114.53702,N,12117.69861,E,0.008,,101217,,,D*62
$GNRMC,212151.00,A,3114.53703,N,12117.69859,E,0.006,,101217,,,D*67
$GNRMC,212152.00,A,3114.53705,N,12117.69858,E,0.005,,101217,,,D*60
$GNRMC,212153.00,A,3114.53707,N,12117.69856,E,0.012,,101217,,,D*6B
$GNRMC,212154.00,A,3114.53708,N,12117.69854,E,0.005,,101217,,,D*67
$GNRMC,212155.00,A,3114.53710,N,12117.69851,E,0.005,,101217,,,D*6A
$GNRMC,212156.00,A,3114.53712,N,12117.69849,E,0.012,,101217,,,D*64
$GNRMC,212157.00,A,3114.53717,N,12117.69846,E,0.011,,101217,,,D*6C
$GNRMC,212158.00,A,3114.53722,N,12117.69843,E,0.009,,101217,,,D*69
$GNRMC,212159.00,A,3114.53727,N,12117.69840,E,0.009,,101217,,,D*6E
$GNRMC,212200.00,A,3114.53733,N,12117.69837,E,0.014,,101217,,,D*68
$GNRMC,212201.00,A,3114.53737,N,12117.69835,E,0.010,,101217,,,D*6B
$GNRMC,212202.00,A,3114.53740,N,12117.69834,E,0.006,,101217,,,D*6E
$GNRMC,212203.00,A,3114.53742,N,12117.69832,E,0.010,,101217,,,D*6C
$GNRMC,212204.00,A,3114.53743,N,12117.69830,E,0.011,,101217,,,D*69
$GNRMC,212205.00,A,3114.53744,N,12117.69828,E,0.007,,101217,,,D*61
$GNRMC,212206.00,A,3114.53745,N,12117.69827,E,0.011,,101217,,,D*6B
$GNRMC,212207.00,A,3114.53746,N,12117.69827,E,0.011,,101217,,,D*69
$GNRMC,212208.00,A,3114.53747,N,12117.69828,E,0.014,,101217,,,D*6D
$GNRMC,212209.00,A,3114.53748,N,12117.69830,E,0.006,,101217,,,D*69
$GNRMC,212210.00,A,3114.53750,N,12117.69831,E,0.020,,101217,,,D*6D
$GNRMC,212211.00,A,3114.53752,N,12117.69833,E,0.012,,101217,,,D*6D
$GNRMC,212212.00,A,3114.53755,N,12117.69835,E,0.006,,101217,,,D*6A
$GNRMC,212213.00,A,3114.53757,N,12117.69836,E,0.003,,101217,,,D*6F
$GNRMC,212214.00,A,3114.53760,N,12117.69838,E,0.007,,101217,,,D*66
$GNRMC,212215.00,A,3114.53763,N,12117.69839,E,0.003,,101217,,,D*61
$GNRMC,212216.00,A,3114.53766,N,12117.69840,E,0.007,,101217,,,D*6D
$GNRMC,212217.00,A,3114.53769,N,12117.69841,E,0.005,,101217,,,D*60
$GNRMC,212218.00,A,3114.53772,N,12117.69842,E,0.010,,101217,,,D*62
$GNRMC,212219.00,A,3114.53776,N,12117.69843,E,0.004,,101217,,,D*63
$GNRMC,212220.00,A,3114.53779,N,12117.69842,E,0.001,,101217,,,D*62
$GNRMC,212221.00,A,3114.53783,N,12117.69842,E,0.007,,101217,,,D*60
$GNRMC,212222.00,A,3114.53787,N,12117.69842,E,0.009,,101217,,,D*69
$GNRMC,212223.00,A,3114.53791,N,12117.69843,E,0.005,,101217,,,D*62
$GNRMC,212224.00,A,3114.53794,N,12117.69843,E,0.015,,101217,,,D*61
$GNRMC,212225.00,A,3114.53798,N,12117.69842,E,0.005,,101217,,,D*6C
$GNRMC,212226.00,A,3114.53801,N,12117.69843,E,0.004,,101217,,,D*60
$GNRMC,212227.00,A,3114.53805,N,12117.69842,E,0.004,,101217,,,D*64
$GNRMC,212228.00,A,3114.53809,N,12117.69842,E,0.001,,101217,,,D*62
$GNRMC,212229.00,A,3114.53812,N,12117.69841,E,0.006,,101217,,,D*6D
$GNRMC,212230.00,A,3114.53815,N,12117.69840,E,0.005,,101217,,,D*60
$GNRMC,212231.00,A,3114.53817,N,12117.69841,E,0.004,,101217,,,D*63
$GNRMC,212232.00,A,3114.53818,N,12117.69841,E,0.009,,101217,,,D*62
$GNRMC,212233.00,A,3114.53819,N,12117.69842,E,0.010,,101217,,,D*69
$GNRMC,212234.00,A,3114.53819,N,12117.69842,E,0.011,,101217,,,D*6F
$GNRMC,212235.00,A,3114.53820,N,12117.69844,E,0.002,,101217,,,D*60
$GNRMC,212236.00,A,3114.53821,N,12117.69844,E,0.005,,101217,,,D*65
$GNRMC,212237.00,A,3114.53821,N,12117.69845,E,0.008,,101217,,,D*68
$GNRMC,212238.00,A,3114.53821,N,12117.69845,E,0.011,,101217,,,D*6F
$GNRMC,212239.00,A,3114.53821,N,12117.69846,E,0.010,,101217,,,D*6C
$GNRMC,212240.00,A,3114.53820,N,12117.69846,E,0.004,,101217,,,D*66
$GNRMC,212241.00,A,3114.53820,N,12117.69846,E,0.009,,101217,,,D*6A
$GNRMC,212242.00,A,3114.53820,N,12117.69845,E,0.001,,101217,,,D*62
$GNRMC,212243.00,A,3114.53820,N,12117.69843,E,0.005,,101217,,,D*61
$GNRMC,212244.00,A,3114.53821,N,12117.69843,E,0.007,,101217,,,D*65
$GNRMC,212245.00,A,3114.53821,N,12117.69843,E,0.005,,101217,,,D*66
$GNRMC,212246.00,A,3114.53821,N,12117.69845,E,0.004,,101217,,,D*62
$GNRMC,212247.00,A,3114.53820,N,12117.69847,E,0.014,,101217,,,D*61
$GNRMC,212248.00,A,3114.53819,N,12117.69851,E,0.015,,101217,,,D*62
$GNRMC,212249.00,A,3114.53818,N,12117.69855,E,0.007,,101217,,,D*65
$GNRMC,212250.00,A,3114.53817,N,12117.69858,E,0.010,,101217,,,D*69
$GNRMC,212251.00,A,3114.53817,N,12117.69861,E,0.008,,101217,,,D*6B
$GNRMC,212252.00,A,3114.53817,N,12117.69863,E,0.003,,101217,,,D*61
$GNRMC,212253.00,A,3114.53816,N,12117.69866,E,0.013,,101217,,,D*65
$GNRMC,212254.00,A,3114.53815,N,12117.69868,E,0.003,,101217,,,D*6E
$GNRMC,212255.00,A,3114.53815,N,12117.69870,E,0.005,,101217,,,D*60
$GNRMC,212256.00,A,3114.53815,N,12117.69871,E,0.003,,101217,,,D*64
$GNRMC,212257.00,A,3114.53815,N,12117.69871,E,0.002,,101217,,,D*64
$GNRMC,212258.00,A,3114.53815,N,12117.69871,E,0.010,,101217,,,D*68
$GNRMC,212259.00,A,3114.53815,N,12117.69871,E,0.013,,101217,,,D*6A
$GNRMC,212300.00,A,3114.53817,N,12117.69870,E,0.007,,101217,,,D*61
$GNRMC,212301.00,A,3114.53817,N,12117.69869,E,0.012,,101217,,,D*6C
$GNRMC,212302.00,A,3114.53818,N,12117.69868,E,0.014,,101217,,,D*67
$GNRMC,212303.00,A,3114.53818,N,12117.69867,E,0.010,,101217,,,D*6D
$GNRMC,212304.00,A,3114.53820,N,12117.69866,E,0.004,,101217,,,D*65
$GNRMC,212305.00,A,3114.53820,N,12117.69864,E,0.002,,101217,,,D*60
$GNRMC,212306.00,A,3114.53821,N,12117.69864,E,0.010,,101217,,,D*61
$GNRMC,212307.00,A,3114.53822,N,12117.69863,E,0.010,,101217,,,D*64
$GNRMC,212308.00,A,3114.53823,N,12117.69862,E,0.008,,101217,,,D*62
$GNRMC,212309.00,A,3114.53825,N,12117.69861,E,0.006,,101217,,,D*68
$GNRMC,212310.00,A,3114.53826,N,12117.69861,E,0.010,,101217,,,D*64
$GNRMC,212311.00,A,3114.53827,N,12117.69861,E,0.002,,101217,,,D*67
$GNRMC,212312.00,A,3114.53830,N,12117.69860,E,0.014,,101217,,,D*64
$GNRMC,212313.00,A,3114.53831,N,12117.69860,E,0.004,,101217,,,D*65
$GNRMC,212314.00,A,3114.53832,N,12117.69859,E,0.010,,101217,,,D*6E
$GNRMC,212315.00,A,3114.53835,N,12117.69857,E,0.010,,101217,,,D*66
$GNRMC,212316.00,A,3114.53838,N,12117.69856,E,0.009,,101217,,,D*61
$GNRMC,212317.00,A,3114.53840,N,12117.69855,E,0.008,,101217,,,D*6D
$GNRMC,212318.00,A,3114.53842,N,12117.69854,E,0.014,,101217,,,D*6C
$GNRMC,212319.00,A,3114.53844,N,12117.69853,E,0.010,,101217,,,D*68
$GNRMC,212320.00,A,3114.53845,N,12117.69852,E,0.009,,101217,,,D*6A
$GNRMC,212321.00,A,3114.53847,N,12117.69853,E,0.006,,101217,,,D*67
$GNRMC,212322.00,A,3114.53849,N,12117.69853,E,0.007,,101217,,,D*6B
$GNRMC,212323.00,A,3114.53851,N,12117.69854,E,0.003,,101217,,,D*60
$GNRMC,212324.00,A,3114.53852,N,12117.69854,E,0.008,,101217,,,D*6F
$GNRMC,212325.00,A,3114.53854,N,12117.69855,E,0.007,,101217,,,D*66
$GNRMC,212326.00,A,3114.53855,N,12117.69854,E,0.011,,101217,,,D*62
$GNRMC,212327.00,A,3114.53857,N,12117.69852,E,0.015,,101217,,,D*63
$GNRMC,212328.00,A,3114.53859,N,12117.69851,E,0.009,,101217,,,D*6C
$GNRMC,212329.00,A,3114.53860,N,12117.69851,E,0.008,,101217,,,D*66
$GNRMC,212330.00,A,3114.53861,N,12117.69851,E,0.007,,101217,,,D*60
$GNRMC,212331.00,A,3114.53862,N,12117.69850,E,0.012,,101217,,,D*67
$GNRMC,212332.00,A,3114.53862,N,12117.69850,E,0.006,,101217,,,D*61
$GNRMC,212333.00,A,3114.53862,N,12117.69849,E,0.009,,101217,,,D*67
$GNRMC,212334.00,A,3114.53863,N,12117.69847,E,0.014,,101217,,,D*63
$GNRMC,212335.00,A,3114.53864,N,12117.69847,E,0.008,,101217,,,D*68
$GNRMC,212336.00,A,3114.53864,N,12117.69848,E,0.004,,101217,,,D*68
$GNRMC,212337.00,A,3114.53865,N,12117.69850,E,0.006,,101217,,,D*63
$GNRMC,212338.00,A,3114.53865,N,12117.69853,E,0.002,,101217,,,D*6B
$GNRMC,212339.00,A,3114.53864,N,12117.69855,E,0.008,,101217,,,D*67
$GNRMC,212340.00,A,3114.53862,N,12117.69859,E,0.006,,101217,,,D*6D
$GNRMC,212341.00,A,3114.53861,N,12117.69860,E,0.012,,101217,,,D*60
$GNRMC,212342.00,A,3114.53860,N,12117.69862,E,0.013,,101217,,,D*61
$GNRMC,212343.00,A,3114.53858,N,12117.69862,E,0.011,,101217,,,D*69
$GNRMC,212344.00,A,3114.53856,N,12117.69863,E,0.004,,101217,,,D*65
$GNRMC,212345.00,A,3114.53855,N,12117.69864,E,0.015,,101217,,,D*60
$GNRMC,212346.00,A,3114.53853,N,12117.69864,E,0.005,,101217,,,D*64
$GNRMC,212347.00,A,3114.53852,N,12117.69865,E,0.010,,101217,,,D*61
$GNRMC,212348.00,A,3114.53851,N,12117.69865,E,0.003,,101217,,,D*6F
$GNRMC,212349.00,A,3114.53850,N,12117.69865,E,0.006,,101217,,,D*6A
$GNRMC,212350.00,A,3114.53849,N,12117.69866,E,0.005,,101217,,,D*6A
$GNRMC,212351.00,A,3114.53848,N,12117.69866,E,0.006,,101217,,,D*69
$GNRMC,212352.00,A,3114.53848,N,12117.69867,E,0.002,,101217,,,D*6F
$GNRMC,212353.00,A,3114.53849,N,12117.69867,E,0.007,,101217,,,D*6A
$GNRMC,212354.00,A,3114.53850,N,12117.69868,E,0.012,,101217,,,D*6E
$GNRMC,212355.00,A,3114.53852,N,12117.69869,E,0.011,,101217,,,D*6F
$GNRMC,212356.00,A,3114.53853,N,12117.69870,E,0.007,,101217,,,D*62
$GNRMC,212357.00,A,3114.53853,N,12117.69871,E,0.003,,101217,,,D*66
$GNRMC,212358.00,A,3114.53853,N,12117.69873,E,0.004,,101217,,,D*6C
$GNRMC,212359.00,A,3114.53853,N,12117.69875,E,0.007,,101217,,,D*68
$GNRMC,212400.00,A,3114.53851,N,12117.69875,E,0.008,,101217,,,D*6E
$GNRMC,212401.00,A,3114.53851,N,12117.69877,E,0.007,,101217,,,D*62
$GNRMC,212402.00,A,3114.53850,N,12117.69879,E,0.012,,101217,,,D*6A
$GNRMC,212403.00,A,3114.53849,N,12117.69881,E,0.009,,101217,,,D*6E
$GNRMC,212404.00,A,3114.53848,N,12117.69882,E,0.013,,101217,,,D*60
$GNRMC,212405.00,A,3114.53848,N,12117.69882,E,0.006,,101217,,,D*65
$GNRMC,212406.00,A,3114.53847,N,12117.69881,E,0.015,,101217,,,D*68
$GNRMC,212407.00,A,3114.53847,N,12117.69880,E,0.000,,101217,,,D*6C
$GNRMC,212408.00,A,3114.53847,N,12117.69879,E,0.015,,101217,,,D*61
$GNRMC,212409.00,A,3114.53848,N,12117.69879,E,0.006,,101217,,,D*6D
$GNRMC,212410.00,A,3114.53849,N,12117.69882,E,0.006,,101217,,,D*60
$GNRMC,212411.00,A,3114.53849,N,12117.69884,E,0.005,,101217,,,D*64
$GNRMC,212412.00,A,3114.53848,N,12117.69886,E,0.006,,101217,,,D*67
$GNRMC,212413.00,A,3114.53847,N,12117.69888,E,0.006,,101217,,,D*67
$GNRMC,212414.00,A,3114.53845,N,12117.69888,E,0.005,,101217,,,D*61
$GNRMC,212415.00,A,3114.53843,N,12117.69887,E,0.012,,101217,,,D*6F
$GNRMC,212416.00,A,3114.53841,N,12117.69886,E,0.010,,101217,,,D*6D
$GNRMC,212417.00,A,3114.53838,N,12117.69885,E,0.015,,101217,,,D*64
$GNRMC,212418.00,A,3114.53836,N,12117.69884,E,0.008,,101217,,,D*68
$GNRMC,212419.00,A,3114.53833,N,12117.69883,E,0.001,,101217,,,D*62
$GNRMC,212420.00,A,3114.53831,N,12117.69883,E,0.009,,101217,,,D*62
$GNRMC,212421.00,A,3114.53829,N,12117.69883,E,0.005,,101217,,,D*66
$GNRMC,212422.00,A,3114.53827,N,12117.69882,E,0.005,,101217,,,D*6A
$GNRMC,212423.00,A,3114.53828,N,12117.69881,E,0.003,,101217,,,D*61
$GNRMC,212424.00,A,3114.53830,N,12117.69880,E,0.013,,101217,,,D*6F
$GNRMC,212425.00,A,3114.53831,N,12117.69878,E,0.010,,101217,,,D*6B
$GNRMC,212426.00,A,3114.53833,N,12117.69877,E,0.006,,101217,,,D*62
$GNRMC,212427.00,A,3114.53834,N,12117.69877,E,0.014,,101217,,,D*67
$GNRMC,212428.00,A,3114.53836,N,12117.69877,E,0.000,,101217,,,D*6F
$GNRMC,212429.00,A,3114.53838,N,12117.69877,E,0.008,,101217,,,D*68
$GNRMC,212430.00,A,3114.53840,N,12117.69875,E,0.009,,101217,,,D*6C
$GNRMC,212431.00,A,3114.53842,N,12117.69874,E,0.015,,101217,,,D*63
$GNRMC,212432.00,A,3114.53844,N,12117.69873,E,0.015,,101217,,,D*61
$GNRMC,212433.00,A,3114.53846,N,12117.69872,E,0.010,,101217,,,D*66
$GNRMC,212434.00,A,3114.53847,N,12117.69872,E,0.019,,101217,,,D*69
$GNRMC,212435.00,A,3114.53849,N,12117.69873,E,0.004,,101217,,,D*6B
$GNRMC,212436.00,A,3114.53850,N,12117.69874,E,0.003,,101217,,,D*60
$GNRMC,212437.00,A,3114.53851,N,12117.69875,E,0.011,,101217,,,D*62
$GNRMC,212438.00,A,3114.53852,N,12117.69876,E,0.007,,101217,,,D*6A
$GNRMC,212439.00,A,3114.53853,N,12117.69878,E,0.009,,101217,,,D*6A
$GNRMC,212440.00,A,3114.53853,N,12117.69880,E,0.004,,101217,,,D*6E
$GNRMC,212441.00,A,3114.53853,N,12117.69882,E,0.006,,101217,,,D*6F
$GNRMC,212442.00,A,3114.53852,N,12117.69884,E,0.006,,101217,,,D*6B
$GNRMC,212443.00,A,3114.53850,N,12117.69886,E,0.001,,101217,,,D*6D
$GNRMC,212444.00,A,3114.53848,N,12117.69888,E,0.011,,101217,,,D*6C
$GNRMC,212445.00,A,3114.53846,N,12117.69891,E,0.011,,101217,,,D*6B
$GNRMC,212446.00,A,3114.53846,N,12117.69895,E,0.004,,101217,,,D*68
$GNRMC,212447.00,A,3114.53847,N,12117.69898,E,0.006,,101217,,,D*67
$GNRMC,212448.00,A,3114.53848,N,12117.69900,E,0.007,,101217,,,D*66
$GNRMC,212449.00,A,3114.53849,N,12117.69902,E,0.004,,101217,,,D*67
$GNRMC,212450.00,A,3114.53850,N,12117.69904,E,0.004,,101217,,,D*61
$GNRMC,212451.00,A,3114.53850,N,12117.69906,E,0.006,,101217,,,D*60
$GNRMC,212452.00,A,3114.53849,N,12117.69908,E,0.005,,101217,,,D*66
$GNRMC,212453.00,A,3114.53848,N,12117.69910,E,0.007,,101217,,,D*6D
$GNRMC,212454.00,A,3114.53848,N,12117.69912,E,0.006,,101217,,,D*69
$GNRMC,212455.00,A,3114.53848,N,12117.69913,E,0.009,,101217,,,D*66
$GNRMC,212456.00,A,3114.53847,N,12117.69914,E,0.011,,101217,,,D*64
$GNRMC,212457.00,A,3114.53847,N,12117.69913,E,0.017,,101217,,,D*64
$GNRMC,212458.00,A,3114.53846,N,12117.69912,E,0.009,,101217,,,D*64
$GNRMC,212459.00,A,3114.53845,N,12117.69911,E,0.008,,101217,,,D*64
$GNRMC,212500.00,A,3114.53845,N,12117.69909,E,0.001,,101217,,,D*69
$GNRMC,212501.00,A,3114.53845,N,12117.69906,E,0.013,,101217,,,D*64
$GNRMC,212502.00,A,3114.53845,N,12117.69903,E,0.009,,101217,,,D*69
$GNRMC,212503.00,A,3114.53845,N,12117.69901,E,0.003,,101217,,,D*60
$GNRMC,212504.00,A,3114.53845,N,12117.69898,E,0.003,,101217,,,D*66
$GNRMC,212505.00,A,3114.53843,N,12117.69896,E,0.014,,101217,,,D*69
$GNRMC,212506.00,A,3114.53841,N,12117.69893,E,0.009,,101217,,,D*61
$GNRMC,212507.00,A,3114.53839,N,12117.69889,E,0.022,,101217,,,D*6D
$GNRMC,212508.00,A,3114.53837,N,12117.69885,E,0.009,,101217,,,D*69
$GNRMC,212509.00,A,3114.53834,N,12117.69881,E,0.007,,101217,,,D*61
$GNRMC,212510.00,A,3114.53831,N,12117.69877,E,0.009,,101217,,,D*6B
$GNRMC,212511.00,A,3114.53829,N,12117.69875,E,0.014,,101217,,,D*6D
$GNRMC,212512.00,A,3114.53827,N,12117.69873,E,0.007,,101217,,,D*64
$GNRMC,212513.00,A,3114.53825,N,12117.69872,E,0.014,,101217,,,D*64
$GNRMC,212514.00,A,3114.53824,N,12117.69870,E,0.012,,101217,,,D*66
$GNRMC,212515.00,A,3114.53822,N,12117.69867,E,0.016,,101217,,,D*63
$GNRMC,212516.00,A,3114.53819,N,12117.69866,E,0.009,,101217,,,D*67
$GNRMC,212517.00,A,3114.53817,N,12117.69865,E,0.006,,101217,,,D*64
$GNRMC,212518.00,A,3114.53815,N,12117.69864,E,0.017,,101217,,,D*68
$GNRMC,212519.00,A,3114.53813,N,12117.69864,E,0.009,,101217,,,D*60
$GNRMC,212520.00,A,3114.53811,N,12117.69864,E,0.010,,101217,,,D*60
$GNRMC,212521.00,A,3114.53811,N,12117.69864,E,0.011,,101217,,,D*60
$GNRMC,212522.00,A,3114.53810,N,12117.69863,E,0.008,,101217,,,D*6D
$GNRMC,212523.00,A,3114.53809,N,12117.69862,E,0.014,,101217,,,D*68
$GNRMC,212524.00,A,3114.53809,N,12117.69862,E,0.017,,101217,,,D*6C
$GNRMC,212525.00,A,3114.53808,N,12117.69861,E,0.010,,101217,,,D*68
$GNRMC,212526.00,A,3114.53808,N,12117.69860,E,0.006,,101217,,,D*6D
$GNRMC,212527.00,A,3114.53807,N,12117.69858,E,0.012,,101217,,,D*6D
$GNRMC,212528.00,A,3114.53805,N,12117.69856,E,0.013,,101217,,,D*6F
$GNRMC,212529.00,A,3114.53803,N,12117.69856,E,0.004,,101217,,,D*6E
$GNRMC,212530.00,A,3114.53802,N,12117.69855,E,0.005,,101217,,,D*65
$GNRMC,212531.00,A,3114.53800,N,12117.69856,E,0.004,,101217,,,D*64
$GNRMC,212532.00,A,3114.53799,N,12117.69857,E,0.003,,101217,,,D*6E
$GNRMC,212533.00,A,3114.53797,N,12117.69858,E,0.006,,101217,,,D*6B
$GNRMC,212534.00,A,3114.53797,N,12117.69860,E,0.009,,101217,,,D*68
$GNRMC,212535.00,A,3114.53795,N,12117.69862,E,0.003,,101217,,,D*63
$GNRMC,212536.00,A,3114.53795,N,12117.69864,E,0.003,,101217,,,D*66
$GNRMC,212537.00,A,3114.53795,N,12117.69866,E,0.002,,101217,,,D*64
$GNRMC,212538.00,A,3114.53794,N,12117.69869,E,0.001,,101217,,,D*66
$GNRMC,212539.00,A,3114.53793,N,12117.69870,E,0.013,,101217,,,D*6B
$GNRMC,212540.00,A,3114.53790,N,12117.69873,E,0.003,,101217,,,D*64
$GNRMC,212541.00,A,3114.53790,N,12117.69875,E,0.004,,101217,,,D*64
$GNRMC,212542.00,A,3114.53790,N,12117.69877,E,0.003,,101217,,,D*62
$GNRMC,212543.00,A,3114.53791,N,12117.69879,E,0.019,,101217,,,D*67
$GNRMC,212544.00,A,3114.53792,N,12117.69880,E,0.009,,101217,,,D*64
$GNRMC,212545.00,A,3114.53793,N,12117.69882,E,0.012,,101217,,,D*6C
$GNRMC,212546.00,A,3114.53794,N,12117.69885,E,0.004,,101217,,,D*68
$GNRMC,212547.00,A,3114.53794,N,12117.69886,E,0.006,,101217,,,D*68
$GNRMC,212548.00,A,3114.53796,N,12117.69887,E,0.014,,101217,,,D*67
$GNRMC,212549.00,A,3114.53796,N,12117.69888,E,0.005,,101217,,,D*69
$GNRMC,212550.00,A,3114.53799,N,12117.69889,E,0.009,,101217,,,D*63
$GNRMC,212551.00,A,3114.53801,N,12117.69889,E,0.002,,101217,,,D*67
$GNRMC,212552.00,A,3114.53801,N,12117.69889,E,0.005,,101217,,,D*63
$GNRMC,212553.00,A,3114.53801,N,12117.69889,E,0.010,,101217,,,D*66
$GNRMC,212554.00,A,3114.53801,N,12117.69890,E,0.008,,101217,,,D*60
$GNRMC,212555.00,A,3114.53801,N,12117.69891,E,0.008,,101217,,,D*60
$GNRMC,212556.00,A,3114.53801,N,12117.69892,E,0.009,,101217,,,D*61
$GNRMC,212557.00,A,3114.53802,N,12117.69892,E,0.016,,101217,,,D*6D
$GNRMC,212558.00,A,3114.53803,N,12117.69893,E,0.007,,101217,,,D*62
$GNRMC,212559.00,A,3114.53802,N,12117.69893,E,0.006,,101217,,,D*63
$GNRMC,212600.00,A,3114.53801,N,12117.69893,E,0.009,,101217,,,D*60
$GNRMC,212601.00,A,3114.53801,N,12117.69891,E,0.001,,101217,,,D*6B
$GNRMC,212602.00,A,3114.53802,N,12117.69891,E,0.019,,101217,,,D*62
$GNRMC,212603.00,A,3114.53802,N,12117.69891,E,0.008,,101217,,,D*63
$GNRMC,212604.00,A,3114.53803,N,12117.69891,E,0.005,,101217,,,D*68
$GNRMC,212605.00,A,3114.53803,N,12117.69893,E,0.012,,101217,,,D*6D
$GNRMC,212606.00,A,3114.53802,N,12117.69895,E,0.003,,101217,,,D*69
$GNRMC,212607.00,A,3114.53801,N,12117.69897,E,0.005,,101217,,,D*6F
$GNRMC,212608.00,A,3114.53800,N,12117.69898,E,0.013,,101217,,,D*69
$GNRMC,212609.00,A,3114.53799,N,12117.69899,E,0.003,,101217,,,D*67
$GNRMC,212610.00,A,3114.53797,N,12117.69899,E,0.003,,101217,,,D*61
$GNRMC,212611.00,A,3114.53795,N,12117.69899,E,0.009,,101217,,,D*68
$GNRMC,212612.00,A,3114.53794,N,12117.69898,E,0.004,,101217,,,D*66
$GNRMC,212613.00,A,3114.53792,N,12117.69896,E,0.007,,101217,,,D*6C
$GNRMC,212614.00,A,3114.53790,N,12117.69894,E,0.012,,101217,,,D*6F
$GNRMC,212615.00,A,3114.53788,N,12117.69893,E,0.006,,101217,,,D*65
$GNRMC,212616.00,A,3114.53786,N,12117.69891,E,0.008,,101217,,,D*64
$GNRMC,212617.00,A,3114.53785,N,12117.69890,E,0.005,,101217,,,D*6A
$GNRMC,212618.00,A,3114.53783,N,12117.69888,E,0.010,,101217,,,D*6E
$GNRMC,212619.00,A,3114.53783,N,12117.69886,E,0.007,,101217,,,D*67
$GNRMC,212620.00,A,3114.53783,N,12117.69884,E,0.018,,101217,,,D*61
$GNRMC,212621.00,A,3114.53784,N,12117.69882,E,0.005,,101217,,,D*6D
$GNRMC,212622.00,A,3114.53784,N,12117.69881,E,0.009,,101217,,,D*61
$GNRMC,212623.00,A,3114.53785,N,12117.69881,E,0.007,,101217,,,D*6F
$GNRMC,212624.00,A,3114.53785,N,12117.69881,E,0.005,,101217,,,D*6A
$GNRMC,212625.00,A,3114.53786,N,12117.69882,E,0.011,,101217,,,D*6E
$GNRMC,212626.00,A,3114.53787,N,12117.69883,E,0.010,,101217,,,D*6C
$GNRMC,212627.00,A,3114.53788,N,12117.69884,E,0.007,,101217,,,D*63
$GNRMC,212628.00,A,3114.53789,N,12117.69885,E,0.002,,101217,,,D*69
$GNRMC,212629.00,A,3114.53789,N,12117.69885,E,0.004,,101217,,,D*6E
$GNRMC,212630.00,A,3114.53789,N,12117.69885,E,0.013,,101217,,,D*60
$GNRMC,212631.00,A,3114.53789,N,12117.69884,E,0.015,,101217,,,D*66
$GNRMC,212632.00,A,3114.53789,N,12117.69882,E,0.006,,101217,,,D*61
$GNRMC,212633.00,A,3114.53791,N,12117.69881,E,0.008,,101217,,,D*64
$GNRMC,212634.00,A,3114.53792,N,12117.69881,E,0.008,,101217,,,D*60
$GNRMC,212635.00,A,3114.53794,N,12117.69881,E,0.003,,101217,,,D*6C
$GNRMC,212636.00,A,3114.53797,N,12117.69881,E,0.007,,101217,,,D*68
$GNRMC,212637.00,A,3114.53799,N,12117.69882,E,0.007,,101217,,,D*64
$GNRMC,212638.00,A,3114.53800,N,12117.69883,E,0.008,,101217,,,D*6A
$GNRMC,212639.00,A,3114.53800,N,12117.69884,E,0.003,,101217,,,D*67
$GNRMC,212640.00,A,3114.53799,N,12117.69886,E,0.008,,101217,,,D*6F
$GNRMC,212641.00,A,3114.53797,N,12117.69887,E,0.004,,101217,,,D*6D
$GNRMC,212642.00,A,3114.53796,N,12117.69889,E,0.008,,101217,,,D*6D
$GNRMC,212643.00,A,3114.53796,N,12117.69892,E,0.004,,101217,,,D*6A
$GNRMC,212644.00,A,3114.53795,N,12117.69894,E,0.005,,101217,,,D*69
$GNRMC,212645.00,A,3114.53795,N,12117.69895,E,0.012,,101217,,,D*6F
$GNRMC,212646.00,A,3114.53795,N,12117.69895,E,0.008,,101217,,,D*67
$GNRMC,212647.00,A,3114.53796,N,12117.69893,E,0.003,,101217,,,D*68
$GNRMC,212648.00,A,3114.53796,N,12117.69890,E,0.008,,101217,,,D*6F
$GNRMC,212649.00,A,3114.53795,N,12117.69886,E,0.011,,101217,,,D*62
$GNRMC,212650.00,A,3114.53794,N,12117.69881,E,0.006,,101217,,,D*6A
$GNRMC,212651.00,A,3114.53794,N,12117.69878,E,0.001,,101217,,,D*6A
$GNRMC,212652.00,A,3114.53794,N,12117.69875,E,0.007,,101217,,,D*62
$GNRMC,212653.00,A,3114.53793,N,12117.69873,E,0.013,,101217,,,D*67
$GNRMC,212654.00,A,3114.53793,N,12117.69871,E,0.011,,101217,,,D*60
$GNRMC,212655.00,A,3114.53793,N,12117.69869,E,0.007,,101217,,,D*6F
$GNRMC,212656.00,A,3114.53792,N,12117.69866,E,0.009,,101217,,,D*6C
$GNRMC,212657.00,A,3114.53792,N,12117.69864,E,0.014,,101217,,,D*63
$GNRMC,212658.00,A,3114.53791,N,12117.69862,E,0.001,,101217,,,D*6D
$GNRMC,212659.00,A,3114.53791,N,12117.69860,E,0.006,,101217,,,D*69
$GNRMC,212700.00,A,3114.53790,N,12117.69857,E,0.008,,101217,,,D*6F
$GNRMC,212701.00,A,3114.53789,N,12117.69855,E,0.003,,101217,,,D*6F
$GNRMC,212702.00,A,3114.53788,N,12117.69853,E,0.003,,101217,,,D*6B
$GNRMC,212703.00,A,3114.53788,N,12117.69851,E,0.003,,101217,,,D*68
$GNRMC,212704.00,A,3114.53786,N,12117.69851,E,0.004,,101217,,,D*66
$GNRMC,212705.00,A,3114.53785,N,12117.69850,E,0.006,,101217,,,D*67
$GNRMC,212706.00,A,3114.53783,N,12117.69849,E,0.007,,101217,,,D*6B
$GNRMC,212707.00,A,3114.53780,N,12117.69848,E,0.005,,101217,,,D*6A
$GNRMC,212708.00,A,3114.53778,N,12117.69847,E,0.009,,101217,,,D*61
$GNRMC,212709.00,A,3114.53776,N,12117.69846,E,0.007,,101217,,,D*61
$GNRMC,212710.00,A,3114.53774,N,12117.69845,E,0.004,,101217,,,D*6B
$GNRMC,212711.00,A,3114.53773,N,12117.69845,E,0.012,,101217,,,D*6A
$GNRMC,212712.00,A,3114.53772,N,12117.69844,E,0.009,,101217,,,D*63
$GNRMC,212713.00,A,3114.53771,N,12117.69844,E,0.008,,101217,,,D*60
$GNRMC,212714.00,A,3114.53769,N,12117.69845,E,0.002,,101217,,,D*65
$GNRMC,212715.00,A,3114.53768,N,12117.69844,E,0.005,,101217,,,D*63
$GNRMC,212716.00,A,3114.53767,N,12117.69842,E,0.011,,101217,,,D*6C
