$GNRMC,211525.00,A,3114.53333,N,12117.69096,E,0.014,,161217,,,A*6F
$GNRMC,211526.00,A,3114.53349,N,12117.69109,E,0.012,,161217,,,A*60
$GNRMC,211527.00,A,3114.53362,N,12117.69116,E,0.006,,161217,,,A*63
$GNRMC,211528.00,A,3114.53369,N,12117.69117,E,0.006,,161217,,,A*66
$GNRMC,211529.00,A,3114.53372,N,12117.69115,E,0.001,,161217,,,A*68
$GNRMC,211530.00,A,3114.53375,N,12117.69110,E,0.007,,161217,,,A*64
$GNRMC,211531.00,A,3114.53378,N,12117.69101,E,0.005,,161217,,,A*6A
$GNRMC,211532.00,A,3114.53380,N,12117.69095,E,0.004,,161217,,,A*63
$GNRMC,211533.00,A,3114.53381,N,12117.69091,E,0.003,,161217,,,A*60
$GNRMC,211534.00,A,3114.53382,N,12117.69087,E,0.007,,161217,,,A*67
$GNRMC,211535.00,A,3114.53382,N,12117.69085,E,0.009,,161217,,,A*6A
$GNRMC,211536.00,A,3114.53382,N,12117.69083,E,0.010,,161217,,,A*67
$GNRMC,211537.00,A,3114.53382,N,12117.69082,E,0.011,,161217,,,A*66
$GNRMC,211538.00,A,3114.53383,N,12117.69081,E,0.007,,161217,,,A*6C
$GNRMC,211539.00,A,3114.53383,N,12117.69079,E,0.007,,161217,,,A*6A
$GNRMC,211540.00,A,3114.53381,N,12117.69078,E,0.011,,161217,,,A*60
$GNRMC,211541.00,A,3114.53380,N,12117.69077,E,0.007,,161217,,,A*68
$GNRMC,211542.00,A,3114.53380,N,12117.69076,E,0.001,,161217,,,A*6C
$GNRMC,211543.00,A,3114.53379,N,12117.69075,E,0.009,,161217,,,A*60
$GNRMC,211544.00,A,3114.53378,N,12117.69075,E,0.002,,161217,,,A*6D
$GNRMC,211545.00,A,3114.53377,N,12117.69076,E,0.010,,161217,,,A*63
$GNRMC,211546.00,A,3114.53376,N,12117.69076,E,0.016,,161217,,,A*67
$GNRMC,211547.00,A,3114.53374,N,12117.69075,E,0.009,,161217,,,A*69
$GNRMC,211548.00,A,3114.53372,N,12117.69076,E,0.008,,161217,,,A*62
$GNRMC,211549.00,A,3114.53370,N,12117.69075,E,0.008,,161217,,,A*62
$GNRMC,211550.00,A,3114.53368,N,12117.69075,E,0.009,,161217,,,A*62
$GNRMC,211551.00,A,3114.53367,N,12117.69075,E,0.012,,161217,,,A*66
$GNRMC,211552.00,A,3114.53366,N,12117.69074,E,0.006,,161217,,,A*60
$GNRMC,211553.00,A,3114.53365,N,12117.69074,E,0.009,,161217,,,A*6D
$GNRMC,211554.00,A,3114.53364,N,12117.69074,E,0.007,,161217,,,A*65
$GNRMC,211555.00,A,3114.53362,N,12117.69075,E,0.009,,161217,,,A*6D
$GNRMC,211556.00,A,3114.53360,N,12117.69076,E,0.014,,161217,,,A*63
$GNRMC,211557.00,A,3114.53359,N,12117.69077,E,0.009,,161217,,,A*65
$GNRMC,211558.00,A,3114.53358,N,12117.69078,E,0.002,,161217,,,A*6F
$GNRMC,211559.00,A,3114.53358,N,12117.69077,E,0.009,,161217,,,A*6A
$GNRMC,211600.00,A,3114.53357,N,12117.69076,E,0.006,,161217,,,A*64
$GNRMC,211601.00,A,3114.53357,N,12117.69074,E,0.008,,161217,,,A*69
$GNRMC,211602.00,A,3114.53356,N,12117.69072,E,0.009,,161217,,,A*6C
$GNRMC,211603.00,A,3114.53356,N,12117.69071,E,0.002,,161217,,,A*65
$GNRMC,211604.00,A,3114.53356,N,12117.69070,E,0.005,,161217,,,A*64
$GNRMC,211605.00,A,3114.53355,N,12117.69070,E,0.005,,161217,,,A*66
$GNRMC,211606.00,A,3114.53354,N,12117.69070,E,0.007,,161217,,,A*66
$GNRMC,211607.00,A,3114.53354,N,12117.69069,E,0.003,,161217,,,A*6B
$GNRMC,211608.00,A,3114.53354,N,12117.69069,E,0.005,,161217,,,A*62
$GNRMC,211609.00,A,3114.53353,N,12117.69069,E,0.009,,161217,,,A*68
$GNRMC,211610.00,A,3114.53353,N,12117.69070,E,0.010,,161217,,,A*60
$GNRMC,211611.00,A,3114.53353,N,12117.69069,E,0.005,,161217,,,A*6D
$GNRMC,211612.00,A,3114.53354,N,12117.69068,E,0.004,,161217,,,A*69
$GNRMC,211613.00,A,3114.53354,N,12117.69067,E,0.003,,161217,,,A*60
$GNRMC,211614.00,A,3114.53354,N,12117.69066,E,0.012,,161217,,,A*66
$GNRMC,211615.00,A,3114.53353,N,12117.69063,E,0.005,,161217,,,A*63
$GNRMC,211616.00,A,3114.53353,N,12117.69062,E,0.006,,161217,,,A*62
$GNRMC,211617.00,A,3114.53352,N,12117.69060,E,0.002,,161217,,,A*64
$GNRMC,211618.00,A,3114.53352,N,12117.69059,E,0.004,,161217,,,A*67
$GNRMC,211619.00,A,3114.53351,N,12117.69057,E,0.010,,161217,,,A*6E
$GNRMC,211620.00,A,3114.53351,N,12117.69056,E,0.006,,161217,,,A*62
$GNRMC,211621.00,A,3114.53351,N,12117.69054,E,0.001,,161217,,,A*66
$GNRMC,211622.00,A,3114.53350,N,12117.69052,E,0.006,,161217,,,A*65
$GNRMC,211623.00,A,3114.53350,N,12117.69050,E,0.016,,161217,,,A*67
$GNRMC,211624.00,A,3114.53350,N,12117.69048,E,0.014,,161217,,,A*6B
$GNRMC,211625.00,A,3114.53350,N,12117.69045,E,0.010,,161217,,,A*63
$GNRMC,211626.00,A,3114.53350,N,12117.69042,E,0.008,,161217,,,A*6E
$GNRMC,211627.00,A,3114.53350,N,12117.69039,E,0.005,,161217,,,A*6E
$GNRMC,211628.00,A,3114.53350,N,12117.69036,E,0.009,,161217,,,A*62
$GNRMC,211629.00,A,3114.53350,N,12117.69035,E,0.006,,161217,,,A*6F
$GNRMC,211630.00,A,3114.53350,N,12117.69033,E,0.006,,161217,,,A*61
$GNRMC,211631.00,A,3114.53350,N,12117.69032,E,0.009,,161217,,,A*6E
$GNRMC,211632.00,A,3114.53350,N,12117.69031,E,0.003,,161217,,,A*64
$GNRMC,211633.00,A,3114.53351,N,12117.69030,E,0.010,,161217,,,A*67
$GNRMC,211634.00,A,3114.53351,N,12117.69030,E,0.015,,161217,,,A*65
$GNRMC,211635.00,A,3114.53352,N,12117.69029,E,0.001,,161217,,,A*6A
$GNRMC,211636.00,A,3114.53352,N,12117.69030,E,0.010,,161217,,,A*61
$GNRMC,211637.00,A,3114.53352,N,12117.69031,E,0.011,,161217,,,A*60
$GNRMC,211638.00,A,3114.53351,N,12117.69032,E,0.001,,161217,,,A*6E
$GNRMC,211639.00,A,3114.53351,N,12117.69034,E,0.003,,161217,,,A*6B
$GNRMC,211640.00,A,3114.53350,N,12117.69036,E,0.010,,161217,,,A*64
$GNRMC,211641.00,A,3114.53350,N,12117.69039,E,0.005,,161217,,,A*6E
$GNRMC,211642.00,A,3114.53349,N,12117.69040,E,0.004,,161217,,,A*6A
$GNRMC,211643.00,A,3114.53348,N,12117.69041,E,0.008,,161217,,,A*67
$GNRMC,211644.00,A,3114.53348,N,12117.69042,E,0.007,,161217,,,A*6C
$GNRMC,211645.00,A,3114.53347,N,12117.69043,E,0.007,,161217,,,A*63
$GNRMC,211646.00,A,3114.53347,N,12117.69044,E,0.006,,161217,,,A*66
$GNRMC,211647.00,A,3114.53347,N,12117.69045,E,0.017,,161217,,,A*66
$GNRMC,211648.00,A,3114.53346,N,12117.69046,E,0.009,,161217,,,A*64
$GNRMC,211649.00,A,3114.53345,N,12117.69046,E,0.002,,161217,,,A*6D
$GNRMC,211650.00,A,3114.53344,N,12117.69047,E,0.010,,161217,,,A*66
$GNRMC,211651.00,A,3114.53343,N,12117.69048,E,0.010,,161217,,,A*6F
$GNRMC,211652.00,A,3114.53342,N,12117.69050,E,0.013,,161217,,,A*67
$GNRMC,211653.00,A,3114.53342,N,12117.69051,E,0.008,,161217,,,A*6D
$GNRMC,211654.00,A,3114.53341,N,12117.69053,E,0.004,,161217,,,A*67
$GNRMC,211655.00,A,3114.53340,N,12117.69055,E,0.009,,161217,,,A*6C
$GNRMC,211656.00,A,3114.53339,N,12117.69056,E,0.012,,161217,,,A*68
$GNRMC,211657.00,A,3114.53339,N,12117.69058,E,0.013,,161217,,,A*66
$GNRMC,211658.00,A,3114.53338,N,12117.69059,E,0.011,,161217,,,A*6B
$GNRMC,211659.00,A,3114.53337,N,12117.69060,E,0.009,,161217,,,A*66
$GNRMC,211700.00,A,3114.53336,N,12117.69061,E,0.003,,161217,,,A*61
$GNRMC,211701.00,A,3114.53335,N,12117.69061,E,0.002,,161217,,,A*62
$GNRMC,211702.00,A,3114.53335,N,12117.69062,E,0.015,,161217,,,A*64
$GNRMC,211703.00,A,3114.53335,N,12117.69061,E,0.007,,161217,,,A*65
$GNRMC,211704.00,A,3114.53336,N,12117.69061,E,0.015,,161217,,,A*62
$GNRMC,211705.00,A,3114.53336,N,12117.69061,E,0.004,,161217,,,A*63
$GNRMC,211706.00,A,3114.53336,N,12117.69060,E,0.005,,161217,,,A*60
$GNRMC,211707.00,A,3114.53336,N,12117.69060,E,0.009,,161217,,,A*6D
$GNRMC,211708.00,A,3114.53336,N,12117.69061,E,0.009,,161217,,,A*63
$GNRMC,211709.00,A,3114.53336,N,12117.69061,E,0.005,,161217,,,A*6E
$GNRMC,211710.00,A,3114.53337,N,12117.69061,E,0.010,,161217,,,A*63
$GNRMC,211711.00,A,3114.53337,N,12117.69061,E,0.005,,161217,,,A*66
$GNRMC,211712.00,A,3114.53336,N,12117.69061,E,0.007,,161217,,,A*66
$GNRMC,211713.00,A,3114.53336,N,12117.69062,E,0.007,,161217,,,A*64
$GNRMC,211714.00,A,3114.53335,N,12117.69062,E,0.009,,161217,,,A*6E
$GNRMC,211715.00,A,3114.53335,N,12117.69063,E,0.005,,161217,,,A*62
$GNRMC,211716.00,A,3114.53333,N,12117.69063,E,0.013,,161217,,,A*60
$GNRMC,211717.00,A,3114.53330,N,12117.69064,E,0.003,,161217,,,A*64
$GNRMC,211718.00,A,3114.53328,N,12117.69065,E,0.008,,161217,,,A*68
$GNRMC,211719.00,A,3114.53326,N,12117.69064,E,0.002,,161217,,,A*6C
$GNRMC,211720.00,A,3114.53324,N,12117.69065,E,0.007,,161217,,,A*60
$GNRMC,211721.00,A,3114.53321,N,12117.69064,E,0.008,,161217,,,A*6A
$GNRMC,211722.00,A,3114.53319,N,12117.69064,E,0.006,,161217,,,A*6C
$GNRMC,211723.00,A,3114.53318,N,12117.69063,E,0.006,,161217,,,A*6B
$GNRMC,211724.00,A,3114.53316,N,12117.69063,E,0.013,,161217,,,A*66
$GNRMC,211725.00,A,3114.53314,N,12117.69061,E,0.012,,161217,,,A*66
$GNRMC,211726.00,A,3114.53312,N,12117.69059,E,0.003,,161217,,,A*68
$GNRMC,211727.00,A,3114.53310,N,12117.69058,E,0.009,,161217,,,A*60
$GNRMC,211728.00,A,3114.53308,N,12117.69056,E,0.005,,161217,,,A*64
$GNRMC,211729.00,A,3114.53306,N,12117.69054,E,0.010,,161217,,,A*6D
$GNRMC,211730.00,A,3114.53305,N,12117.69053,E,0.004,,161217,,,A*64
$GNRMC,211731.00,A,3114.53304,N,12117.69051,E,0.006,,161217,,,A*64
$GNRMC,211732.00,A,3114.53302,N,12117.69049,E,0.008,,161217,,,A*66
$GNRMC,211733.00,A,3114.53301,N,12117.69048,E,0.012,,161217,,,A*6E
$GNRMC,211734.00,A,3114.53299,N,12117.69046,E,0.014,,161217,,,A*61
$GNRMC,211735.00,A,3114.53298,N,12117.69045,E,0.005,,161217,,,A*62
$GNRMC,211736.00,A,3114.53298,N,12117.69045,E,0.005,,161217,,,A*61
$GNRMC,211737.00,A,3114.53298,N,12117.69044,E,0.004,,161217,,,A*60
$GNRMC,211738.00,A,3114.53298,N,12117.69043,E,0.007,,161217,,,A*6B
$GNRMC,211739.00,A,3114.53299,N,12117.69042,E,0.010,,161217,,,A*6C
$GNRMC,211740.00,A,3114.53300,N,12117.69040,E,0.007,,161217,,,A*67
$GNRMC,211741.00,A,3114.53301,N,12117.69039,E,0.002,,161217,,,A*6C
$GNRMC,211742.00,A,3114.53302,N,12117.69037,E,0.004,,161217,,,A*64
$GNRMC,211743.00,A,3114.53302,N,12117.69036,E,0.007,,161217,,,A*67
$GNRMC,211744.00,A,3114.53302,N,12117.69034,E,0.012,,161217,,,A*66
$GNRMC,211745.00,A,3114.53303,N,12117.69031,E,0.016,,161217,,,A*67
$GNRMC,211746.00,A,3114.53304,N,12117.69029,E,0.008,,161217,,,A*65
$GNRMC,211747.00,A,3114.53305,N,12117.69028,E,0.003,,161217,,,A*6F
$GNRMC,211748.00,A,3114.53305,N,12117.69027,E,0.006,,161217,,,A*6A
$GNRMC,211749.00,A,3114.53305,N,12117.69027,E,0.009,,161217,,,A*64
$GNRMC,211750.00,A,3114.53305,N,12117.69026,E,0.011,,161217,,,A*64
$GNRMC,211751.00,A,3114.53305,N,12117.69027,E,0.007,,161217,,,A*63
$GNRMC,211752.00,A,3114.53305,N,12117.69027,E,0.011,,161217,,,A*67
$GNRMC,211753.00,A,3114.53305,N,12117.69026,E,0.002,,161217,,,A*65
$GNRMC,211754.00,A,3114.53305,N,12117.69026,E,0.004,,161217,,,A*64
$GNRMC,211755.00,A,3114.53304,N,12117.69026,E,0.004,,161217,,,A*64
$GNRMC,211756.00,A,3114.53305,N,12117.69027,E,0.006,,161217,,,A*65
$GNRMC,211757.00,A,3114.53305,N,12117.69027,E,0.008,,161217,,,A*6A
$GNRMC,211758.00,A,3114.53304,N,12117.69028,E,0.010,,161217,,,A*62
$GNRMC,211759.00,A,3114.53304,N,12117.69028,E,0.004,,161217,,,A*66
$GNRMC,211800.00,A,3114.53304,N,12117.69029,E,0.005,,161217,,,A*65
$GNRMC,211801.00,A,3114.53304,N,12117.69030,E,0.006,,161217,,,A*6F
$GNRMC,211802.00,A,3114.53303,N,12117.69032,E,0.011,,161217,,,A*6F
$GNRMC,211803.00,A,3114.53302,N,12117.69032,E,0.007,,161217,,,A*68
$GNRMC,211804.00,A,3114.53301,N,12117.69033,E,0.004,,161217,,,A*6E
$GNRMC,211805.00,A,3114.53299,N,12117.69036,E,0.007,,161217,,,A*69
$GNRMC,211806.00,A,3114.53297,N,12117.69038,E,0.003,,161217,,,A*6E
$GNRMC,211807.00,A,3114.53295,N,12117.69040,E,0.012,,161217,,,A*62
$GNRMC,211808.00,A,3114.53294,N,12117.69042,E,0.014,,161217,,,A*68
$GNRMC,211809.00,A,3114.53292,N,12117.69046,E,0.010,,161217,,,A*6F
$GNRMC,211810.00,A,3114.53291,N,12117.69049,E,0.005,,161217,,,A*6F
$GNRMC,211811.00,A,3114.53291,N,12117.69053,E,0.009,,161217,,,A*69
$GNRMC,211812.00,A,3114.53290,N,12117.69057,E,0.004,,161217,,,A*62
$GNRMC,211813.00,A,3114.53290,N,12117.69061,E,0.008,,161217,,,A*6A
$GNRMC,211814.00,A,3114.53291,N,12117.69064,E,0.009,,161217,,,A*68
$GNRMC,211815.00,A,3114.53292,N,12117.69067,E,0.005,,161217,,,A*65
$GNRMC,211816.00,A,3114.53292,N,12117.69069,E,0.003,,161217,,,A*6E
$GNRMC,211817.00,A,3114.53292,N,12117.69071,E,0.018,,161217,,,A*6C
$GNRMC,211818.00,A,3114.53292,N,12117.69073,E,0.013,,161217,,,A*6A
$GNRMC,211819.00,A,3114.53292,N,12117.69075,E,0.013,,161217,,,A*6D
$GNRMC,211820.00,A,3114.53291,N,12117.69076,E,0.009,,161217,,,A*6C
$GNRMC,211821.00,A,3114.53291,N,12117.69077,E,0.006,,161217,,,A*63
$GNRMC,211822.00,A,3114.53291,N,12117.69077,E,0.007,,161217,,,A*61
$GNRMC,211823.00,A,3114.53290,N,12117.69076,E,0.006,,161217,,,A*61
$GNRMC,211824.00,A,3114.53289,N,12117.69076,E,0.006,,161217,,,A*6E
$GNRMC,211825.00,A,3114.53289,N,12117.69075,E,0.007,,161217,,,A*6D
$GNRMC,211826.00,A,3114.53289,N,12117.69074,E,0.009,,161217,,,A*61
$GNRMC,211827.00,A,3114.53289,N,12117.69073,E,0.008,,161217,,,A*66
$GNRMC,211828.00,A,3114.53289,N,12117.69072,E,0.006,,161217,,,A*66
$GNRMC,211829.00,A,3114.53289,N,12117.69071,E,0.001,,161217,,,A*63
$GNRMC,211830.00,A,3114.53289,N,12117.69070,E,0.005,,161217,,,A*6E
$GNRMC,211831.00,A,3114.53289,N,12117.69070,E,0.001,,161217,,,A*6B
$GNRMC,211832.00,A,3114.53290,N,12117.69070,E,0.006,,161217,,,A*67
$GNRMC,211833.00,A,3114.53290,N,12117.69071,E,0.007,,161217,,,A*66
$GNRMC,211834.00,A,3114.53290,N,12117.69071,E,0.010,,161217,,,A*67
$GNRMC,211835.00,A,3114.53291,N,12117.69072,E,0.016,,161217,,,A*62
$GNRMC,211836.00,A,3114.53291,N,12117.69074,E,0.005,,161217,,,A*65
$GNRMC,211837.00,A,3114.53291,N,12117.69076,E,0.009,,161217,,,A*6A
$GNRMC,211838.00,A,3114.53291,N,12117.69079,E,0.014,,161217,,,A*66
$GNRMC,211839.00,A,3114.53289,N,12117.69084,E,0.012,,161217,,,A*6A
$GNRMC,211840.00,A,3114.53288,N,12117.69087,E,0.006,,161217,,,A*63
$GNRMC,211841.00,A,3114.53288,N,12117.69092,E,0.013,,161217,,,A*62
$GNRMC,211842.00,A,3114.53287,N,12117.69095,E,0.005,,161217,,,A*6E
$GNRMC,211843.00,A,3114.53287,N,12117.69098,E,0.005,,161217,,,A*62
$GNRMC,211844.00,A,3114.53287,N,12117.69102,E,0.002,,161217,,,A*60
$GNRMC,211845.00,A,3114.53287,N,12117.69106,E,0.004,,161217,,,A*63
$GNRMC,211846.00,A,3114.53287,N,12117.69111,E,0.012,,161217,,,A*61
$GNRMC,211847.00,A,3114.53287,N,12117.69116,E,0.012,,161217,,,A*67
$GNRMC,211848.00,A,3114.53286,N,12117.69120,E,0.008,,161217,,,A*67
$GNRMC,211849.00,A,3114.53287,N,12117.69123,E,0.010,,161217,,,A*6D
$GNRMC,211850.00,A,3114.53287,N,12117.69126,E,0.014,,161217,,,A*64
$GNRMC,211851.00,A,3114.53288,N,12117.69128,E,0.014,,161217,,,A*64
$GNRMC,211852.00,A,3114.53289,N,12117.69129,E,0.005,,161217,,,A*67
$GNRMC,211853.00,A,3114.53291,N,12117.69132,E,0.011,,161217,,,A*60
$GNRMC,211854.00,A,3114.53293,N,12117.69133,E,0.003,,161217,,,A*67
$GNRMC,211855.00,A,3114.53296,N,12117.69134,E,0.008,,161217,,,A*6F
$GNRMC,211856.00,A,3114.53298,N,12117.69136,E,0.009,,161217,,,A*61
$GNRMC,211857.00,A,3114.53300,N,12117.69137,E,0.002,,161217,,,A*6A
$GNRMC,211858.00,A,3114.53303,N,12117.69139,E,0.010,,161217,,,A*6B
$GNRMC,211859.00,A,3114.53305,N,12117.69142,E,0.007,,161217,,,A*66
$GNRMC,211900.00,A,3114.53308,N,12117.69143,E,0.001,,161217,,,A*61
$GNRMC,211901.00,A,3114.53311,N,12117.69143,E,0.010,,161217,,,A*68
$GNRMC,211902.00,A,3114.53313,N,12117.69144,E,0.009,,161217,,,A*66
$GNRMC,211903.00,A,3114.53316,N,12117.69145,E,0.013,,161217,,,A*68
$GNRMC,211904.00,A,3114.53319,N,12117.69146,E,0.009,,161217,,,A*68
$GNRMC,211905.00,A,3114.53321,N,12117.69146,E,0.011,,161217,,,A*6B
$GNRMC,211906.00,A,3114.53323,N,12117.69145,E,0.002,,161217,,,A*6B
$GNRMC,211907.00,A,3114.53325,N,12117.69144,E,0.008,,161217,,,A*67
$GNRMC,211908.00,A,3114.53327,N,12117.69143,E,0.004,,161217,,,A*61
$GNRMC,211909.00,A,3114.53329,N,12117.69142,E,0.014,,161217,,,A*6E
$GNRMC,211910.00,A,3114.53329,N,12117.69142,E,0.005,,161217,,,A*66
$GNRMC,211911.00,A,3114.53330,N,12117.69141,E,0.013,,161217,,,A*6B
$GNRMC,211912.00,A,3114.53329,N,12117.69142,E,0.003,,161217,,,A*62
$GNRMC,211913.00,A,3114.53329,N,12117.69142,E,0.008,,161217,,,A*68
$GNRMC,211914.00,A,3114.53328,N,12117.69142,E,0.007,,161217,,,A*61
$GNRMC,211915.00,A,3114.53329,N,12117.69142,E,0.006,,161217,,,A*60
$GNRMC,211916.00,A,3114.53329,N,12117.69141,E,0.005,,161217,,,A*63
$GNRMC,211917.00,A,3114.53329,N,12117.69141,E,0.005,,161217,,,A*62
$GNRMC,211918.00,A,3114.53329,N,12117.69141,E,0.019,,161217,,,A*60
$GNRMC,211919.00,A,3114.53330,N,12117.69140,E,0.016,,161217,,,A*67
$GNRMC,211920.00,A,3114.53330,N,12117.69140,E,0.007,,161217,,,A*6D
$GNRMC,211921.00,A,3114.53329,N,12117.69141,E,0.009,,161217,,,A*6B
$GNRMC,211922.00,A,3114.53328,N,12117.69141,E,0.010,,161217,,,A*61
$GNRMC,211923.00,A,3114.53327,N,12117.69140,E,0.005,,161217,,,A*6A
$GNRMC,211924.00,A,3114.53327,N,12117.69139,E,0.015,,161217,,,A*62
$GNRMC,211925.00,A,3114.53327,N,12117.69138,E,0.025,,161217,,,A*61
$GNRMC,211926.00,A,3114.53326,N,12117.69136,E,0.009,,161217,,,A*63
$GNRMC,211927.00,A,3114.53326,N,12117.69134,E,0.004,,161217,,,A*6D
$GNRMC,211928.00,A,3114.53326,N,12117.69132,E,0.015,,161217,,,A*64
$GNRMC,211929.00,A,3114.53325,N,12117.69130,E,0.013,,161217,,,A*62
$GNRMC,211930.00,A,3114.53324,N,12117.69128,E,0.009,,161217,,,A*69
$GNRMC,211931.00,A,3114.53324,N,12117.69126,E,0.025,,161217,,,A*68
$GNRMC,211932.00,A,3114.53323,N,12117.69122,E,0.005,,161217,,,A*6A
$GNRMC,211933.00,A,3114.53322,N,12117.69119,E,0.004,,161217,,,A*63
$GNRMC,211934.00,A,3114.53322,N,12117.69115,E,0.004,,161217,,,A*68
$GNRMC,211935.00,A,3114.53322,N,12117.69111,E,0.006,,161217,,,A*6F
$GNRMC,211936.00,A,3114.53322,N,12117.69107,E,0.003,,161217,,,A*6E
$GNRMC,211937.00,A,3114.53322,N,12117.69102,E,0.016,,161217,,,A*6E
$GNRMC,211938.00,A,3114.53322,N,12117.69097,E,0.011,,161217,,,A*6B
$GNRMC,211939.00,A,3114.53322,N,12117.69092,E,0.018,,161217,,,A*66
$GNRMC,211940.00,A,3114.53323,N,12117.69087,E,0.011,,161217,,,A*64
$GNRMC,211941.00,A,3114.53323,N,12117.69083,E,0.011,,161217,,,A*61
$GNRMC,211942.00,A,3114.53325,N,12117.69078,E,0.014,,161217,,,A*65
$GNRMC,211943.00,A,3114.53325,N,12117.69073,E,0.006,,161217,,,A*6C
$GNRMC,211944.00,A,3114.53325,N,12117.69069,E,0.010,,161217,,,A*67
$GNRMC,211945.00,A,3114.53325,N,12117.69066,E,0.005,,161217,,,A*6D
$GNRMC,211946.00,A,3114.53325,N,12117.69063,E,0.008,,161217,,,A*66
$GNRMC,211947.00,A,3114.53323,N,12117.69062,E,0.009,,161217,,,A*61
$GNRMC,211948.00,A,3114.53323,N,12117.69061,E,0.027,,161217,,,D*64
$GNRMC,211949.00,A,3114.53323,N,12117.69061,E,0.007,,161217,,,D*67
$GNRMC,211950.00,A,3114.53323,N,12117.69062,E,0.008,,161217,,,D*63
$GNRMC,211951.00,A,3114.53324,N,12117.69062,E,0.011,,161217,,,D*6D
$GNRMC,211952.00,A,3114.53325,N,12117.69061,E,0.028,,161217,,,D*66
$GNRMC,211953.00,A,3114.53327,N,12117.69060,E,0.005,,161217,,,D*6B
$GNRMC,211954.00,A,3114.53328,N,12117.69058,E,0.002,,161217,,,D*6F
$GNRMC,211955.00,A,3114.53329,N,12117.69054,E,0.007,,161217,,,D*66
$GNRMC,211956.00,A,3114.53330,N,12117.69051,E,0.013,,161217,,,D*6D
$GNRMC,211957.00,A,3114.53330,N,12117.69049,E,0.011,,161217,,,D*67
$GNRMC,211958.00,A,3114.53332,N,12117.69047,E,0.018,,161217,,,D*6D
$GNRMC,211959.00,A,3114.53333,N,12117.69044,E,0.012,,161217,,,D*64
$GNRMC,212000.00,A,3114.53333,N,12117.69045,E,0.011,,161217,,,D*60
$GNRMC,212001.00,A,3114.53333,N,12117.69046,E,0.013,,161217,,,D*60
$GNRMC,212002.00,A,3114.53333,N,12117.69046,E,0.009,,161217,,,D*68
$GNRMC,212003.00,A,3114.53333,N,12117.69047,E,0.002,,161217,,,D*63
$GNRMC,212004.00,A,3114.53334,N,12117.69047,E,0.003,,161217,,,D*62
$GNRMC,212005.00,A,3114.53335,N,12117.69046,E,0.036,,161217,,,D*65
$GNRMC,212006.00,A,3114.53337,N,12117.69046,E,0.021,,161217,,,D*62
$GNRMC,212007.00,A,3114.53338,N,12117.69047,E,0.008,,161217,,,D*66
$GNRMC,212008.00,A,3114.53339,N,12117.69047,E,0.009,,161217,,,D*69
$GNRMC,212009.00,A,3114.53340,N,12117.69046,E,0.005,,161217,,,D*6B
$GNRMC,212010.00,A,3114.53341,N,12117.69045,E,0.002,,161217,,,D*66
$GNRMC,212011.00,A,3114.53342,N,12117.69045,E,0.000,,161217,,,D*66
$GNRMC,212012.00,A,3114.53342,N,12117.69044,E,0.004,,161217,,,D*60
$GNRMC,212013.00,A,3114.53342,N,12117.69042,E,0.013,,161217,,,D*61
$GNRMC,212014.00,A,3114.53342,N,12117.69042,E,0.008,,161217,,,D*6C
$GNRMC,212015.00,A,3114.53343,N,12117.69041,E,0.002,,161217,,,D*65
$GNRMC,212016.00,A,3114.53345,N,12117.69040,E,0.005,,161217,,,D*66
$GNRMC,212017.00,A,3114.53346,N,12117.69039,E,0.004,,161217,,,D*6B
$GNRMC,212018.00,A,3114.53347,N,12117.69037,E,0.019,,161217,,,D*67
$GNRMC,212019.00,A,3114.53348,N,12117.69036,E,0.002,,161217,,,D*62
$GNRMC,212020.00,A,3114.53349,N,12117.69035,E,0.001,,161217,,,D*69
$GNRMC,212021.00,A,3114.53350,N,12117.69033,E,0.015,,161217,,,D*63
$GNRMC,212022.00,A,3114.53350,N,12117.69033,E,0.029,,161217,,,D*6F
$GNRMC,212023.00,A,3114.53350,N,12117.69033,E,0.010,,161217,,,D*64
$GNRMC,212024.00,A,3114.53351,N,12117.69034,E,0.029,,161217,,,D*6F
$GNRMC,212025.00,A,3114.53351,N,12117.69035,E,0.006,,161217,,,D*62
$GNRMC,212026.00,A,3114.53352,N,12117.69037,E,0.016,,161217,,,D*61
$GNRMC,212027.00,A,3114.53352,N,12117.69038,E,0.011,,161217,,,D*68
$GNRMC,212028.00,A,3114.53352,N,12117.69041,E,0.003,,161217,,,D*6A
$GNRMC,212029.00,A,3114.53352,N,12117.69043,E,0.007,,161217,,,D*6D
$GNRMC,212030.00,A,3114.53353,N,12117.69046,E,0.027,,161217,,,D*63
$GNRMC,212031.00,A,3114.53352,N,12117.69048,E,0.002,,161217,,,D*6A
$GNRMC,212032.00,A,3114.53352,N,12117.69051,E,0.006,,161217,,,D*65
$GNRMC,212033.00,A,3114.53352,N,12117.69053,E,0.012,,161217,,,D*63
$GNRMC,212034.00,A,3114.53352,N,12117.69055,E,0.001,,161217,,,D*60
$GNRMC,212035.00,A,3114.53352,N,12117.69056,E,0.008,,161217,,,D*6B
$GNRMC,212036.00,A,3114.53351,N,12117.69058,E,0.009,,161217,,,D*64
$GNRMC,212037.00,A,3114.53351,N,12117.69060,E,0.008,,161217,,,D*6F
$GNRMC,212038.00,A,3114.53350,N,12117.69062,E,0.009,,161217,,,D*62
$GNRMC,212039.00,A,3114.53350,N,12117.69064,E,0.009,,161217,,,D*65
$GNRMC,212040.00,A,3114.53350,N,12117.69065,E,0.012,,161217,,,D*60
$GNRMC,212041.00,A,3114.53350,N,12117.69066,E,0.003,,161217,,,D*62
$GNRMC,212042.00,A,3114.53350,N,12117.69068,E,0.004,,161217,,,D*68
$GNRMC,212043.00,A,3114.53349,N,12117.69070,E,0.015,,161217,,,D*68
$GNRMC,212044.00,A,3114.53348,N,12117.69072,E,0.008,,161217,,,D*60
$GNRMC,212045.00,A,3114.53347,N,12117.69073,E,0.010,,161217,,,D*66
$GNRMC,212046.00,A,3114.53346,N,12117.69075,E,0.006,,161217,,,D*65
$GNRMC,212047.00,A,3114.53345,N,12117.69077,E,0.009,,161217,,,D*6A
$GNRMC,212048.00,A,3114.53344,N,12117.69078,E,0.009,,161217,,,D*6B
$GNRMC,212049.00,A,3114.53344,N,12117.69079,E,0.015,,161217,,,D*66
$GNRMC,212050.00,A,3114.53343,N,12117.69079,E,0.007,,161217,,,D*6A
$GNRMC,212051.00,A,3114.53342,N,12117.69080,E,0.006,,161217,,,D*6D
$GNRMC,212052.00,A,3114.53341,N,12117.69081,E,0.007,,161217,,,D*6D
$GNRMC,212053.00,A,3114.53341,N,12117.69082,E,0.004,,161217,,,D*6C
$GNRMC,212054.00,A,3114.53341,N,12117.69084,E,0.005,,161217,,,D*6C
$GNRMC,212055.00,A,3114.53341,N,12117.69086,E,0.002,,161217,,,D*68
$GNRMC,212056.00,A,3114.53340,N,12117.69089,E,0.005,,161217,,,D*62
$GNRMC,212057.00,A,3114.53340,N,12117.69091,E,0.007,,161217,,,D*68
$GNRMC,212058.00,A,3114.53338,N,12117.69093,E,0.007,,161217,,,D*6A
$GNRMC,212059.00,A,3114.53336,N,12117.69095,E,0.004,,161217,,,D*60
$GNRMC,212100.00,A,3114.53334,N,12117.69095,E,0.012,,161217,,,D*68
$GNRMC,212101.00,A,3114.53333,N,12117.69095,E,0.010,,161217,,,D*6C
$GNRMC,212102.00,A,3114.53331,N,12117.69096,E,0.005,,161217,,,D*6A
$GNRMC,212103.00,A,3114.53329,N,12117.69097,E,0.013,,161217,,,D*64
$GNRMC,212104.00,A,3114.53328,N,12117.69097,E,0.008,,161217,,,D*68
$GNRMC,212105.00,A,3114.53327,N,12117.69097,E,0.006,,161217,,,D*68
$GNRMC,212106.00,A,3114.53325,N,12117.69096,E,0.011,,161217,,,D*6E
$GNRMC,212107.00,A,3114.53322,N,12117.69095,E,0.008,,161217,,,D*63
$GNRMC,212108.00,A,3114.53319,N,12117.69093,E,0.012,,161217,,,D*69
$GNRMC,212109.00,A,3114.53317,N,12117.69091,E,0.006,,161217,,,D*61
$GNRMC,212110.00,A,3114.53316,N,12117.69090,E,0.006,,161217,,,D*69
$GNRMC,212111.00,A,3114.53314,N,12117.69089,E,0.009,,161217,,,D*6D
$GNRMC,212112.00,A,3114.53313,N,12117.69086,E,0.007,,161217,,,D*68
$GNRMC,212113.00,A,3114.53312,N,12117.69085,E,0.005,,161217,,,D*69
$GNRMC,212114.00,A,3114.53312,N,12117.69084,E,0.005,,161217,,,D*6F
$GNRMC,212115.00,A,3114.53310,N,12117.69083,E,0.007,,161217,,,D*69
$GNRMC,212116.00,A,3114.53309,N,12117.69084,E,0.004,,161217,,,D*66
$GNRMC,212117.00,A,3114.53308,N,12117.69086,E,0.007,,161217,,,D*67
$GNRMC,212118.00,A,3114.53307,N,12117.69087,E,0.013,,161217,,,D*63
$GNRMC,212119.00,A,3114.53306,N,12117.69089,E,0.006,,161217,,,D*69
$GNRMC,212120.00,A,3114.53306,N,12117.69090,E,0.011,,161217,,,D*6D
$GNRMC,212121.00,A,3114.53304,N,12117.69091,E,0.008,,161217,,,D*67
$GNRMC,212122.00,A,3114.53303,N,12117.69092,E,0.002,,161217,,,D*6A
$GNRMC,212123.00,A,3114.53301,N,12117.69092,E,0.001,,161217,,,D*6A
$GNRMC,212124.00,A,3114.53300,N,12117.69091,E,0.005,,161217,,,D*6B
$GNRMC,212125.00,A,3114.53299,N,12117.69090,E,0.004,,161217,,,D*6B
$GNRMC,212126.00,A,3114.53297,N,12117.69089,E,0.009,,161217,,,D*63
$GNRMC,212127.00,A,3114.53296,N,12117.69087,E,0.009,,161217,,,D*6D
$GNRMC,212128.00,A,3114.53296,N,12117.69085,E,0.019,,161217,,,D*61
$GNRMC,212129.00,A,3114.53294,N,12117.69084,E,0.007,,161217,,,D*6C
$GNRMC,212130.00,A,3114.53294,N,12117.69084,E,0.002,,161217,,,D*61
$GNRMC,212131.00,A,3114.53294,N,12117.69082,E,0.012,,161217,,,D*67
$GNRMC,212132.00,A,3114.53293,N,12117.69079,E,0.004,,161217,,,D*60
$GNRMC,212133.00,A,3114.53293,N,12117.69076,E,0.013,,161217,,,D*68
$GNRMC,212134.00,A,3114.53293,N,12117.69073,E,0.011,,161217,,,D*68
$GNRMC,212135.00,A,3114.53293,N,12117.69071,E,0.007,,161217,,,D*6C
$GNRMC,212136.00,A,3114.53295,N,12117.69070,E,0.009,,161217,,,D*66
$GNRMC,212137.00,A,3114.53296,N,12117.69069,E,0.004,,161217,,,D*61
$GNRMC,212138.00,A,3114.53297,N,12117.69069,E,0.008,,161217,,,D*63
$GNRMC,212139.00,A,3114.53298,N,12117.69069,E,0.006,,161217,,,D*63
$GNRMC,212140.00,A,3114.53300,N,12117.69070,E,0.004,,161217,,,D*67
$GNRMC,212141.00,A,3114.53301,N,12117.69071,E,0.005,,161217,,,D*67
$GNRMC,212142.00,A,3114.53302,N,12117.69073,E,0.005,,161217,,,D*65
$GNRMC,212143.00,A,3114.53304,N,12117.69073,E,0.012,,161217,,,D*64
$GNRMC,212144.00,A,3114.53306,N,12117.69076,E,0.006,,161217,,,D*61
$GNRMC,212145.00,A,3114.53308,N,12117.69077,E,0.002,,161217,,,D*6B
$GNRMC,212146.00,A,3114.53310,N,12117.69078,E,0.012,,161217,,,D*6F
$GNRMC,212147.00,A,3114.53313,N,12117.69079,E,0.006,,161217,,,D*69
$GNRMC,212148.00,A,3114.53315,N,12117.69080,E,0.006,,161217,,,D*66
$GNRMC,212149.00,A,3114.53317,N,12117.69080,E,0.009,,161217,,,D*6A
$GNRMC,212150.00,A,3114.53319,N,12117.69083,E,0.010,,161217,,,D*67
$GNRMC,212151.00,A,3114.53320,N,12117.69083,E,0.011,,161217,,,D*6D
$GNRMC,212152.00,A,3114.53321,N,12117.69084,E,0.005,,161217,,,D*6D
$GNRMC,212153.00,A,3114.53323,N,12117.69083,E,0.004,,161217,,,D*68
$GNRMC,212154.00,A,3114.53325,N,12117.69083,E,0.006,,161217,,,D*6B
$GNRMC,212155.00,A,3114.53328,N,12117.69081,E,0.011,,161217,,,D*63
$GNRMC,212156.00,A,3114.53331,N,12117.69080,E,0.015,,161217,,,D*6D
$GNRMC,212157.00,A,3114.53334,N,12117.69078,E,0.004,,161217,,,D*6E
$GNRMC,212158.00,A,3114.53335,N,12117.69078,E,0.012,,161217,,,D*67
$GNRMC,212159.00,A,3114.53338,N,12117.69077,E,0.013,,161217,,,D*65
$GNRMC,212200.00,A,3114.53341,N,12117.69076,E,0.017,,161217,,,D*61
$GNRMC,212201.00,A,3114.53343,N,12117.69075,E,0.007,,161217,,,D*60
$GNRMC,212202.00,A,3114.53346,N,12117.69072,E,0.006,,161217,,,D*60
$GNRMC,212203.00,A,3114.53347,N,12117.69072,E,0.013,,161217,,,D*64
$GNRMC,212204.00,A,3114.53348,N,12117.69071,E,0.001,,161217,,,D*6C
$GNRMC,212205.00,A,3114.53348,N,12117.69069,E,0.003,,161217,,,D*66
$GNRMC,212206.00,A,3114.53349,N,12117.69068,E,0.006,,161217,,,D*60
$GNRMC,212207.00,A,3114.53350,N,12117.69067,E,0.007,,161217,,,D*67
$GNRMC,212208.00,A,3114.53351,N,12117.69066,E,0.005,,161217,,,D*6A
$GNRMC,212209.00,A,3114.53352,N,12117.69065,E,0.004,,161217,,,D*6A
$GNRMC,212210.00,A,3114.53355,N,12117.69066,E,0.002,,161217,,,D*60
$GNRMC,212211.00,A,3114.53357,N,12117.69066,E,0.011,,161217,,,D*61
$GNRMC,212212.00,A,3114.53359,N,12117.69065,E,0.007,,161217,,,D*68
$GNRMC,212213.00,A,3114.53360,N,12117.69065,E,0.010,,161217,,,D*65
$GNRMC,212214.00,A,3114.53361,N,12117.69065,E,0.002,,161217,,,D*60
$GNRMC,212215.00,A,3114.53362,N,12117.69067,E,0.008,,161217,,,D*6A
$GNRMC,212216.00,A,3114.53363,N,12117.69068,E,0.004,,161217,,,D*6B
$GNRMC,212217.00,A,3114.53364,N,12117.69070,E,0.004,,161217,,,D*64
$GNRMC,212218.00,A,3114.53365,N,12117.69072,E,0.017,,161217,,,D*6A
$GNRMC,212219.00,A,3114.53365,N,12117.69072,E,0.017,,161217,,,D*6B
$GNRMC,212220.00,A,3114.53366,N,12117.69074,E,0.004,,161217,,,D*66
$GNRMC,212221.00,A,3114.53367,N,12117.69074,E,0.009,,161217,,,D*6B
$GNRMC,212222.00,A,3114.53368,N,12117.69075,E,0.005,,161217,,,D*6A
$GNRMC,212223.00,A,3114.53369,N,12117.69077,E,0.008,,161217,,,D*65
$GNRMC,212224.00,A,3114.53370,N,12117.69081,E,0.007,,161217,,,D*6C
$GNRMC,212225.00,A,3114.53371,N,12117.69084,E,0.013,,161217,,,D*6C
$GNRMC,212226.00,A,3114.53370,N,12117.69086,E,0.007,,161217,,,D*69
$GNRMC,212227.00,A,3114.53370,N,12117.69088,E,0.007,,161217,,,D*66
$GNRMC,212228.00,A,3114.53368,N,12117.69091,E,0.003,,161217,,,D*6C
$GNRMC,212229.00,A,3114.53366,N,12117.69093,E,0.005,,161217,,,D*67
$GNRMC,212230.00,A,3114.53366,N,12117.69096,E,0.006,,161217,,,D*69
$GNRMC,212231.00,A,3114.53367,N,12117.69099,E,0.007,,161217,,,D*67
$GNRMC,212232.00,A,3114.53369,N,12117.69104,E,0.025,,161217,,,D*6F
$GNRMC,212233.00,A,3114.53370,N,12117.69108,E,0.009,,161217,,,D*64
$GNRMC,212234.00,A,3114.53372,N,12117.69112,E,0.008,,161217,,,D*6B
$GNRMC,212235.00,A,3114.53374,N,12117.69113,E,0.001,,161217,,,D*64
$GNRMC,212236.00,A,3114.53376,N,12117.69114,E,0.013,,161217,,,D*61
$GNRMC,212237.00,A,3114.53378,N,12117.69114,E,0.007,,161217,,,D*6B
$GNRMC,212238.00,A,3114.53379,N,12117.69115,E,0.006,,161217,,,D*65
$GNRMC,212239.00,A,3114.53380,N,12117.69117,E,0.005,,161217,,,D*63
$GNRMC,212240.00,A,3114.53381,N,12117.69120,E,0.007,,161217,,,D*6A
$GNRMC,212241.00,A,3114.53382,N,12117.69122,E,0.003,,161217,,,D*6E
$GNRMC,212242.00,A,3114.53383,N,12117.69124,E,0.008,,161217,,,D*61
$GNRMC,212243.00,A,3114.53384,N,12117.69125,E,0.012,,161217,,,D*6D
$GNRMC,212244.00,A,3114.53386,N,12117.69126,E,0.015,,161217,,,D*6C
$GNRMC,212245.00,A,3114.53387,N,12117.69127,E,0.004,,161217,,,D*6D
$GNRMC,212246.00,A,3114.53389,N,12117.69126,E,0.002,,161217,,,D*67
$GNRMC,212247.00,A,3114.53390,N,12117.69126,E,0.004,,161217,,,D*68
$GNRMC,212248.00,A,3114.53391,N,12117.69126,E,0.006,,161217,,,D*64
$GNRMC,212249.00,A,3114.53392,N,12117.69126,E,0.007,,161217,,,D*67
$GNRMC,212250.00,A,3114.53394,N,12117.69128,E,0.012,,161217,,,D*63
$GNRMC,212251.00,A,3114.53395,N,12117.69129,E,0.006,,161217,,,D*67
$GNRMC,212252.00,A,3114.53395,N,12117.69128,E,0.007,,161217,,,D*64
$GNRMC,212253.00,A,3114.53395,N,12117.69127,E,0.011,,161217,,,D*6D
$GNRMC,212254.00,A,3114.53396,N,12117.69127,E,0.002,,161217,,,D*6B
$GNRMC,212255.00,A,3114.53395,N,12117.69125,E,0.011,,161217,,,D*69
$GNRMC,212256.00,A,3114.53396,N,12117.69123,E,0.005,,161217,,,D*6A
$GNRMC,212257.00,A,3114.53396,N,12117.69121,E,0.018,,161217,,,D*65
$GNRMC,212258.00,A,3114.53397,N,12117.69118,E,0.008,,161217,,,D*60
$GNRMC,212259.00,A,3114.53398,N,12117.69115,E,0.001,,161217,,,D*6A
$GNRMC,212300.00,A,3114.53399,N,12117.69113,E,0.008,,161217,,,D*69
$GNRMC,212301.00,A,3114.53400,N,12117.69111,E,0.006,,161217,,,D*63
$GNRMC,212302.00,A,3114.53401,N,12117.69108,E,0.008,,161217,,,D*67
$GNRMC,212303.00,A,3114.53402,N,12117.69106,E,0.014,,161217,,,D*66
$GNRMC,212304.00,A,3114.53404,N,12117.69104,E,0.021,,161217,,,D*63
$GNRMC,212305.00,A,3114.53405,N,12117.69102,E,0.007,,161217,,,D*61
$GNRMC,212306.00,A,3114.53405,N,12117.69101,E,0.003,,161217,,,D*65
$GNRMC,212307.00,A,3114.53405,N,12117.69100,E,0.005,,161217,,,D*63
$GNRMC,212308.00,A,3114.53404,N,12117.69098,E,0.004,,161217,,,D*6C
$GNRMC,212309.00,A,3114.53402,N,12117.69097,E,0.012,,161217,,,D*63
$GNRMC,212310.00,A,3114.53401,N,12117.69095,E,0.006,,161217,,,D*6F
$GNRMC,212311.00,A,3114.53401,N,12117.69095,E,0.010,,161217,,,D*69
$GNRMC,212312.00,A,3114.53400,N,12117.69094,E,0.006,,161217,,,D*6D
$GNRMC,212313.00,A,3114.53398,N,12117.69093,E,0.002,,161217,,,D*69
$GNRMC,212314.00,A,3114.53398,N,12117.69092,E,0.012,,161217,,,D*6E
$GNRMC,212315.00,A,3114.53397,N,12117.69092,E,0.006,,161217,,,D*65
$GNRMC,212316.00,A,3114.53396,N,12117.69091,E,0.006,,161217,,,D*64
$GNRMC,212317.00,A,3114.53395,N,12117.69090,E,0.009,,161217,,,D*68
$GNRMC,212318.00,A,3114.53393,N,12117.69089,E,0.003,,161217,,,D*63
$GNRMC,212319.00,A,3114.53392,N,12117.69089,E,0.009,,161217,,,D*69
$GNRMC,212320.00,A,3114.53390,N,12117.69088,E,0.002,,161217,,,D*6B
$GNRMC,212321.00,A,3114.53389,N,12117.69088,E,0.004,,161217,,,D*64
$GNRMC,212322.00,A,3114.53388,N,12117.69086,E,0.010,,161217,,,D*6D
$GNRMC,212323.00,A,3114.53387,N,12117.69086,E,0.009,,161217,,,D*6B
$GNRMC,212324.00,A,3114.53387,N,12117.69085,E,0.013,,161217,,,D*64
$GNRMC,212325.00,A,3114.53386,N,12117.69085,E,0.014,,161217,,,D*63
$GNRMC,212326.00,A,3114.53385,N,12117.69084,E,0.003,,161217,,,D*64
$GNRMC,212327.00,A,3114.53385,N,12117.69084,E,0.006,,161217,,,D*60
$GNRMC,212328.00,A,3114.53385,N,12117.69083,E,0.008,,161217,,,D*66
$GNRMC,212329.00,A,3114.53385,N,12117.69083,E,0.005,,161217,,,D*6A
$GNRMC,212330.00,A,3114.53385,N,12117.69082,E,0.004,,161217,,,D*62
$GNRMC,212331.00,A,3114.53385,N,12117.69082,E,0.005,,161217,,,D*62
$GNRMC,212332.00,A,3114.53386,N,12117.69082,E,0.008,,161217,,,D*6F
$GNRMC,212333.00,A,3114.53386,N,12117.69081,E,0.013,,161217,,,D*67
$GNRMC,212334.00,A,3114.53387,N,12117.69081,E,0.008,,161217,,,D*6B
$GNRMC,212335.00,A,3114.53389,N,12117.69079,E,0.013,,161217,,,D*69
$GNRMC,212336.00,A,3114.53390,N,12117.69078,E,0.011,,161217,,,D*61
$GNRMC,212337.00,A,3114.53390,N,12117.69076,E,0.007,,161217,,,D*69
$GNRMC,212338.00,A,3114.53391,N,12117.69074,E,0.008,,161217,,,D*6A
$GNRMC,212339.00,A,3114.53391,N,12117.69072,E,0.013,,161217,,,D*67
$GNRMC,212340.00,A,3114.53392,N,12117.69071,E,0.011,,161217,,,D*6B
$GNRMC,212341.00,A,3114.53392,N,12117.69070,E,0.010,,161217,,,D*6A
$GNRMC,212342.00,A,3114.53392,N,12117.69069,E,0.003,,161217,,,D*63
$GNRMC,212343.00,A,3114.53393,N,12117.69069,E,0.012,,161217,,,D*63
$GNRMC,212344.00,A,3114.53393,N,12117.69070,E,0.011,,161217,,,D*6F
$GNRMC,212345.00,A,3114.53393,N,12117.69071,E,0.008,,161217,,,D*67
$GNRMC,212346.00,A,3114.53393,N,12117.69071,E,0.006,,161217,,,D*6A
$GNRMC,212347.00,A,3114.53393,N,12117.69071,E,0.001,,161217,,,D*6C
$GNRMC,212348.00,A,3114.53393,N,12117.69071,E,0.009,,161217,,,D*6B
$GNRMC,212349.00,A,3114.53393,N,12117.69071,E,0.005,,161217,,,D*66
$GNRMC,212350.00,A,3114.53393,N,12117.69071,E,0.007,,161217,,,D*6C
$GNRMC,212351.00,A,3114.53394,N,12117.69071,E,0.012,,161217,,,D*6E
$GNRMC,212352.00,A,3114.53395,N,12117.69069,E,0.016,,161217,,,D*61
$GNRMC,212353.00,A,3114.53396,N,12117.69069,E,0.010,,161217,,,D*65
$GNRMC,212354.00,A,3114.53398,N,12117.69069,E,0.007,,161217,,,D*6A
$GNRMC,212355.00,A,3114.53399,N,12117.69069,E,0.005,,161217,,,D*68
$GNRMC,212356.00,A,3114.53400,N,12117.69070,E,0.007,,161217,,,D*66
$GNRMC,212357.00,A,3114.53402,N,12117.69071,E,0.001,,161217,,,D*62
$GNRMC,212358.00,A,3114.53404,N,12117.69071,E,0.005,,161217,,,D*6F
$GNRMC,212359.00,A,3114.53405,N,12117.69072,E,0.016,,161217,,,D*6E
$GNRMC,212400.00,A,3114.53407,N,12117.69074,E,0.014,,161217,,,D*63
$GNRMC,212401.00,A,3114.53409,N,12117.69078,E,0.012,,161217,,,D*66
$GNRMC,212402.00,A,3114.53412,N,12117.69081,E,0.009,,161217,,,D*63
$GNRMC,212403.00,A,3114.53413,N,12117.69084,E,0.006,,161217,,,D*69
$GNRMC,212404.00,A,3114.53414,N,12117.69084,E,0.007,,161217,,,D*68
$GNRMC,212405.00,A,3114.53415,N,12117.69086,E,0.005,,161217,,,D*68
$GNRMC,212406.00,A,3114.53416,N,12117.69087,E,0.005,,161217,,,D*69
$GNRMC,212407.00,A,3114.53417,N,12117.69089,E,0.006,,161217,,,D*64
$GNRMC,212408.00,A,3114.53419,N,12117.69091,E,0.004,,161217,,,D*6E
$GNRMC,212409.00,A,3114.53420,N,12117.69092,E,0.005,,161217,,,D*67
$GNRMC,212410.00,A,3114.53420,N,12117.69094,E,0.012,,161217,,,D*6F
$GNRMC,212411.00,A,3114.53421,N,12117.69096,E,0.008,,161217,,,D*66
$GNRMC,212412.00,A,3114.53422,N,12117.69098,E,0.009,,161217,,,D*69
$GNRMC,212413.00,A,3114.53422,N,12117.69100,E,0.012,,161217,,,D*62
$GNRMC,212414.00,A,3114.53423,N,12117.69101,E,0.010,,161217,,,D*67
$GNRMC,212415.00,A,3114.53423,N,12117.69101,E,0.008,,161217,,,D*6F
$GNRMC,212416.00,A,3114.53424,N,12117.69102,E,0.011,,161217,,,D*60
$GNRMC,212417.00,A,3114.53424,N,12117.69103,E,0.010,,161217,,,D*61
$GNRMC,212418.00,A,3114.53425,N,12117.69105,E,0.006,,161217,,,D*6E
$GNRMC,212419.00,A,3114.53425,N,12117.69106,E,0.006,,161217,,,D*6C
$GNRMC,212420.00,A,3114.53425,N,12117.69107,E,0.007,,161217,,,D*66
$GNRMC,212421.00,A,3114.53424,N,12117.69110,E,0.004,,161217,,,D*63
$GNRMC,212422.00,A,3114.53424,N,12117.69114,E,0.021,,161217,,,D*63
$GNRMC,212423.00,A,3114.53423,N,12117.69117,E,0.007,,161217,,,D*62
$GNRMC,212424.00,A,3114.53423,N,12117.69121,E,0.003,,161217,,,D*64
$GNRMC,212425.00,A,3114.53422,N,12117.69124,E,0.004,,161217,,,D*66
$GNRMC,212426.00,A,3114.53421,N,12117.69127,E,0.011,,161217,,,D*61
$GNRMC,212427.00,A,3114.53420,N,12117.69130,E,0.008,,161217,,,D*6F
$GNRMC,212428.00,A,3114.53419,N,12117.69134,E,0.012,,161217,,,D*65
$GNRMC,212429.00,A,3114.53417,N,12117.69136,E,0.009,,161217,,,D*62
$GNRMC,212430.00,A,3114.53416,N,12117.69140,E,0.008,,161217,,,D*6B
$GNRMC,212431.00,A,3114.53415,N,12117.69146,E,0.011,,161217,,,D*67
$GNRMC,212432.00,A,3114.53414,N,12117.69149,E,0.003,,161217,,,D*69
$GNRMC,212433.00,A,3114.53413,N,12117.69152,E,0.008,,161217,,,D*6E
$GNRMC,212434.00,A,3114.53412,N,12117.69155,E,0.012,,161217,,,D*64
$GNRMC,212435.00,A,3114.53411,N,12117.69157,E,0.008,,161217,,,D*6F
$GNRMC,212436.00,A,3114.53410,N,12117.69161,E,0.014,,161217,,,D*65
$GNRMC,212437.00,A,3114.53410,N,12117.69165,E,0.009,,161217,,,D*6C
$GNRMC,212438.00,A,3114.53409,N,12117.69169,E,0.009,,161217,,,D*67
$GNRMC,212439.00,A,3114.53408,N,12117.69175,E,0.012,,161217,,,D*60
$GNRMC,212440.00,A,3114.53407,N,12117.69184,E,0.013,,161217,,,D*6E
$GNRMC,212441.00,A,3114.53407,N,12117.69192,E,0.006,,161217,,,D*6C
$GNRMC,212442.00,A,3114.53406,N,12117.69198,E,0.012,,161217,,,D*61
$GNRMC,212443.00,A,3114.53405,N,12117.69201,E,0.005,,161217,,,D*66
$GNRMC,212444.00,A,3114.53404,N,12117.69204,E,0.014,,161217,,,D*65
$GNRMC,212445.00,A,3114.53403,N,12117.69208,E,0.011,,161217,,,D*6A
$GNRMC,212446.00,A,3114.53401,N,12117.69210,E,0.007,,161217,,,D*65
$GNRMC,212447.00,A,3114.53399,N,12117.69210,E,0.002,,161217,,,D*67
$GNRMC,212448.00,A,3114.53396,N,12117.69210,E,0.018,,161217,,,D*6C
$GNRMC,212449.00,A,3114.53395,N,12117.69208,E,0.006,,161217,,,D*68
$GNRMC,212450.00,A,3114.53394,N,12117.69206,E,0.006,,161217,,,D*6F
$GNRMC,212451.00,A,3114.53393,N,12117.69205,E,0.008,,161217,,,D*64
$GNRMC,212452.00,A,3114.53394,N,12117.69203,E,0.003,,161217,,,D*6D
$GNRMC,212453.00,A,3114.53393,N,12117.69201,E,0.007,,161217,,,D*6D
$GNRMC,212454.00,A,3114.53392,N,12117.69198,E,0.010,,161217,,,D*6E
$GNRMC,212455.00,A,3114.53392,N,12117.69195,E,0.003,,161217,,,D*60
$GNRMC,212456.00,A,3114.53391,N,12117.69192,E,0.006,,161217,,,D*62
$GNRMC,212457.00,A,3114.53391,N,12117.69189,E,0.018,,161217,,,D*66
$GNRMC,212458.00,A,3114.53392,N,12117.69186,E,0.012,,161217,,,D*6F
$GNRMC,212459.00,A,3114.53392,N,12117.69183,E,0.001,,161217,,,D*69
$GNRMC,212500.00,A,3114.53393,N,12117.69179,E,0.011,,161217,,,D*61
$GNRMC,212501.00,A,3114.53393,N,12117.69177,E,0.008,,161217,,,D*66
$GNRMC,212502.00,A,3114.53394,N,12117.69175,E,0.012,,161217,,,D*6B
$GNRMC,212503.00,A,3114.53394,N,12117.69172,E,0.009,,161217,,,D*67
$GNRMC,212504.00,A,3114.53396,N,12117.69170,E,0.015,,161217,,,D*6D
$GNRMC,212505.00,A,3114.53396,N,12117.69166,E,0.004,,161217,,,D*6B
$GNRMC,212506.00,A,3114.53396,N,12117.69163,E,0.001,,161217,,,D*68
$GNRMC,212507.00,A,3114.53397,N,12117.69159,E,0.011,,161217,,,D*60
$GNRMC,212508.00,A,3114.53398,N,12117.69156,E,0.011,,161217,,,D*6F
$GNRMC,212509.00,A,3114.53400,N,12117.69154,E,0.011,,161217,,,D*6A
$GNRMC,212510.00,A,3114.53403,N,12117.69157,E,0.008,,161217,,,D*6A
$GNRMC,212511.00,A,3114.53405,N,12117.69159,E,0.006,,161217,,,D*6D
$GNRMC,212512.00,A,3114.53407,N,12117.69160,E,0.003,,161217,,,D*63
$GNRMC,212513.00,A,3114.53408,N,12117.69162,E,0.004,,161217,,,D*68
$GNRMC,212514.00,A,3114.53408,N,12117.69162,E,0.007,,161217,,,D*6C
$GNRMC,212515.00,A,3114.53408,N,12117.69163,E,0.006,,161217,,,D*6D
$GNRMC,212516.00,A,3114.53409,N,12117.69164,E,0.002,,161217,,,D*6C
$GNRMC,212517.00,A,3114.53411,N,12117.69164,E,0.007,,161217,,,D*61
$GNRMC,212518.00,A,3114.53412,N,12117.69165,E,0.006,,161217,,,D*6D
$GNRMC,212519.00,A,3114.53414,N,12117.69166,E,0.015,,161217,,,D*6B
$GNRMC,212520.00,A,3114.53416,N,12117.69166,E,0.012,,161217,,,D*64
$GNRMC,212521.00,A,3114.53419,N,12117.69167,E,0.003,,161217,,,D*6B
$GNRMC,212522.00,A,3114.53421,N,12117.69167,E,0.002,,161217,,,D*62
$GNRMC,212523.00,A,3114.53423,N,12117.69167,E,0.006,,161217,,,D*65
$GNRMC,212524.00,A,3114.53425,N,12117.69167,E,0.011,,161217,,,D*62
$GNRMC,212525.00,A,3114.53428,N,12117.69168,E,0.003,,161217,,,D*62
$GNRMC,212526.00,A,3114.53430,N,12117.69167,E,0.009,,161217,,,D*6D
$GNRMC,212527.00,A,3114.53431,N,12117.69166,E,0.008,,161217,,,D*6D
$GNRMC,212528.00,A,3114.53432,N,12117.69166,E,0.001,,161217,,,D*68
$GNRMC,212529.00,A,3114.53433,N,12117.69165,E,0.007,,161217,,,D*6D
$GNRMC,212530.00,A,3114.53434,N,12117.69165,E,0.011,,161217,,,D*65
$GNRMC,212531.00,A,3114.53435,N,12117.69164,E,0.009,,161217,,,D*6D
$GNRMC,212532.00,A,3114.53436,N,12117.69162,E,0.011,,161217,,,D*62
$GNRMC,212533.00,A,3114.53434,N,12117.69159,E,0.003,,161217,,,D*6A
$GNRMC,212534.00,A,3114.53432,N,12117.69157,E,0.012,,161217,,,D*65
$GNRMC,212535.00,A,3114.53430,N,12117.69156,E,0.004,,161217,,,D*60
$GNRMC,212536.00,A,3114.53428,N,12117.69153,E,0.003,,161217,,,D*68
$GNRMC,212537.00,A,3114.53425,N,12117.69151,E,0.006,,161217,,,D*63
$GNRMC,212538.00,A,3114.53423,N,12117.69149,E,0.005,,161217,,,D*60
$GNRMC,212539.00,A,3114.53420,N,12117.69147,E,0.008,,161217,,,D*61
$GNRMC,212540.00,A,3114.53418,N,12117.69146,E,0.001,,161217,,,D*6C
$GNRMC,212541.00,A,3114.53416,N,12117.69145,E,0.005,,161217,,,D*64
$GNRMC,212542.00,A,3114.53414,N,12117.69143,E,0.004,,161217,,,D*62
$GNRMC,212543.00,A,3114.53412,N,12117.69141,E,0.003,,161217,,,D*60
$GNRMC,212544.00,A,3114.53412,N,12117.69140,E,0.007,,161217,,,D*62
$GNRMC,212545.00,A,3114.53410,N,12117.69138,E,0.002,,161217,,,D*6B
$GNRMC,212546.00,A,3114.53409,N,12117.69137,E,0.009,,161217,,,D*64
$GNRMC,212547.00,A,3114.53408,N,12117.69136,E,0.002,,161217,,,D*6E
$GNRMC,212548.00,A,3114.53407,N,12117.69135,E,0.003,,161217,,,D*6C
$GNRMC,212549.00,A,3114.53405,N,12117.69134,E,0.011,,161217,,,D*6D
$GNRMC,212550.00,A,3114.53404,N,12117.69133,E,0.012,,161217,,,D*60
$GNRMC,212551.00,A,3114.53402,N,12117.69133,E,0.004,,161217,,,D*60
$GNRMC,212552.00,A,3114.53400,N,12117.69133,E,0.008,,161217,,,D*6D
$GNRMC,212553.00,A,3114.53399,N,12117.69135,E,0.008,,161217,,,D*6D
$GNRMC,212554.00,A,3114.53398,N,12117.69136,E,0.004,,161217,,,D*64
$GNRMC,212555.00,A,3114.53398,N,12117.69137,E,0.008,,161217,,,D*68
$GNRMC,212556.00,A,3114.53397,N,12117.69139,E,0.011,,161217,,,D*62
$GNRMC,212557.00,A,3114.53396,N,12117.69140,E,0.003,,161217,,,D*6F
$GNRMC,212558.00,A,3114.53396,N,12117.69143,E,0.011,,161217,,,D*60
$GNRMC,212559.00,A,3114.53395,N,12117.69146,E,0.005,,161217,,,D*62
$GNRMC,212600.00,A,3114.53393,N,12117.69150,E,0.015,,161217,,,D*6D
$GNRMC,212601.00,A,3114.53392,N,12117.69152,E,0.017,,161217,,,D*6D
$GNRMC,212602.00,A,3114.53391,N,12117.69155,E,0.017,,161217,,,D*6A
$GNRMC,212603.00,A,3114.53390,N,12117.69158,E,0.017,,161217,,,D*67
$GNRMC,212604.00,A,3114.53390,N,12117.69160,E,0.003,,161217,,,D*6E
$GNRMC,212605.00,A,3114.53390,N,12117.69162,E,0.006,,161217,,,D*68
$GNRMC,212606.00,A,3114.53389,N,12117.69164,E,0.012,,161217,,,D*60
$GNRMC,212607.00,A,3114.53387,N,12117.69165,E,0.009,,161217,,,D*64
$GNRMC,212608.00,A,3114.53386,N,12117.69165,E,0.000,,161217,,,D*63
$GNRMC,212609.00,A,3114.53385,N,12117.69165,E,0.008,,161217,,,D*69
$GNRMC,212610.00,A,3114.53385,N,12117.69165,E,0.003,,161217,,,D*6A
$GNRMC,212611.00,A,3114.53383,N,12117.69165,E,0.020,,161217,,,D*6C
$GNRMC,212612.00,A,3114.53382,N,12117.69165,E,0.007,,161217,,,D*6B
$GNRMC,212613.00,A,3114.53377,N,12117.69163,E,0.003,,161217,,,D*62
$GNRMC,212614.00,A,3114.53372,N,12117.69162,E,0.005,,161217,,,D*67
$GNRMC,212615.00,A,3114.53368,N,12117.69162,E,0.013,,161217,,,D*6A
$GNRMC,212616.00,A,3114.53364,N,12117.69161,E,0.017,,161217,,,D*62
$GNRMC,212617.00,A,3114.53361,N,12117.69160,E,0.017,,161217,,,D*67
$GNRMC,212618.00,A,3114.53358,N,12117.69158,E,0.014,,161217,,,D*6A
$GNRMC,212619.00,A,3114.53354,N,12117.69155,E,0.005,,161217,,,D*6A
$GNRMC,212620.00,A,3114.53352,N,12117.69152,E,0.011,,161217,,,D*64
$GNRMC,212621.00,A,3114.53349,N,12117.69147,E,0.005,,161217,,,D*6E
$GNRMC,212622.00,A,3114.53347,N,12117.69143,E,0.002,,161217,,,D*60
$GNRMC,212623.00,A,3114.53346,N,12117.69138,E,0.010,,161217,,,D*6F
$GNRMC,212624.00,A,3114.53344,N,12117.69131,E,0.004,,161217,,,D*66
$GNRMC,212625.00,A,3114.53342,N,12117.69126,E,0.007,,161217,,,D*64
$GNRMC,212626.00,A,3114.53338,N,12117.69121,E,0.008,,161217,,,D*62
$GNRMC,212627.00,A,3114.53337,N,12117.69118,E,0.005,,161217,,,D*6B
$GNRMC,212628.00,A,3114.53334,N,12117.69114,E,0.004,,161217,,,D*6A
$GNRMC,212629.00,A,3114.53331,N,12117.69109,E,0.004,,161217,,,D*62
$GNRMC,212630.00,A,3114.53328,N,12117.69104,E,0.002,,161217,,,D*69
$GNRMC,212631.00,A,3114.53323,N,12117.69099,E,0.006,,161217,,,D*62
$GNRMC,212632.00,A,3114.53319,N,12117.69093,E,0.009,,161217,,,D*6D
$GNRMC,212633.00,A,3114.53316,N,12117.69088,E,0.006,,161217,,,D*66
$GNRMC,212634.00,A,3114.53311,N,12117.69082,E,0.010,,161217,,,D*6B
$GNRMC,212635.00,A,3114.53308,N,12117.69075,E,0.008,,161217,,,D*63
$GNRMC,212636.00,A,3114.53305,N,12117.69068,E,0.009,,161217,,,D*60
$GNRMC,212637.00,A,3114.53301,N,12117.69061,E,0.004,,161217,,,D*61
$GNRMC,212638.00,A,3114.53297,N,12117.69054,E,0.009,,161217,,,D*6B
$GNRMC,212639.00,A,3114.53293,N,12117.69046,E,0.007,,161217,,,D*63
$GNRMC,212640.00,A,3114.53290,N,12117.69039,E,0.003,,161217,,,D*62
$GNRMC,212641.00,A,3114.53286,N,12117.69033,E,0.010,,161217,,,D*6C
$GNRMC,212642.00,A,3114.53283,N,12117.69028,E,0.002,,161217,,,D*63
$GNRMC,212643.00,A,3114.53279,N,12117.69022,E,0.009,,161217,,,D*66
$GNRMC,212644.00,A,3114.53277,N,12117.69018,E,0.009,,161217,,,D*66
$GNRMC,212645.00,A,3114.53274,N,12117.69014,E,0.007,,161217,,,D*66
$GNRMC,212646.00,A,3114.53271,N,12117.69009,E,0.007,,161217,,,D*6C
$GNRMC,212647.00,A,3114.53270,N,12117.69006,E,0.009,,161217,,,D*6D
$GNRMC,212648.00,A,3114.53268,N,12117.69003,E,0.014,,161217,,,D*62
$GNRMC,212649.00,A,3114.53267,N,12117.69002,E,0.006,,161217,,,D*6E
$GNRMC,212650.00,A,3114.53267,N,12117.69002,E,0.006,,161217,,,D*66
$GNRMC,212651.00,A,3114.53267,N,12117.69003,E,0.008,,161217,,,D*68
$GNRMC,212652.00,A,3114.53267,N,12117.69003,E,0.006,,161217,,,D*65
$GNRMC,212653.00,A,3114.53266,N,12117.69003,E,0.014,,161217,,,D*66
$GNRMC,212654.00,A,3114.53267,N,12117.69003,E,0.005,,161217,,,D*60
$GNRMC,212655.00,A,3114.53267,N,12117.69002,E,0.003,,161217,,,D*66
$GNRMC,212656.00,A,3114.53268,N,12117.69002,E,0.008,,161217,,,D*61
$GNRMC,212657.00,A,3114.53269,N,12117.69000,E,0.003,,161217,,,D*68
$GNRMC,212658.00,A,3114.53270,N,12117.69000,E,0.003,,161217,,,D*6F
$GNRMC,212659.00,A,3114.53272,N,12117.68999,E,0.004,,161217,,,D*63
$GNRMC,212700.00,A,3114.53274,N,12117.69000,E,0.018,,161217,,,D*6D
$GNRMC,212701.00,A,3114.53276,N,12117.69001,E,0.012,,161217,,,D*65
$GNRMC,212702.00,A,3114.53277,N,12117.69000,E,0.013,,161217,,,D*67
$GNRMC,212703.00,A,3114.53277,N,12117.68998,E,0.002,,161217,,,D*6F
$GNRMC,212704.00,A,3114.53276,N,12117.68997,E,0.003,,161217,,,D*67
$GNRMC,212705.00,A,3114.53275,N,12117.68998,E,0.013,,161217,,,D*6B
$GNRMC,212706.00,A,3114.53275,N,12117.69002,E,0.009,,161217,,,D*68
$GNRMC,212707.00,A,3114.53275,N,12117.69004,E,0.003,,161217,,,D*65
$GNRMC,212708.00,A,3114.53275,N,12117.69005,E,0.008,,161217,,,D*60
$GNRMC,212709.00,A,3114.53275,N,12117.69006,E,0.011,,161217,,,D*6A
$GNRMC,212710.00,A,3114.53274,N,12117.69007,E,0.002,,161217,,,D*60
$GNRMC,212711.00,A,3114.53273,N,12117.69008,E,0.011,,161217,,,D*6B
$GNRMC,212712.00,A,3114.53272,N,12117.69009,E,0.003,,161217,,,D*6B
$GNRMC,212713.00,A,3114.53271,N,12117.69010,E,0.009,,161217,,,D*6B
$GNRMC,212714.00,A,3114.53270,N,12117.69013,E,0.006,,161217,,,D*61
$GNRMC,212715.00,A,3114.53269,N,12117.69016,E,0.004,,161217,,,D*6F
$GNRMC,212716.00,A,3114.53268,N,12117.69017,E,0.001,,161217,,,D*69
$GNRMC,212717.00,A,3114.53267,N,12117.69019,E,0.004,,161217,,,D*6C
$GNRMC,212718.00,A,3114.53266,N,12117.69022,E,0.002,,161217,,,D*6C
$GNRMC,212719.00,A,3114.53265,N,12117.69024,E,0.002,,161217,,,D*68
$GNRMC,212720.00,A,3114.53264,N,12117.69026,E,0.018,,161217,,,D*6A
$GNRMC,212721.00,A,3114.53264,N,12117.69030,E,0.012,,161217,,,D*66
$GNRMC,212722.00,A,3114.53265,N,12117.69035,E,0.005,,161217,,,D*67
$GNRMC,212723.00,A,3114.53265,N,12117.69040,E,0.012,,161217,,,D*62
$GNRMC,212724.00,A,3114.53265,N,12117.69045,E,0.008,,161217,,,D*6B
$GNRMC,212725.00,A,3114.53265,N,12117.69049,E,0.009,,161217,,,D*67
$GNRMC,212726.00,A,3114.53264,N,12117.69051,E,0.007,,161217,,,D*62
$GNRMC,212727.00,A,3114.53263,N,12117.69054,E,0.011,,161217,,,D*66
$GNRMC,212728.00,A,3114.53262,N,12117.69057,E,0.010,,161217,,,D*6A
$GNRMC,212729.00,A,3114.53261,N,12117.69060,E,0.005,,161217,,,D*68
$GNRMC,212730.00,A,3114.53260,N,12117.69064,E,0.004,,161217,,,D*64
$GNRMC,212731.00,A,3114.53259,N,12117.69069,E,0.004,,161217,,,D*62
$GNRMC,212732.00,A,3114.53258,N,12117.69073,E,0.003,,161217,,,D*6C
$GNRMC,212733.00,A,3114.53258,N,12117.69079,E,0.007,,161217,,,D*63
$GNRMC,212734.00,A,3114.53258,N,12117.69083,E,0.006,,161217,,,D*60
$GNRMC,212735.00,A,3114.53258,N,12117.69086,E,0.019,,161217,,,D*6A
$GNRMC,212736.00,A,3114.53258,N,12117.69089,E,0.014,,161217,,,D*6B
$GNRMC,212737.00,A,3114.53257,N,12117.69089,E,0.002,,161217,,,D*62
$GNRMC,212738.00,A,3114.53256,N,12117.69091,E,0.009,,161217,,,D*6E
$GNRMC,212739.00,A,3114.53255,N,12117.69093,E,0.005,,161217,,,D*62
$GNRMC,212740.00,A,3114.53254,N,12117.69095,E,0.013,,161217,,,D*6C
$GNRMC,212741.00,A,3114.53254,N,12117.69097,E,0.013,,161217,,,D*6F
$GNRMC,212742.00,A,3114.53254,N,12117.69098,E,0.006,,161217,,,D*67
$GNRMC,212743.00,A,3114.53254,N,12117.69100,E,0.007,,161217,,,D*67
$GNRMC,212744.00,A,3114.53255,N,12117.69101,E,0.011,,161217,,,D*67
$GNRMC,212745.00,A,3114.53255,N,12117.69101,E,0.007,,161217,,,D*61
$GNRMC,212746.00,A,3114.53255,N,12117.69100,E,0.008,,161217,,,D*6C
$GNRMC,212747.00,A,3114.53255,N,12117.69099,E,0.009,,161217,,,D*6D
$GNRMC,212748.00,A,3114.53255,N,12117.69097,E,0.009,,161217,,,D*6C
$GNRMC,212749.00,A,3114.53255,N,12117.69095,E,0.013,,161217,,,D*64
$GNRMC,212750.00,A,3114.53255,N,12117.69094,E,0.007,,161217,,,D*68
$GNRMC,212751.00,A,3114.53256,N,12117.69092,E,0.006,,161217,,,D*6D
$GNRMC,212752.00,A,3114.53256,N,12117.69091,E,0.003,,161217,,,D*68
$GNRMC,212753.00,A,3114.53256,N,12117.69089,E,0.014,,161217,,,D*66
$GNRMC,212754.00,A,3114.53257,N,12117.69088,E,0.011,,161217,,,D*64
$GNRMC,212755.00,A,3114.53258,N,12117.69087,E,0.010,,161217,,,D*64
$GNRMC,212756.00,A,3114.53258,N,12117.69086,E,0.009,,161217,,,D*6E
$GNRMC,212757.00,A,3114.53259,N,12117.69088,E,0.006,,161217,,,D*6F
$GNRMC,212758.00,A,3114.53260,N,12117.69089,E,0.004,,161217,,,D*69
$GNRMC,212759.00,A,3114.53260,N,12117.69089,E,0.006,,161217,,,D*6A
$GNRMC,212800.00,A,3114.53261,N,12117.69090,E,0.005,,161217,,,D*63
$GNRMC,212801.00,A,3114.53261,N,12117.69091,E,0.003,,161217,,,D*65
$GNRMC,212802.00,A,3114.53262,N,12117.69090,E,0.004,,161217,,,D*63
$GNRMC,212803.00,A,3114.53264,N,12117.69090,E,0.006,,161217,,,D*66
$GNRMC,212804.00,A,3114.53265,N,12117.69090,E,0.008,,161217,,,D*6E
$GNRMC,212805.00,A,3114.53266,N,12117.69091,E,0.005,,161217,,,D*60
$GNRMC,212806.00,A,3114.53268,N,12117.69092,E,0.005,,161217,,,D*6E
$GNRMC,212807.00,A,3114.53269,N,12117.69093,E,0.003,,161217,,,D*69
$GNRMC,212808.00,A,3114.53270,N,12117.69092,E,0.014,,161217,,,D*69
$GNRMC,212809.00,A,3114.53272,N,12117.69093,E,0.014,,161217,,,D*6B
$GNRMC,212810.00,A,3114.53274,N,12117.69093,E,0.007,,161217,,,D*67
$GNRMC,212811.00,A,3114.53276,N,12117.69093,E,0.002,,161217,,,D*61
$GNRMC,212812.00,A,3114.53278,N,12117.69091,E,0.001,,161217,,,D*6D
$GNRMC,212813.00,A,3114.53281,N,12117.69091,E,0.011,,161217,,,D*6B
$GNRMC,212814.00,A,3114.53283,N,12117.69091,E,0.017,,161217,,,D*68
$GNRMC,212815.00,A,3114.53285,N,12117.69091,E,0.010,,161217,,,D*68
$GNRMC,212816.00,A,3114.53287,N,12117.69091,E,0.008,,161217,,,D*60
$GNRMC,212817.00,A,3114.53290,N,12117.69090,E,0.004,,161217,,,D*6A
$GNRMC,212818.00,A,3114.53293,N,12117.69089,E,0.001,,161217,,,D*6B
$GNRMC,212819.00,A,3114.53296,N,12117.69088,E,0.010,,161217,,,D*6E
$GNRMC,212820.00,A,3114.53298,N,12117.69087,E,0.005,,161217,,,D*61
$GNRMC,212821.00,A,3114.53299,N,12117.69086,E,0.016,,161217,,,D*62
$GNRMC,212822.00,A,3114.53300,N,12117.69086,E,0.004,,161217,,,D*63
$GNRMC,212823.00,A,3114.53300,N,12117.69084,E,0.006,,161217,,,D*62
$GNRMC,212824.00,A,3114.53300,N,12117.69082,E,0.006,,161217,,,D*63
$GNRMC,212825.00,A,3114.53300,N,12117.69081,E,0.004,,161217,,,D*63
$GNRMC,212826.00,A,3114.53299,N,12117.69079,E,0.004,,161217,,,D*66
$GNRMC,212827.00,A,3114.53299,N,12117.69077,E,0.004,,161217,,,D*69
$GNRMC,212828.00,A,3114.53297,N,12117.69075,E,0.016,,161217,,,D*69
$GNRMC,212829.00,A,3114.53296,N,12117.69073,E,0.009,,161217,,,D*61
$GNRMC,212830.00,A,3114.53296,N,12117.69071,E,0.007,,161217,,,D*65
$GNRMC,212831.00,A,3114.53295,N,12117.69070,E,0.003,,161217,,,D*62
$GNRMC,212832.00,A,3114.53294,N,12117.69068,E,0.010,,161217,,,D*6B
$GNRMC,212833.00,A,3114.53293,N,12117.69067,E,0.005,,161217,,,D*66
$GNRMC,212834.00,A,3114.53292,N,12117.69066,E,0.003,,161217,,,D*67
$GNRMC,212835.00,A,3114.53291,N,12117.69065,E,0.004,,161217,,,D*61
$GNRMC,212836.00,A,3114.53291,N,12117.69064,E,0.005,,161217,,,D*62
$GNRMC,212837.00,A,3114.53291,N,12117.69062,E,0.008,,161217,,,D*68
$GNRMC,212838.00,A,3114.53290,N,12117.69060,E,0.002,,161217,,,D*6E
$GNRMC,212839.00,A,3114.53290,N,12117.69058,E,0.003,,161217,,,D*65
$GNRMC,212840.00,A,3114.53289,N,12117.69056,E,0.004,,161217,,,D*6A
$GNRMC,212841.00,A,3114.53288,N,12117.69054,E,0.010,,161217,,,D*6D
$GNRMC,212842.00,A,3114.53287,N,12117.69052,E,0.015,,161217,,,D*62
$GNRMC,212843.00,A,3114.53284,N,12117.69051,E,0.004,,161217,,,D*63
$GNRMC,212844.00,A,3114.53283,N,12117.69051,E,0.009,,161217,,,D*6E
$GNRMC,212845.00,A,3114.53282,N,12117.69050,E,0.010,,161217,,,D*67
$GNRMC,212846.00,A,3114.53280,N,12117.69050,E,0.004,,161217,,,D*63
$GNRMC,212847.00,A,3114.53277,N,12117.69049,E,0.005,,161217,,,D*63
$GNRMC,212848.00,A,3114.53274,N,12117.69048,E,0.007,,161217,,,D*6C
$GNRMC,212849.00,A,3114.53271,N,12117.69047,E,0.007,,161217,,,D*67
$GNRMC,212850.00,A,3114.53269,N,12117.69048,E,0.007,,161217,,,D*69
$GNRMC,212851.00,A,3114.53267,N,12117.69049,E,0.003,,161217,,,D*63
$GNRMC,212852.00,A,3114.53265,N,12117.69049,E,0.003,,161217,,,D*62
$GNRMC,212853.00,A,3114.53264,N,12117.69050,E,0.001,,161217,,,D*68
$GNRMC,212854.00,A,3114.53262,N,12117.69050,E,0.005,,161217,,,D*6D
$GNRMC,212855.00,A,3114.53261,N,12117.69049,E,0.006,,161217,,,D*64
$GNRMC,212856.00,A,3114.53258,N,12117.69049,E,0.007,,161217,,,D*6C
$GNRMC,212857.00,A,3114.53256,N,12117.69048,E,0.012,,161217,,,D*66
$GNRMC,212858.00,A,3114.53253,N,12117.69046,E,0.005,,161217,,,D*64
$GNRMC,212859.00,A,3114.53251,N,12117.69045,E,0.007,,161217,,,D*66
$GNRMC,212900.00,A,3114.53249,N,12117.69043,E,0.008,,161217,,,D*6B
$GNRMC,212901.00,A,3114.53247,N,12117.69043,E,0.003,,161217,,,D*6F
$GNRMC,212902.00,A,3114.53246,N,12117.69042,E,0.007,,161217,,,D*68
$GNRMC,212903.00,A,3114.53245,N,12117.69042,E,0.003,,161217,,,D*6E
$GNRMC,212904.00,A,3114.53245,N,12117.69042,E,0.005,,161217,,,D*6F
$GNRMC,212905.00,A,3114.53245,N,12117.69042,E,0.003,,161217,,,D*68
$GNRMC,212906.00,A,3114.53244,N,12117.69043,E,0.006,,161217,,,D*6E
$GNRMC,212907.00,A,3114.53244,N,12117.69043,E,0.016,,161217,,,D*6E
$GNRMC,212908.00,A,3114.53244,N,12117.69045,E,0.008,,161217,,,D*68
$GNRMC,212909.00,A,3114.53244,N,12117.69048,E,0.007,,161217,,,D*6B
$GNRMC,212910.00,A,3114.53243,N,12117.69050,E,0.002,,161217,,,D*68
$GNRMC,212911.00,A,3114.53242,N,12117.69052,E,0.013,,161217,,,D*6A
$GNRMC,212912.00,A,3114.53241,N,12117.69052,E,0.013,,161217,,,D*6A
$GNRMC,212913.00,A,3114.53239,N,12117.69051,E,0.013,,161217,,,D*67
$GNRMC,212914.00,A,3114.53237,N,12117.69051,E,0.004,,161217,,,D*68
$GNRMC,212915.00,A,3114.53235,N,12117.69052,E,0.003,,161217,,,D*6F
$GNRMC,212916.00,A,3114.53234,N,12117.69052,E,0.006,,161217,,,D*68
$GNRMC,212917.00,A,3114.53233,N,12117.69053,E,0.009,,161217,,,D*60
$GNRMC,212918.00,A,3114.53231,N,12117.69054,E,0.005,,161217,,,D*66
$GNRMC,212919.00,A,3114.53230,N,12117.69055,E,0.003,,161217,,,D*61
$GNRMC,212920.00,A,3114.53229,N,12117.69056,E,0.013,,161217,,,D*61
$GNRMC,212921.00,A,3114.53228,N,12117.69056,E,0.004,,161217,,,D*67
$GNRMC,212922.00,A,3114.53227,N,12117.69057,E,0.008,,161217,,,D*66
$GNRMC,212923.00,A,3114.53227,N,12117.69058,E,0.002,,161217,,,D*62
$GNRMC,212924.00,A,3114.53226,N,12117.69059,E,0.009,,161217,,,D*6E
$GNRMC,212925.00,A,3114.53225,N,12117.69059,E,0.016,,161217,,,D*62
$GNRMC,212926.00,A,3114.53224,N,12117.69060,E,0.004,,161217,,,D*69
$GNRMC,212927.00,A,3114.53223,N,12117.69060,E,0.004,,161217,,,D*6F
$GNRMC,212928.00,A,3114.53222,N,12117.69060,E,0.002,,161217,,,D*67
$GNRMC,212929.00,A,3114.53222,N,12117.69060,E,0.005,,161217,,,D*61
$GNRMC,212930.00,A,3114.53220,N,12117.69060,E,0.004,,161217,,,D*6A
$GNRMC,212931.00,A,3114.53220,N,12117.69061,E,0.009,,161217,,,D*67
$GNRMC,212932.00,A,3114.53219,N,12117.69061,E,0.009,,161217,,,D*6E
$GNRMC,212933.00,A,3114.53218,N,12117.69061,E,0.020,,161217,,,D*65
$GNRMC,212934.00,A,3114.53217,N,12117.69060,E,0.011,,161217,,,D*6E
$GNRMC,212935.00,A,3114.53216,N,12117.69060,E,0.003,,161217,,,D*6D
$GNRMC,212936.00,A,3114.53214,N,12117.69058,E,0.009,,161217,,,D*6D
$GNRMC,212937.00,A,3114.53213,N,12117.69058,E,0.001,,161217,,,D*63
$GNRMC,212938.00,A,3114.53212,N,12117.69058,E,0.006,,161217,,,D*6A
$GNRMC,212939.00,A,3114.53210,N,12117.69058,E,0.002,,161217,,,D*6D
$GNRMC,212940.00,A,3114.53210,N,12117.69058,E,0.007,,161217,,,D*66
$GNRMC,212941.00,A,3114.53209,N,12117.69059,E,0.004,,161217,,,D*6D
$GNRMC,212942.00,A,3114.53209,N,12117.69059,E,0.011,,161217,,,D*6A
$GNRMC,212943.00,A,3114.53209,N,12117.69059,E,0.005,,161217,,,D*6E
$GNRMC,212944.00,A,3114.53209,N,12117.69059,E,0.002,,161217,,,D*6E
$GNRMC,212945.00,A,3114.53209,N,12117.69058,E,0.009,,161217,,,D*65
$GNRMC,212946.00,A,3114.53208,N,12117.69057,E,0.007,,161217,,,D*66
$GNRMC,212947.00,A,3114.53208,N,12117.69057,E,0.011,,161217,,,D*60
$GNRMC,212948.00,A,3114.53207,N,12117.69057,E,0.007,,161217,,,D*67
$GNRMC,212949.00,A,3114.53206,N,12117.69056,E,0.010,,161217,,,D*60
$GNRMC,212950.00,A,3114.53205,N,12117.69056,E,0.007,,161217,,,D*6D
$GNRMC,212951.00,A,3114.53203,N,12117.69055,E,0.005,,161217,,,D*6B
$GNRMC,212952.00,A,3114.53202,N,12117.69055,E,0.011,,161217,,,D*6C
$GNRMC,212953.00,A,3114.53201,N,12117.69054,E,0.009,,161217,,,D*66
$GNRMC,212954.00,A,3114.53200,N,12117.69053,E,0.002,,161217,,,D*6C
$GNRMC,212955.00,A,3114.53199,N,12117.69052,E,0.006,,161217,,,D*6B
$GNRMC,212956.00,A,3114.53198,N,12117.69050,E,0.003,,161217,,,D*6E
$GNRMC,212957.00,A,3114.53197,N,12117.69048,E,0.006,,161217,,,D*6C
$GNRMC,212958.00,A,3114.53196,N,12117.69046,E,0.006,,161217,,,D*6C
$GNRMC,212959.00,A,3114.53196,N,12117.69044,E,0.009,,161217,,,D*60
$GNRMC,213000.00,A,3114.53195,N,12117.69042,E,0.011,,161217,,,D*68
$GNRMC,213001.00,A,3114.53194,N,12117.69041,E,0.003,,161217,,,D*68
$GNRMC,213002.00,A,3114.53193,N,12117.69040,E,0.008,,161217,,,D*66
$GNRMC,213003.00,A,3114.53192,N,12117.69039,E,0.003,,161217,,,D*63
$GNRMC,213004.00,A,3114.53191,N,12117.69039,E,0.010,,161217,,,D*65
$GNRMC,213005.00,A,3114.53190,N,12117.69038,E,0.006,,161217,,,D*63
$GNRMC,213006.00,A,3114.53190,N,12117.69036,E,0.023,,161217,,,D*69
