$GNRMC,211331.00,A,3114.50701,N,12117.64353,E,0.025,,131217,,,A*6A
$GNRMC,211332.00,A,3114.50711,N,12117.64362,E,0.046,,131217,,,A*6F
$GNRMC,211333.00,A,3114.50719,N,12117.64368,E,0.033,,131217,,,A*6E
$GNRMC,211333.00,A,3114.50727,N,12117.64369,E,0.046,,131217,,,A*60
$GNRMC,211334.00,A,3114.50733,N,12117.64373,E,0.039,,131217,,,A*61
$GNRMC,211335.00,A,3114.50744,N,12117.64377,E,0.030,,131217,,,A*6D
$GNRMC,211336.00,A,3114.50752,N,12117.64377,E,0.011,,131217,,,A*6A
$GNRMC,211337.00,A,3114.50764,N,12117.64376,E,0.014,,131217,,,A*6A
$GNRMC,211338.00,A,3114.50774,N,12117.64376,E,0.001,,131217,,,A*60
$GNRMC,211339.00,A,3114.50782,N,12117.64378,E,0.010,,131217,,,A*66
$GNRMC,211340.00,A,3114.50787,N,12117.64381,E,0.004,,131217,,,A*6E
$GNRMC,211341.00,A,3114.50792,N,12117.64382,E,0.004,,131217,,,A*68
$GNRMC,211342.00,A,3114.50797,N,12117.64380,E,0.006,,131217,,,A*6E
$GNRMC,211343.00,A,3114.50800,N,12117.64378,E,0.010,,131217,,,A*6E
$GNRMC,211344.00,A,3114.50803,N,12117.64377,E,0.005,,131217,,,A*61
$GNRMC,211345.00,A,3114.50805,N,12117.64373,E,0.003,,131217,,,A*64
$GNRMC,211346.00,A,3114.50807,N,12117.64373,E,0.009,,131217,,,A*6F
$GNRMC,211347.00,A,3114.50810,N,12117.64373,E,0.003,,131217,,,A*62
$GNRMC,211348.00,A,3114.50812,N,12117.64372,E,0.004,,131217,,,A*69
$GNRMC,211349.00,A,3114.50813,N,12117.64372,E,0.009,,131217,,,A*64
$GNRMC,211350.00,A,3114.50815,N,12117.64372,E,0.006,,131217,,,A*65
$GNRMC,211351.00,A,3114.50816,N,12117.64370,E,0.010,,131217,,,A*62
$GNRMC,211352.00,A,3114.50817,N,12117.64368,E,0.014,,131217,,,A*6D
$GNRMC,211353.00,A,3114.50817,N,12117.64366,E,0.009,,131217,,,A*6E
$GNRMC,211354.00,A,3114.50817,N,12117.64363,E,0.004,,131217,,,A*61
$GNRMC,211355.00,A,3114.50815,N,12117.64361,E,0.010,,131217,,,A*65
$GNRMC,211356.00,A,3114.50810,N,12117.64360,E,0.003,,131217,,,A*60
$GNRMC,211357.00,A,3114.50808,N,12117.64360,E,0.005,,131217,,,A*6E
$GNRMC,211358.00,A,3114.50806,N,12117.64360,E,0.003,,131217,,,A*69
$GNRMC,211359.00,A,3114.50803,N,12117.64361,E,0.010,,131217,,,A*6E
$GNRMC,211400.00,A,3114.50796,N,12117.64363,E,0.007,,131217,,,A*62
$GNRMC,211401.00,A,3114.50790,N,12117.64366,E,0.026,,131217,,,A*63
$GNRMC,211402.00,A,3114.50783,N,12117.64369,E,0.026,,131217,,,A*6D
$GNRMC,211403.00,A,3114.50778,N,12117.64370,E,0.004,,131217,,,A*60
$GNRMC,211404.00,A,3114.50773,N,12117.64371,E,0.005,,131217,,,A*6C
$GNRMC,211405.00,A,3114.50771,N,12117.64371,E,0.008,,131217,,,A*62
$GNRMC,211406.00,A,3114.50767,N,12117.64372,E,0.008,,131217,,,A*65
$GNRMC,211407.00,A,3114.50765,N,12117.64373,E,0.008,,131217,,,A*67
$GNRMC,211408.00,A,3114.50762,N,12117.64374,E,0.007,,131217,,,A*67
$GNRMC,211409.00,A,3114.50761,N,12117.64374,E,0.010,,131217,,,A*63
$GNRMC,211410.00,A,3114.50761,N,12117.64374,E,0.006,,131217,,,A*6C
$GNRMC,211411.00,A,3114.50760,N,12117.64375,E,0.004,,131217,,,A*6F
$GNRMC,211412.00,A,3114.50759,N,12117.64377,E,0.019,,131217,,,A*68
$GNRMC,211413.00,A,3114.50758,N,12117.64378,E,0.019,,131217,,,A*67
$GNRMC,211414.00,A,3114.50756,N,12117.64379,E,0.006,,131217,,,A*61
$GNRMC,211415.00,A,3114.50756,N,12117.64379,E,0.010,,131217,,,A*67
$GNRMC,211416.00,A,3114.50757,N,12117.64379,E,0.010,,131217,,,A*65
$GNRMC,211417.00,A,3114.50758,N,12117.64378,E,0.009,,131217,,,A*62
$GNRMC,211418.00,A,3114.50758,N,12117.64378,E,0.007,,131217,,,A*63
$GNRMC,211419.00,A,3114.50757,N,12117.64378,E,0.004,,131217,,,A*6E
$GNRMC,211420.00,A,3114.50756,N,12117.64378,E,0.005,,131217,,,A*64
$GNRMC,211421.00,A,3114.50755,N,12117.64379,E,0.001,,131217,,,A*63
$GNRMC,211422.00,A,3114.50754,N,12117.64380,E,0.024,,131217,,,A*60
$GNRMC,211423.00,A,3114.50753,N,12117.64380,E,0.018,,131217,,,A*69
$GNRMC,211424.00,A,3114.50751,N,12117.64380,E,0.020,,131217,,,A*67
$GNRMC,211425.00,A,3114.50749,N,12117.64379,E,0.010,,131217,,,A*6A
$GNRMC,211426.00,A,3114.50748,N,12117.64380,E,0.004,,131217,,,A*6B
$GNRMC,211427.00,A,3114.50746,N,12117.64381,E,0.012,,131217,,,D*67
$GNRMC,211428.00,A,3114.50745,N,12117.64382,E,0.011,,131217,,,D*6B
$GNRMC,211429.00,A,3114.50744,N,12117.64383,E,0.010,,131217,,,D*6B
$GNRMC,211430.00,A,3114.50742,N,12117.64384,E,0.008,,131217,,,D*6B
$GNRMC,211431.00,A,3114.50741,N,12117.64386,E,0.008,,131217,,,D*6B
$GNRMC,211432.00,A,3114.50738,N,12117.64389,E,0.020,,131217,,,D*63
$GNRMC,211433.00,A,3114.50734,N,12117.64391,E,0.018,,131217,,,D*6C
$GNRMC,211434.00,A,3114.50732,N,12117.64393,E,0.018,,131217,,,D*6F
$GNRMC,211435.00,A,3114.50726,N,12117.64397,E,0.010,,131217,,,D*67
$GNRMC,211436.00,A,3114.50721,N,12117.64401,E,0.008,,131217,,,D*62
$GNRMC,211437.00,A,3114.50718,N,12117.64405,E,0.012,,131217,,,D*66
$GNRMC,211438.00,A,3114.50716,N,12117.64408,E,0.013,,131217,,,D*6B
$GNRMC,211439.00,A,3114.50710,N,12117.64413,E,0.016,,131217,,,D*63
$GNRMC,211440.00,A,3114.50709,N,12117.64417,E,0.008,,131217,,,D*6E
$GNRMC,211441.00,A,3114.50707,N,12117.64422,E,0.005,,131217,,,D*6A
$GNRMC,211442.00,A,3114.50707,N,12117.64425,E,0.018,,131217,,,D*62
$GNRMC,211443.00,A,3114.50705,N,12117.64427,E,0.019,,131217,,,D*62
$GNRMC,211444.00,A,3114.50704,N,12117.64430,E,0.004,,131217,,,D*6E
$GNRMC,211445.00,A,3114.50704,N,12117.64433,E,0.009,,131217,,,D*61
$GNRMC,211446.00,A,3114.50703,N,12117.64436,E,0.011,,131217,,,D*69
$GNRMC,211447.00,A,3114.50704,N,12117.64437,E,0.002,,131217,,,D*6C
$GNRMC,211448.00,A,3114.50705,N,12117.64438,E,0.014,,131217,,,D*6A
$GNRMC,211449.00,A,3114.50706,N,12117.64438,E,0.010,,131217,,,D*6C
$GNRMC,211450.00,A,3114.50707,N,12117.64438,E,0.001,,131217,,,D*65
$GNRMC,211451.00,A,3114.50708,N,12117.64437,E,0.005,,131217,,,D*60
$GNRMC,211452.00,A,3114.50710,N,12117.64435,E,0.014,,131217,,,D*68
$GNRMC,211453.00,A,3114.50711,N,12117.64433,E,0.020,,131217,,,D*69
$GNRMC,211454.00,A,3114.50711,N,12117.64432,E,0.013,,131217,,,D*6F
$GNRMC,211455.00,A,3114.50712,N,12117.64431,E,0.010,,131217,,,D*6D
$GNRMC,211456.00,A,3114.50712,N,12117.64430,E,0.020,,131217,,,D*6C
$GNRMC,211457.00,A,3114.50712,N,12117.64429,E,0.007,,131217,,,D*60
$GNRMC,211458.00,A,3114.50713,N,12117.64429,E,0.009,,131217,,,D*60
$GNRMC,211459.00,A,3114.50712,N,12117.64429,E,0.009,,131217,,,D*60
$GNRMC,211500.00,A,3114.50712,N,12117.64429,E,0.004,,131217,,,D*60
$GNRMC,211501.00,A,3114.50711,N,12117.64430,E,0.013,,131217,,,D*6C
$GNRMC,211502.00,A,3114.50709,N,12117.64431,E,0.020,,131217,,,D*67
$GNRMC,211503.00,A,3114.50707,N,12117.64430,E,0.008,,131217,,,D*63
$GNRMC,211504.00,A,3114.50704,N,12117.64430,E,0.004,,131217,,,D*6B
$GNRMC,211505.00,A,3114.50702,N,12117.64430,E,0.011,,131217,,,D*68
$GNRMC,211506.00,A,3114.50701,N,12117.64429,E,0.009,,131217,,,D*69
$GNRMC,211507.00,A,3114.50701,N,12117.64429,E,0.012,,131217,,,D*62
$GNRMC,211508.00,A,3114.50700,N,12117.64429,E,0.009,,131217,,,D*66
$GNRMC,211509.00,A,3114.50699,N,12117.64429,E,0.010,,131217,,,D*6E
$GNRMC,211510.00,A,3114.50697,N,12117.64430,E,0.002,,131217,,,D*63
$GNRMC,211511.00,A,3114.50696,N,12117.64430,E,0.003,,131217,,,D*62
$GNRMC,211512.00,A,3114.50694,N,12117.64431,E,0.024,,131217,,,D*67
$GNRMC,211513.00,A,3114.50691,N,12117.64434,E,0.025,,131217,,,D*67
$GNRMC,211514.00,A,3114.50684,N,12117.64435,E,0.034,,131217,,,D*65
$GNRMC,211515.00,A,3114.50681,N,12117.64436,E,0.003,,131217,,,D*66
$GNRMC,211516.00,A,3114.50678,N,12117.64437,E,0.020,,131217,,,D*63
$GNRMC,211517.00,A,3114.50674,N,12117.64438,E,0.010,,131217,,,D*62
$GNRMC,211518.00,A,3114.50670,N,12117.64439,E,0.044,,131217,,,A*6C
$GNRMC,211519.00,A,3114.50667,N,12117.64440,E,0.018,,131217,,,A*6C
$GNRMC,211520.00,A,3114.50663,N,12117.64442,E,0.009,,131217,,,A*60
$GNRMC,211521.00,A,3114.50659,N,12117.64445,E,0.020,,131217,,,A*64
$GNRMC,211522.00,A,3114.50655,N,12117.64448,E,0.024,,131217,,,A*62
$GNRMC,211523.00,A,3114.50650,N,12117.64451,E,0.022,,131217,,,A*68
$GNRMC,211524.00,A,3114.50646,N,12117.64453,E,0.020,,131217,,,A*68
$GNRMC,211525.00,A,3114.50642,N,12117.64455,E,0.011,,131217,,,A*69
$GNRMC,211526.00,A,3114.50638,N,12117.64456,E,0.011,,131217,,,A*64
$GNRMC,211527.00,A,3114.50636,N,12117.64458,E,0.003,,131217,,,A*66
$GNRMC,211528.00,A,3114.50634,N,12117.64460,E,0.017,,131217,,,A*65
$GNRMC,211529.00,A,3114.50632,N,12117.64461,E,0.017,,131217,,,A*63
$GNRMC,211530.00,A,3114.50630,N,12117.64462,E,0.010,,131217,,,A*6D
$GNRMC,211531.00,A,3114.50629,N,12117.64462,E,0.013,,131217,,,A*67
$GNRMC,211532.00,A,3114.50627,N,12117.64462,E,0.024,,131217,,,A*6E
$GNRMC,211533.00,A,3114.50626,N,12117.64463,E,0.017,,131217,,,A*6F
$GNRMC,211534.00,A,3114.50625,N,12117.64464,E,0.015,,131217,,,A*6E
$GNRMC,211535.00,A,3114.50624,N,12117.64465,E,0.014,,131217,,,A*6E
$GNRMC,211536.00,A,3114.50621,N,12117.64466,E,0.017,,131217,,,A*68
$GNRMC,211537.00,A,3114.50619,N,12117.64468,E,0.019,,131217,,,A*62
$GNRMC,211538.00,A,3114.50616,N,12117.64470,E,0.019,,131217,,,A*6B
$GNRMC,211539.00,A,3114.50613,N,12117.64471,E,0.014,,131217,,,A*63
$GNRMC,211540.00,A,3114.50610,N,12117.64473,E,0.012,,131217,,,A*6A
$GNRMC,211541.00,A,3114.50607,N,12117.64476,E,0.018,,131217,,,A*62
$GNRMC,211542.00,A,3114.50605,N,12117.64477,E,0.023,,131217,,,A*6A
$GNRMC,211543.00,A,3114.50602,N,12117.64478,E,0.021,,131217,,,A*61
$GNRMC,211544.00,A,3114.50600,N,12117.64480,E,0.022,,131217,,,A*60
$GNRMC,211545.00,A,3114.50598,N,12117.64482,E,0.014,,131217,,,A*64
$GNRMC,211546.00,A,3114.50597,N,12117.64483,E,0.011,,131217,,,A*6C
$GNRMC,211547.00,A,3114.50596,N,12117.64485,E,0.009,,131217,,,A*63
$GNRMC,211548.00,A,3114.50595,N,12117.64486,E,0.015,,131217,,,A*61
$GNRMC,211549.00,A,3114.50595,N,12117.64485,E,0.010,,131217,,,A*66
$GNRMC,211550.00,A,3114.50593,N,12117.64485,E,0.022,,131217,,,A*69
$GNRMC,211551.00,A,3114.50593,N,12117.64486,E,0.015,,131217,,,A*6F
$GNRMC,211552.00,A,3114.50591,N,12117.64486,E,0.029,,131217,,,A*61
$GNRMC,211553.00,A,3114.50589,N,12117.64487,E,0.028,,131217,,,A*69
$GNRMC,211554.00,A,3114.50586,N,12117.64487,E,0.023,,131217,,,A*6A
$GNRMC,211555.00,A,3114.50584,N,12117.64487,E,0.017,,131217,,,A*6E
$GNRMC,211556.00,A,3114.50581,N,12117.64487,E,0.021,,131217,,,A*6D
$GNRMC,211557.00,A,3114.50578,N,12117.64487,E,0.008,,131217,,,A*61
$GNRMC,211558.00,A,3114.50575,N,12117.64488,E,0.017,,131217,,,A*62
$GNRMC,211559.00,A,3114.50573,N,12117.64488,E,0.016,,131217,,,A*64
$GNRMC,211600.00,A,3114.50571,N,12117.64488,E,0.022,,131217,,,A*6E
$GNRMC,211601.00,A,3114.50568,N,12117.64488,E,0.009,,131217,,,A*6E
$GNRMC,211602.00,A,3114.50566,N,12117.64488,E,0.023,,131217,,,A*6B
$GNRMC,211603.00,A,3114.50565,N,12117.64488,E,0.019,,131217,,,A*60
$GNRMC,211604.00,A,3114.50563,N,12117.64487,E,0.020,,131217,,,A*64
$GNRMC,211605.00,A,3114.50561,N,12117.64488,E,0.021,,131217,,,A*69
$GNRMC,211606.00,A,3114.50559,N,12117.64487,E,0.027,,131217,,,A*68
$GNRMC,211607.00,A,3114.50558,N,12117.64487,E,0.016,,131217,,,A*6A
$GNRMC,211608.00,A,3114.50558,N,12117.64486,E,0.021,,131217,,,A*60
$GNRMC,211609.00,A,3114.50558,N,12117.64484,E,0.014,,131217,,,A*65
$GNRMC,211610.00,A,3114.50559,N,12117.64480,E,0.013,,131217,,,A*6F
$GNRMC,211611.00,A,3114.50561,N,12117.64476,E,0.009,,131217,,,A*67
$GNRMC,211612.00,A,3114.50565,N,12117.64472,E,0.019,,131217,,,A*65
$GNRMC,211613.00,A,3114.50568,N,12117.64468,E,0.015,,131217,,,A*6E
$GNRMC,211614.00,A,3114.50571,N,12117.64465,E,0.023,,131217,,,A*69
$GNRMC,211615.00,A,3114.50574,N,12117.64462,E,0.024,,131217,,,A*6D
$GNRMC,211616.00,A,3114.50577,N,12117.64458,E,0.018,,131217,,,A*6B
$GNRMC,211617.00,A,3114.50582,N,12117.64454,E,0.016,,131217,,,A*62
$GNRMC,211618.00,A,3114.50585,N,12117.64452,E,0.014,,131217,,,A*6E
$GNRMC,211619.00,A,3114.50588,N,12117.64450,E,0.008,,131217,,,A*6D
$GNRMC,211620.00,A,3114.50591,N,12117.64447,E,0.012,,131217,,,A*62
$GNRMC,211621.00,A,3114.50594,N,12117.64444,E,0.012,,131217,,,A*65
$GNRMC,211622.00,A,3114.50596,N,12117.64443,E,0.022,,131217,,,A*60
$GNRMC,211623.00,A,3114.50598,N,12117.64442,E,0.022,,131217,,,A*6E
$GNRMC,211624.00,A,3114.50599,N,12117.64442,E,0.019,,131217,,,A*60
$GNRMC,211625.00,A,3114.50601,N,12117.64442,E,0.019,,131217,,,A*63
$GNRMC,211626.00,A,3114.50602,N,12117.64442,E,0.011,,131217,,,A*6B
$GNRMC,211627.00,A,3114.50604,N,12117.64444,E,0.009,,131217,,,A*63
$GNRMC,211628.00,A,3114.50606,N,12117.64445,E,0.018,,131217,,,A*6F
$GNRMC,211629.00,A,3114.50608,N,12117.64447,E,0.011,,131217,,,A*6B
$GNRMC,211630.00,A,3114.50609,N,12117.64449,E,0.011,,131217,,,A*6C
$GNRMC,211631.00,A,3114.50611,N,12117.64450,E,0.023,,131217,,,A*6D
$GNRMC,211632.00,A,3114.50613,N,12117.64452,E,0.024,,131217,,,A*69
$GNRMC,211633.00,A,3114.50613,N,12117.64455,E,0.025,,131217,,,A*6E
$GNRMC,211634.00,A,3114.50615,N,12117.64457,E,0.014,,131217,,,A*6F
$GNRMC,211635.00,A,3114.50615,N,12117.64459,E,0.016,,131217,,,A*62
$GNRMC,211636.00,A,3114.50616,N,12117.64462,E,0.014,,131217,,,A*68
$GNRMC,211637.00,A,3114.50617,N,12117.64464,E,0.016,,131217,,,A*6C
$GNRMC,211638.00,A,3114.50618,N,12117.64467,E,0.015,,131217,,,A*6C
$GNRMC,211639.00,A,3114.50620,N,12117.64469,E,0.004,,131217,,,A*68
$GNRMC,211640.00,A,3114.50623,N,12117.64470,E,0.003,,131217,,,A*6A
$GNRMC,211641.00,A,3114.50625,N,12117.64470,E,0.009,,131217,,,A*67
$GNRMC,211642.00,A,3114.50626,N,12117.64471,E,0.025,,131217,,,A*68
$GNRMC,211643.00,A,3114.50628,N,12117.64472,E,0.019,,131217,,,A*6B
$GNRMC,211644.00,A,3114.50629,N,12117.64474,E,0.018,,131217,,,A*6A
$GNRMC,211645.00,A,3114.50631,N,12117.64475,E,0.016,,131217,,,A*6D
$GNRMC,211646.00,A,3114.50632,N,12117.64477,E,0.015,,131217,,,A*6C
$GNRMC,211647.00,A,3114.50632,N,12117.64480,E,0.009,,131217,,,A*68
$GNRMC,211648.00,A,3114.50632,N,12117.64481,E,0.013,,131217,,,A*6D
$GNRMC,211649.00,A,3114.50631,N,12117.64483,E,0.018,,131217,,,A*66
$GNRMC,211650.00,A,3114.50630,N,12117.64484,E,0.039,,131217,,,D*6E
$GNRMC,211651.00,A,3114.50629,N,12117.64485,E,0.018,,131217,,,D*65
$GNRMC,211652.00,A,3114.50629,N,12117.64485,E,0.027,,131217,,,D*6A
$GNRMC,211653.00,A,3114.50628,N,12117.64486,E,0.014,,131217,,,D*69
$GNRMC,211654.00,A,3114.50628,N,12117.64486,E,0.011,,131217,,,D*6B
$GNRMC,211655.00,A,3114.50627,N,12117.64488,E,0.014,,131217,,,D*6E
$GNRMC,211656.00,A,3114.50626,N,12117.64490,E,0.027,,131217,,,D*65
$GNRMC,211657.00,A,3114.50625,N,12117.64491,E,0.022,,131217,,,D*63
$GNRMC,211658.00,A,3114.50623,N,12117.64491,E,0.019,,131217,,,D*62
$GNRMC,211659.00,A,3114.50621,N,12117.64490,E,0.023,,131217,,,D*69
$GNRMC,211700.00,A,3114.50620,N,12117.64488,E,0.027,,131217,,,D*68
$GNRMC,211701.00,A,3114.50619,N,12117.64488,E,0.017,,131217,,,D*60
$GNRMC,211702.00,A,3114.50619,N,12117.64487,E,0.021,,131217,,,D*69
$GNRMC,211703.00,A,3114.50618,N,12117.64486,E,0.025,,131217,,,D*6C
$GNRMC,211704.00,A,3114.50619,N,12117.64483,E,0.018,,131217,,,D*61
$GNRMC,211705.00,A,3114.50620,N,12117.64481,E,0.022,,131217,,,D*61
$GNRMC,211706.00,A,3114.50621,N,12117.64478,E,0.024,,131217,,,D*63
$GNRMC,211707.00,A,3114.50622,N,12117.64476,E,0.028,,131217,,,D*63
$GNRMC,211708.00,A,3114.50623,N,12117.64475,E,0.024,,131217,,,D*62
$GNRMC,211709.00,A,3114.50622,N,12117.64474,E,0.028,,131217,,,D*6F
$GNRMC,211710.00,A,3114.50622,N,12117.64474,E,0.021,,131217,,,D*6E
$GNRMC,211711.00,A,3114.50621,N,12117.64473,E,0.020,,131217,,,D*6A
$GNRMC,211712.00,A,3114.50622,N,12117.64473,E,0.018,,131217,,,D*61
$GNRMC,211713.00,A,3114.50623,N,12117.64475,E,0.012,,131217,,,D*6D
$GNRMC,211714.00,A,3114.50624,N,12117.64477,E,0.021,,131217,,,D*6F
$GNRMC,211715.00,A,3114.50627,N,12117.64478,E,0.026,,131217,,,D*65
$GNRMC,211716.00,A,3114.50629,N,12117.64478,E,0.032,,131217,,,D*6D
$GNRMC,211717.00,A,3114.50631,N,12117.64478,E,0.017,,131217,,,D*62
$GNRMC,211718.00,A,3114.50631,N,12117.64477,E,0.020,,131217,,,D*66
$GNRMC,211719.00,A,3114.50630,N,12117.64478,E,0.023,,131217,,,D*6A
$GNRMC,211720.00,A,3114.50629,N,12117.64479,E,0.020,,131217,,,D*6A
$GNRMC,211721.00,A,3114.50629,N,12117.64479,E,0.020,,131217,,,D*6B
$GNRMC,211722.00,A,3114.50628,N,12117.64481,E,0.026,,131217,,,D*68
$GNRMC,211723.00,A,3114.50627,N,12117.64483,E,0.024,,131217,,,D*66
$GNRMC,211724.00,A,3114.50627,N,12117.64485,E,0.023,,131217,,,D*60
$GNRMC,211725.00,A,3114.50627,N,12117.64486,E,0.014,,131217,,,D*66
$GNRMC,211726.00,A,3114.50628,N,12117.64487,E,0.024,,131217,,,D*68
$GNRMC,211727.00,A,3114.50629,N,12117.64487,E,0.022,,131217,,,D*6E
$GNRMC,211728.00,A,3114.50632,N,12117.64488,E,0.025,,131217,,,D*63
$GNRMC,211729.00,A,3114.50634,N,12117.64490,E,0.017,,131217,,,D*6C
$GNRMC,211730.00,A,3114.50636,N,12117.64490,E,0.015,,131217,,,D*64
$GNRMC,211731.00,A,3114.50638,N,12117.64488,E,0.020,,131217,,,D*64
$GNRMC,211732.00,A,3114.50640,N,12117.64486,E,0.025,,131217,,,D*63
$GNRMC,211733.00,A,3114.50642,N,12117.64483,E,0.023,,131217,,,D*63
$GNRMC,211734.00,A,3114.50644,N,12117.64481,E,0.012,,131217,,,D*62
$GNRMC,211735.00,A,3114.50646,N,12117.64478,E,0.014,,131217,,,D*61
$GNRMC,211736.00,A,3114.50649,N,12117.64475,E,0.013,,131217,,,D*67
$GNRMC,211737.00,A,3114.50652,N,12117.64472,E,0.020,,131217,,,D*6B
$GNRMC,211738.00,A,3114.50654,N,12117.64469,E,0.015,,131217,,,D*6E
$GNRMC,211739.00,A,3114.50654,N,12117.64466,E,0.021,,131217,,,D*67
$GNRMC,211740.00,A,3114.50653,N,12117.64465,E,0.019,,131217,,,D*66
$GNRMC,211741.00,A,3114.50653,N,12117.64465,E,0.019,,131217,,,D*67
$GNRMC,211742.00,A,3114.50654,N,12117.64464,E,0.021,,131217,,,D*69
$GNRMC,211743.00,A,3114.50658,N,12117.64462,E,0.021,,131217,,,D*62
$GNRMC,211744.00,A,3114.50662,N,12117.64459,E,0.021,,131217,,,D*64
$GNRMC,211745.00,A,3114.50666,N,12117.64456,E,0.019,,131217,,,D*65
$GNRMC,211746.00,A,3114.50670,N,12117.64454,E,0.016,,131217,,,D*6C
$GNRMC,211747.00,A,3114.50675,N,12117.64451,E,0.023,,131217,,,D*6B
$GNRMC,211748.00,A,3114.50679,N,12117.64449,E,0.019,,131217,,,D*68
$GNRMC,211749.00,A,3114.50683,N,12117.64448,E,0.010,,131217,,,D*64
$GNRMC,211750.00,A,3114.50687,N,12117.64447,E,0.017,,131217,,,D*60
$GNRMC,211751.00,A,3114.50691,N,12117.64446,E,0.018,,131217,,,D*68
$GNRMC,211752.00,A,3114.50695,N,12117.64444,E,0.024,,131217,,,D*62
$GNRMC,211753.00,A,3114.50698,N,12117.64442,E,0.022,,131217,,,D*6E
$GNRMC,211754.00,A,3114.50702,N,12117.64439,E,0.023,,131217,,,D*66
$GNRMC,211755.00,A,3114.50705,N,12117.64439,E,0.019,,131217,,,D*69
$GNRMC,211756.00,A,3114.50708,N,12117.64438,E,0.020,,131217,,,D*6C
$GNRMC,211757.00,A,3114.50711,N,12117.64438,E,0.016,,131217,,,D*60
$GNRMC,211758.00,A,3114.50713,N,12117.64436,E,0.025,,131217,,,D*63
$GNRMC,211759.00,A,3114.50716,N,12117.64434,E,0.024,,131217,,,D*64
$GNRMC,211800.00,A,3114.50718,N,12117.64430,E,0.022,,131217,,,D*6B
$GNRMC,211801.00,A,3114.50722,N,12117.64427,E,0.017,,131217,,,D*63
$GNRMC,211802.00,A,3114.50724,N,12117.64425,E,0.023,,131217,,,D*63
$GNRMC,211803.00,A,3114.50728,N,12117.64423,E,0.017,,131217,,,D*6F
$GNRMC,211804.00,A,3114.50731,N,12117.64423,E,0.017,,131217,,,D*60
$GNRMC,211805.00,A,3114.50733,N,12117.64424,E,0.022,,131217,,,D*62
$GNRMC,211806.00,A,3114.50736,N,12117.64424,E,0.017,,131217,,,D*62
$GNRMC,211807.00,A,3114.50738,N,12117.64425,E,0.019,,131217,,,D*62
$GNRMC,211808.00,A,3114.50740,N,12117.64425,E,0.023,,131217,,,D*6B
$GNRMC,211809.00,A,3114.50743,N,12117.64426,E,0.018,,131217,,,D*62
$GNRMC,211810.00,A,3114.50745,N,12117.64428,E,0.010,,131217,,,D*6A
$GNRMC,211811.00,A,3114.50748,N,12117.64429,E,0.020,,131217,,,D*64
$GNRMC,211812.00,A,3114.50750,N,12117.64431,E,0.017,,131217,,,D*63
$GNRMC,211813.00,A,3114.50753,N,12117.64434,E,0.021,,131217,,,D*61
$GNRMC,211814.00,A,3114.50756,N,12117.64437,E,0.018,,131217,,,D*6A
$GNRMC,211815.00,A,3114.50759,N,12117.64439,E,0.020,,131217,,,D*61
$GNRMC,211816.00,A,3114.50761,N,12117.64441,E,0.024,,131217,,,D*62
$GNRMC,211817.00,A,3114.50764,N,12117.64444,E,0.024,,131217,,,D*63
$GNRMC,211818.00,A,3114.50766,N,12117.64447,E,0.017,,131217,,,D*6D
$GNRMC,211819.00,A,3114.50768,N,12117.64450,E,0.013,,131217,,,D*60
$GNRMC,211820.00,A,3114.50769,N,12117.64453,E,0.020,,131217,,,D*68
$GNRMC,211821.00,A,3114.50769,N,12117.64455,E,0.022,,131217,,,D*6D
$GNRMC,211822.00,A,3114.50770,N,12117.64456,E,0.021,,131217,,,D*66
$GNRMC,211823.00,A,3114.50770,N,12117.64456,E,0.026,,131217,,,D*60
$GNRMC,211824.00,A,3114.50770,N,12117.64455,E,0.016,,131217,,,D*67
$GNRMC,211825.00,A,3114.50770,N,12117.64454,E,0.023,,131217,,,D*61
$GNRMC,211826.00,A,3114.50770,N,12117.64453,E,0.014,,131217,,,D*61
$GNRMC,211827.00,A,3114.50769,N,12117.64453,E,0.018,,131217,,,D*64
$GNRMC,211828.00,A,3114.50768,N,12117.64454,E,0.031,,131217,,,D*66
$GNRMC,211829.00,A,3114.50767,N,12117.64455,E,0.023,,131217,,,D*6A
$GNRMC,211830.00,A,3114.50766,N,12117.64456,E,0.028,,131217,,,D*6B
$GNRMC,211831.00,A,3114.50765,N,12117.64458,E,0.024,,131217,,,D*6B
$GNRMC,211832.00,A,3114.50763,N,12117.64460,E,0.026,,131217,,,D*67
$GNRMC,211833.00,A,3114.50762,N,12117.64462,E,0.027,,131217,,,D*64
$GNRMC,211834.00,A,3114.50761,N,12117.64463,E,0.021,,131217,,,D*67
$GNRMC,211835.00,A,3114.50761,N,12117.64464,E,0.014,,131217,,,D*67
$GNRMC,211836.00,A,3114.50760,N,12117.64464,E,0.017,,131217,,,D*66
$GNRMC,211837.00,A,3114.50760,N,12117.64463,E,0.014,,131217,,,D*63
$GNRMC,211838.00,A,3114.50760,N,12117.64462,E,0.017,,131217,,,D*6E
$GNRMC,211839.00,A,3114.50760,N,12117.64461,E,0.015,,131217,,,D*6E
$GNRMC,211840.00,A,3114.50760,N,12117.64461,E,0.018,,131217,,,D*6D
$GNRMC,211841.00,A,3114.50760,N,12117.64460,E,0.027,,131217,,,D*61
$GNRMC,211842.00,A,3114.50759,N,12117.64459,E,0.024,,131217,,,D*61
$GNRMC,211843.00,A,3114.50758,N,12117.64459,E,0.020,,131217,,,D*65
$GNRMC,211844.00,A,3114.50757,N,12117.64458,E,0.020,,131217,,,D*6C
$GNRMC,211845.00,A,3114.50757,N,12117.64457,E,0.016,,131217,,,D*67
$GNRMC,211846.00,A,3114.50757,N,12117.64455,E,0.025,,131217,,,D*66
$GNRMC,211847.00,A,3114.50757,N,12117.64454,E,0.020,,131217,,,D*63
$GNRMC,211848.00,A,3114.50757,N,12117.64452,E,0.021,,131217,,,D*6B
$GNRMC,211849.00,A,3114.50758,N,12117.64452,E,0.021,,131217,,,D*65
$GNRMC,211850.00,A,3114.50758,N,12117.64450,E,0.022,,131217,,,D*6C
$GNRMC,211851.00,A,3114.50759,N,12117.64448,E,0.015,,131217,,,D*61
$GNRMC,211852.00,A,3114.50760,N,12117.64444,E,0.019,,131217,,,D*68
$GNRMC,211853.00,A,3114.50761,N,12117.64441,E,0.018,,131217,,,D*6C
$GNRMC,211854.00,A,3114.50762,N,12117.64438,E,0.021,,131217,,,D*6C
$GNRMC,211855.00,A,3114.50761,N,12117.64437,E,0.018,,131217,,,D*6B
$GNRMC,211856.00,A,3114.50762,N,12117.64437,E,0.012,,131217,,,D*61
$GNRMC,211857.00,A,3114.50761,N,12117.64438,E,0.012,,131217,,,D*6C
$GNRMC,211858.00,A,3114.50761,N,12117.64441,E,0.014,,131217,,,D*6B
$GNRMC,211859.00,A,3114.50761,N,12117.64444,E,0.013,,131217,,,D*68
$GNRMC,211900.00,A,3114.50760,N,12117.64447,E,0.022,,131217,,,D*65
$GNRMC,211901.00,A,3114.50760,N,12117.64451,E,0.025,,131217,,,D*64
$GNRMC,211902.00,A,3114.50760,N,12117.64455,E,0.024,,131217,,,D*62
$GNRMC,211903.00,A,3114.50759,N,12117.64458,E,0.026,,131217,,,D*66
$GNRMC,211904.00,A,3114.50759,N,12117.64460,E,0.022,,131217,,,D*6E
$GNRMC,211905.00,A,3114.50760,N,12117.64462,E,0.011,,131217,,,D*67
$GNRMC,211906.00,A,3114.50760,N,12117.64464,E,0.016,,131217,,,D*65
$GNRMC,211907.00,A,3114.50761,N,12117.64465,E,0.016,,131217,,,D*64
$GNRMC,211908.00,A,3114.50762,N,12117.64466,E,0.016,,131217,,,D*6B
$GNRMC,211909.00,A,3114.50764,N,12117.64466,E,0.025,,131217,,,D*6C
$GNRMC,211910.00,A,3114.50766,N,12117.64466,E,0.015,,131217,,,D*65
$GNRMC,211911.00,A,3114.50767,N,12117.64466,E,0.012,,131217,,,D*62
$GNRMC,211912.00,A,3114.50769,N,12117.64466,E,0.017,,131217,,,D*6A
$GNRMC,211913.00,A,3114.50770,N,12117.64465,E,0.018,,131217,,,D*6F
$GNRMC,211914.00,A,3114.50772,N,12117.64465,E,0.018,,131217,,,D*6A
$GNRMC,211915.00,A,3114.50773,N,12117.64465,E,0.022,,131217,,,D*63
$GNRMC,211916.00,A,3114.50775,N,12117.64464,E,0.020,,131217,,,D*65
$GNRMC,211917.00,A,3114.50776,N,12117.64463,E,0.015,,131217,,,D*66
$GNRMC,211918.00,A,3114.50777,N,12117.64462,E,0.019,,131217,,,D*65
$GNRMC,211919.00,A,3114.50779,N,12117.64459,E,0.017,,131217,,,D*6C
$GNRMC,211920.00,A,3114.50781,N,12117.64458,E,0.011,,131217,,,D*66
$GNRMC,211921.00,A,3114.50783,N,12117.64459,E,0.017,,131217,,,D*62
$GNRMC,211922.00,A,3114.50784,N,12117.64459,E,0.020,,131217,,,D*62
$GNRMC,211923.00,A,3114.50785,N,12117.64459,E,0.021,,131217,,,D*63
$GNRMC,211924.00,A,3114.50786,N,12117.64458,E,0.013,,131217,,,D*67
$GNRMC,211925.00,A,3114.50787,N,12117.64458,E,0.019,,131217,,,D*6D
$GNRMC,211926.00,A,3114.50788,N,12117.64458,E,0.022,,131217,,,D*69
$GNRMC,211927.00,A,3114.50788,N,12117.64458,E,0.012,,131217,,,D*6B
$GNRMC,211928.00,A,3114.50788,N,12117.64457,E,0.017,,131217,,,D*6E
$GNRMC,211929.00,A,3114.50788,N,12117.64456,E,0.019,,131217,,,D*60
$GNRMC,211930.00,A,3114.50786,N,12117.64456,E,0.022,,131217,,,D*6E
$GNRMC,211931.00,A,3114.50785,N,12117.64457,E,0.018,,131217,,,D*64
$GNRMC,211932.00,A,3114.50784,N,12117.64458,E,0.022,,131217,,,D*60
$GNRMC,211933.00,A,3114.50782,N,12117.64459,E,0.022,,131217,,,D*66
$GNRMC,211934.00,A,3114.50779,N,12117.64461,E,0.016,,131217,,,D*69
$GNRMC,211935.00,A,3114.50776,N,12117.64463,E,0.016,,131217,,,D*65
$GNRMC,211936.00,A,3114.50775,N,12117.64463,E,0.020,,131217,,,D*60
$GNRMC,211937.00,A,3114.50774,N,12117.64464,E,0.007,,131217,,,D*62
$GNRMC,211938.00,A,3114.50773,N,12117.64465,E,0.013,,131217,,,D*6E
$GNRMC,211939.00,A,3114.50772,N,12117.64465,E,0.014,,131217,,,D*69
$GNRMC,211940.00,A,3114.50769,N,12117.64466,E,0.021,,131217,,,D*68
$GNRMC,211941.00,A,3114.50766,N,12117.64466,E,0.023,,131217,,,D*64
$GNRMC,211942.00,A,3114.50765,N,12117.64465,E,0.018,,131217,,,D*6F
$GNRMC,211943.00,A,3114.50762,N,12117.64466,E,0.024,,131217,,,D*65
$GNRMC,211944.00,A,3114.50758,N,12117.64467,E,0.011,,131217,,,D*6C
$GNRMC,211945.00,A,3114.50755,N,12117.64467,E,0.017,,131217,,,D*66
$GNRMC,211946.00,A,3114.50752,N,12117.64467,E,0.006,,131217,,,D*62
$GNRMC,211947.00,A,3114.50750,N,12117.64469,E,0.021,,131217,,,D*6A
$GNRMC,211948.00,A,3114.50747,N,12117.64471,E,0.020,,131217,,,D*6B
$GNRMC,211949.00,A,3114.50746,N,12117.64472,E,0.018,,131217,,,D*63
$GNRMC,211950.00,A,3114.50743,N,12117.64475,E,0.019,,131217,,,D*68
$GNRMC,211951.00,A,3114.50740,N,12117.64477,E,0.031,,131217,,,D*62
$GNRMC,211952.00,A,3114.50738,N,12117.64480,E,0.023,,131217,,,D*65
$GNRMC,211953.00,A,3114.50736,N,12117.64480,E,0.022,,131217,,,D*6B
$GNRMC,211954.00,A,3114.50735,N,12117.64481,E,0.019,,131217,,,D*66
$GNRMC,211955.00,A,3114.50735,N,12117.64480,E,0.012,,131217,,,D*6D
$GNRMC,211956.00,A,3114.50737,N,12117.64477,E,0.014,,131217,,,D*62
$GNRMC,211957.00,A,3114.50738,N,12117.64474,E,0.015,,131217,,,D*6E
$GNRMC,211958.00,A,3114.50738,N,12117.64470,E,0.015,,131217,,,D*65
$GNRMC,211959.00,A,3114.50736,N,12117.64464,E,0.025,,131217,,,D*6C
$GNRMC,212000.00,A,3114.50733,N,12117.64460,E,0.025,,131217,,,D*6B
$GNRMC,212001.00,A,3114.50729,N,12117.64455,E,0.029,,131217,,,D*6B
$GNRMC,212002.00,A,3114.50723,N,12117.64453,E,0.022,,131217,,,D*6F
$GNRMC,212003.00,A,3114.50718,N,12117.64452,E,0.026,,131217,,,D*63
$GNRMC,212004.00,A,3114.50714,N,12117.64452,E,0.026,,131217,,,D*68
$GNRMC,212005.00,A,3114.50710,N,12117.64452,E,0.016,,131217,,,D*6E
$GNRMC,212006.00,A,3114.50706,N,12117.64452,E,0.018,,131217,,,D*64
$GNRMC,212007.00,A,3114.50702,N,12117.64451,E,0.013,,131217,,,D*69
$GNRMC,212008.00,A,3114.50698,N,12117.64450,E,0.019,,131217,,,D*6F
$GNRMC,212009.00,A,3114.50694,N,12117.64449,E,0.021,,131217,,,D*61
$GNRMC,212010.00,A,3114.50691,N,12117.64448,E,0.018,,131217,,,D*67
$GNRMC,212011.00,A,3114.50689,N,12117.64447,E,0.018,,131217,,,D*60
$GNRMC,212012.00,A,3114.50689,N,12117.64445,E,0.023,,131217,,,D*69
$GNRMC,212013.00,A,3114.50689,N,12117.64445,E,0.022,,131217,,,D*69
$GNRMC,212014.00,A,3114.50690,N,12117.64444,E,0.027,,131217,,,D*62
$GNRMC,212015.00,A,3114.50690,N,12117.64443,E,0.013,,131217,,,D*63
$GNRMC,212016.00,A,3114.50690,N,12117.64442,E,0.021,,131217,,,D*60
$GNRMC,212017.00,A,3114.50691,N,12117.64442,E,0.012,,131217,,,D*60
$GNRMC,212018.00,A,3114.50691,N,12117.64441,E,0.012,,131217,,,D*6C
$GNRMC,212019.00,A,3114.50692,N,12117.64440,E,0.023,,131217,,,D*6D
$GNRMC,212020.00,A,3114.50694,N,12117.64438,E,0.020,,131217,,,D*6D
$GNRMC,212021.00,A,3114.50695,N,12117.64437,E,0.009,,131217,,,D*69
$GNRMC,212022.00,A,3114.50696,N,12117.64435,E,0.026,,131217,,,D*66
$GNRMC,212023.00,A,3114.50696,N,12117.64433,E,0.023,,131217,,,D*64
$GNRMC,212024.00,A,3114.50695,N,12117.64431,E,0.024,,131217,,,D*65
$GNRMC,212025.00,A,3114.50695,N,12117.64429,E,0.022,,131217,,,D*6B
$GNRMC,212026.00,A,3114.50695,N,12117.64428,E,0.023,,131217,,,D*68
$GNRMC,212027.00,A,3114.50696,N,12117.64427,E,0.014,,131217,,,D*61
$GNRMC,212028.00,A,3114.50695,N,12117.64426,E,0.019,,131217,,,D*61
$GNRMC,212029.00,A,3114.50695,N,12117.64425,E,0.012,,131217,,,D*68
$GNRMC,212030.00,A,3114.50696,N,12117.64425,E,0.009,,131217,,,D*69
$GNRMC,212031.00,A,3114.50696,N,12117.64426,E,0.019,,131217,,,D*6A
$GNRMC,212032.00,A,3114.50695,N,12117.64427,E,0.019,,131217,,,D*6B
$GNRMC,212033.00,A,3114.50696,N,12117.64425,E,0.019,,131217,,,D*6B
$GNRMC,212034.00,A,3114.50697,N,12117.64424,E,0.023,,131217,,,D*65
$GNRMC,212035.00,A,3114.50698,N,12117.64423,E,0.015,,131217,,,D*69
$GNRMC,212036.00,A,3114.50700,N,12117.64422,E,0.016,,131217,,,D*68
$GNRMC,212037.00,A,3114.50703,N,12117.64421,E,0.016,,131217,,,D*69
$GNRMC,212038.00,A,3114.50705,N,12117.64420,E,0.006,,131217,,,D*60
$GNRMC,212039.00,A,3114.50707,N,12117.64420,E,0.014,,131217,,,D*60
$GNRMC,212040.00,A,3114.50709,N,12117.64419,E,0.018,,131217,,,D*66
$GNRMC,212041.00,A,3114.50711,N,12117.64418,E,0.018,,131217,,,D*6F
$GNRMC,212042.00,A,3114.50715,N,12117.64417,E,0.013,,131217,,,D*6C
$GNRMC,212043.00,A,3114.50718,N,12117.64415,E,0.008,,131217,,,D*68
$GNRMC,212044.00,A,3114.50722,N,12117.64414,E,0.010,,131217,,,D*6E
$GNRMC,212045.00,A,3114.50724,N,12117.64414,E,0.011,,131217,,,D*68
$GNRMC,212046.00,A,3114.50726,N,12117.64414,E,0.016,,131217,,,D*6E
$GNRMC,212047.00,A,3114.50728,N,12117.64413,E,0.014,,131217,,,D*64
$GNRMC,212048.00,A,3114.50729,N,12117.64414,E,0.013,,131217,,,D*6A
$GNRMC,212049.00,A,3114.50730,N,12117.64415,E,0.024,,131217,,,D*66
$GNRMC,212050.00,A,3114.50730,N,12117.64418,E,0.022,,131217,,,D*65
$GNRMC,212051.00,A,3114.50731,N,12117.64419,E,0.012,,131217,,,D*67
$GNRMC,212052.00,A,3114.50731,N,12117.64419,E,0.012,,131217,,,D*64
$GNRMC,212053.00,A,3114.50733,N,12117.64418,E,0.008,,131217,,,D*6D
$GNRMC,212054.00,A,3114.50736,N,12117.64416,E,0.012,,131217,,,D*6A
$GNRMC,212055.00,A,3114.50738,N,12117.64414,E,0.020,,131217,,,D*66
$GNRMC,212056.00,A,3114.50739,N,12117.64412,E,0.013,,131217,,,D*62
$GNRMC,212057.00,A,3114.50739,N,12117.64411,E,0.017,,131217,,,D*64
$GNRMC,212058.00,A,3114.50740,N,12117.64407,E,0.016,,131217,,,D*63
$GNRMC,212059.00,A,3114.50741,N,12117.64406,E,0.014,,131217,,,D*60
$GNRMC,212100.00,A,3114.50741,N,12117.64405,E,0.018,,131217,,,D*62
$GNRMC,212101.00,A,3114.50742,N,12117.64405,E,0.017,,131217,,,D*6F
$GNRMC,212102.00,A,3114.50742,N,12117.64405,E,0.007,,131217,,,D*6D
$GNRMC,212103.00,A,3114.50742,N,12117.64406,E,0.005,,131217,,,D*6D
$GNRMC,212104.00,A,3114.50741,N,12117.64406,E,0.016,,131217,,,D*6B
$GNRMC,212105.00,A,3114.50741,N,12117.64406,E,0.014,,131217,,,D*68
$GNRMC,212106.00,A,3114.50741,N,12117.64405,E,0.027,,131217,,,D*68
$GNRMC,212107.00,A,3114.50740,N,12117.64406,E,0.024,,131217,,,D*68
$GNRMC,212108.00,A,3114.50739,N,12117.64406,E,0.016,,131217,,,D*68
$GNRMC,212109.00,A,3114.50738,N,12117.64406,E,0.018,,131217,,,D*66
$GNRMC,212110.00,A,3114.50737,N,12117.64405,E,0.012,,131217,,,D*68
$GNRMC,212111.00,A,3114.50735,N,12117.64402,E,0.014,,131217,,,D*6A
$GNRMC,212112.00,A,3114.50734,N,12117.64400,E,0.022,,131217,,,D*6F
$GNRMC,212113.00,A,3114.50732,N,12117.64398,E,0.015,,131217,,,D*6A
$GNRMC,212114.00,A,3114.50731,N,12117.64396,E,0.006,,131217,,,D*62
$GNRMC,212115.00,A,3114.50730,N,12117.64396,E,0.018,,131217,,,D*6D
$GNRMC,212116.00,A,3114.50729,N,12117.64394,E,0.014,,131217,,,D*68
$GNRMC,212117.00,A,3114.50728,N,12117.64394,E,0.025,,131217,,,D*6A
$GNRMC,212118.00,A,3114.50727,N,12117.64392,E,0.016,,131217,,,D*6C
$GNRMC,212119.00,A,3114.50726,N,12117.64391,E,0.011,,131217,,,D*68
$GNRMC,212120.00,A,3114.50724,N,12117.64390,E,0.015,,131217,,,D*65
$GNRMC,212121.00,A,3114.50722,N,12117.64390,E,0.016,,131217,,,D*61
$GNRMC,212122.00,A,3114.50720,N,12117.64391,E,0.018,,131217,,,D*6F
$GNRMC,212123.00,A,3114.50719,N,12117.64393,E,0.017,,131217,,,D*69
$GNRMC,212124.00,A,3114.50717,N,12117.64394,E,0.014,,131217,,,D*64
$GNRMC,212125.00,A,3114.50715,N,12117.64395,E,0.017,,131217,,,D*65
$GNRMC,212126.00,A,3114.50714,N,12117.64395,E,0.021,,131217,,,D*62
$GNRMC,212127.00,A,3114.50712,N,12117.64396,E,0.020,,131217,,,D*67
$GNRMC,212128.00,A,3114.50710,N,12117.64396,E,0.020,,131217,,,D*6A
$GNRMC,212129.00,A,3114.50708,N,12117.64397,E,0.012,,131217,,,D*62
$GNRMC,212130.00,A,3114.50706,N,12117.64398,E,0.018,,131217,,,D*61
$GNRMC,212131.00,A,3114.50705,N,12117.64396,E,0.018,,131217,,,D*6D
$GNRMC,212132.00,A,3114.50705,N,12117.64395,E,0.019,,131217,,,D*6C
$GNRMC,212133.00,A,3114.50705,N,12117.64394,E,0.021,,131217,,,D*67
$GNRMC,212134.00,A,3114.50703,N,12117.64392,E,0.012,,131217,,,D*60
$GNRMC,212135.00,A,3114.50703,N,12117.64390,E,0.014,,131217,,,D*65
$GNRMC,212136.00,A,3114.50702,N,12117.64389,E,0.015,,131217,,,D*6E
$GNRMC,212137.00,A,3114.50701,N,12117.64389,E,0.021,,131217,,,D*6B
$GNRMC,212138.00,A,3114.50702,N,12117.64390,E,0.017,,131217,,,D*6A
$GNRMC,212139.00,A,3114.50702,N,12117.64391,E,0.009,,131217,,,D*65
$GNRMC,212140.00,A,3114.50702,N,12117.64391,E,0.012,,131217,,,D*61
$GNRMC,212141.00,A,3114.50703,N,12117.64391,E,0.009,,131217,,,D*6B
$GNRMC,212142.00,A,3114.50704,N,12117.64390,E,0.012,,131217,,,D*64
$GNRMC,212143.00,A,3114.50705,N,12117.64388,E,0.012,,131217,,,D*6D
$GNRMC,212144.00,A,3114.50707,N,12117.64385,E,0.012,,131217,,,D*65
$GNRMC,212145.00,A,3114.50709,N,12117.64384,E,0.021,,131217,,,D*6B
$GNRMC,212146.00,A,3114.50710,N,12117.64382,E,0.016,,131217,,,D*62
$GNRMC,212147.00,A,3114.50711,N,12117.64380,E,0.014,,131217,,,D*62
$GNRMC,212148.00,A,3114.50712,N,12117.64380,E,0.018,,131217,,,D*62
$GNRMC,212149.00,A,3114.50714,N,12117.64379,E,0.019,,131217,,,D*62
$GNRMC,212150.00,A,3114.50715,N,12117.64379,E,0.017,,131217,,,D*65
$GNRMC,212151.00,A,3114.50717,N,12117.64380,E,0.014,,131217,,,D*63
$GNRMC,212152.00,A,3114.50718,N,12117.64382,E,0.018,,131217,,,D*61
$GNRMC,212153.00,A,3114.50718,N,12117.64385,E,0.021,,131217,,,D*6D
$GNRMC,212154.00,A,3114.50719,N,12117.64387,E,0.011,,131217,,,D*6A
$GNRMC,212155.00,A,3114.50720,N,12117.64390,E,0.010,,131217,,,D*66
$GNRMC,212156.00,A,3114.50721,N,12117.64391,E,0.009,,131217,,,D*6D
$GNRMC,212157.00,A,3114.50722,N,12117.64393,E,0.013,,131217,,,D*66
$GNRMC,212158.00,A,3114.50723,N,12117.64395,E,0.009,,131217,,,D*65
$GNRMC,212159.00,A,3114.50723,N,12117.64396,E,0.022,,131217,,,D*6E
$GNRMC,212200.00,A,3114.50723,N,12117.64397,E,0.022,,131217,,,D*60
$GNRMC,212201.00,A,3114.50725,N,12117.64396,E,0.049,,131217,,,A*6E
$GNRMC,212202.00,A,3114.50726,N,12117.64395,E,0.012,,131217,,,A*63
$GNRMC,212203.00,A,3114.50727,N,12117.64396,E,0.014,,131217,,,A*66
$GNRMC,212204.00,A,3114.50728,N,12117.64397,E,0.017,,131217,,,A*6C
$GNRMC,212205.00,A,3114.50729,N,12117.64398,E,0.020,,131217,,,A*67
$GNRMC,212206.00,A,3114.50730,N,12117.64399,E,0.016,,131217,,,A*68
$GNRMC,212207.00,A,3114.50731,N,12117.64399,E,0.020,,131217,,,A*6D
$GNRMC,212208.00,A,3114.50732,N,12117.64399,E,0.016,,131217,,,A*64
$GNRMC,212209.00,A,3114.50731,N,12117.64397,E,0.021,,131217,,,A*6C
$GNRMC,212210.00,A,3114.50730,N,12117.64396,E,0.018,,131217,,,A*6E
$GNRMC,212211.00,A,3114.50729,N,12117.64395,E,0.016,,131217,,,A*6A
$GNRMC,212212.00,A,3114.50729,N,12117.64395,E,0.011,,131217,,,A*6E
$GNRMC,212213.00,A,3114.50730,N,12117.64394,E,0.005,,131217,,,A*63
$GNRMC,212214.00,A,3114.50730,N,12117.64393,E,0.012,,131217,,,A*65
$GNRMC,212215.00,A,3114.50730,N,12117.64393,E,0.013,,131217,,,A*65
$GNRMC,212216.00,A,3114.50729,N,12117.64393,E,0.011,,131217,,,A*6C
$GNRMC,212217.00,A,3114.50729,N,12117.64393,E,0.005,,131217,,,A*68
$GNRMC,212218.00,A,3114.50729,N,12117.64394,E,0.009,,131217,,,A*6C
$GNRMC,212219.00,A,3114.50728,N,12117.64395,E,0.010,,131217,,,A*65
$GNRMC,212220.00,A,3114.50727,N,12117.64396,E,0.006,,131217,,,A*64
$GNRMC,212221.00,A,3114.50726,N,12117.64397,E,0.012,,131217,,,A*60
$GNRMC,212222.00,A,3114.50726,N,12117.64397,E,0.008,,131217,,,A*68
$GNRMC,212223.00,A,3114.50725,N,12117.64398,E,0.012,,131217,,,A*6E
$GNRMC,212224.00,A,3114.50724,N,12117.64399,E,0.007,,131217,,,A*6D
$GNRMC,212225.00,A,3114.50722,N,12117.64401,E,0.017,,131217,,,A*6D
$GNRMC,212226.00,A,3114.50721,N,12117.64402,E,0.013,,131217,,,A*6A
$GNRMC,212227.00,A,3114.50720,N,12117.64401,E,0.010,,131217,,,A*6A
$GNRMC,212228.00,A,3114.50719,N,12117.64400,E,0.005,,131217,,,A*6A
$GNRMC,212229.00,A,3114.50719,N,12117.64398,E,0.006,,131217,,,A*6E
$GNRMC,212230.00,A,3114.50719,N,12117.64398,E,0.004,,131217,,,A*64
$GNRMC,212231.00,A,3114.50718,N,12117.64398,E,0.007,,131217,,,A*67
$GNRMC,212232.00,A,3114.50719,N,12117.64398,E,0.013,,131217,,,A*60
$GNRMC,212233.00,A,3114.50719,N,12117.64400,E,0.007,,131217,,,A*62
$GNRMC,212234.00,A,3114.50720,N,12117.64401,E,0.016,,131217,,,A*6E
$GNRMC,212235.00,A,3114.50722,N,12117.64400,E,0.004,,131217,,,A*6F
$GNRMC,212236.00,A,3114.50724,N,12117.64399,E,0.011,,131217,,,A*69
$GNRMC,212237.00,A,3114.50727,N,12117.64398,E,0.009,,131217,,,A*63
$GNRMC,212238.00,A,3114.50730,N,12117.64397,E,0.018,,131217,,,A*65
$GNRMC,212239.00,A,3114.50732,N,12117.64397,E,0.009,,131217,,,A*66
$GNRMC,212240.00,A,3114.50735,N,12117.64397,E,0.004,,131217,,,A*62
$GNRMC,212241.00,A,3114.50737,N,12117.64398,E,0.003,,131217,,,A*69
$GNRMC,212242.00,A,3114.50739,N,12117.64400,E,0.014,,131217,,,A*64
$GNRMC,212243.00,A,3114.50741,N,12117.64402,E,0.009,,131217,,,A*64
$GNRMC,212244.00,A,3114.50742,N,12117.64405,E,0.010,,131217,,,A*6F
$GNRMC,212245.00,A,3114.50744,N,12117.64409,E,0.004,,131217,,,A*61
$GNRMC,212246.00,A,3114.50746,N,12117.64412,E,0.007,,131217,,,A*69
$GNRMC,212247.00,A,3114.50749,N,12117.64415,E,0.004,,131217,,,A*63
$GNRMC,212248.00,A,3114.50750,N,12117.64418,E,0.007,,131217,,,A*6A
$GNRMC,212249.00,A,3114.50752,N,12117.64421,E,0.008,,131217,,,A*6C
$GNRMC,212250.00,A,3114.50753,N,12117.64424,E,0.004,,131217,,,A*6C
$GNRMC,212251.00,A,3114.50754,N,12117.64427,E,0.002,,131217,,,A*6F
$GNRMC,212252.00,A,3114.50756,N,12117.64431,E,0.002,,131217,,,A*69
$GNRMC,212253.00,A,3114.50756,N,12117.64435,E,0.012,,131217,,,A*6D
$GNRMC,212254.00,A,3114.50756,N,12117.64437,E,0.009,,131217,,,A*62
$GNRMC,212255.00,A,3114.50756,N,12117.64439,E,0.002,,131217,,,A*66
$GNRMC,212256.00,A,3114.50756,N,12117.64441,E,0.008,,131217,,,A*60
$GNRMC,212257.00,A,3114.50756,N,12117.64444,E,0.006,,131217,,,A*6A
$GNRMC,212258.00,A,3114.50756,N,12117.64447,E,0.015,,131217,,,A*64
$GNRMC,212259.00,A,3114.50756,N,12117.64450,E,0.021,,131217,,,A*64
$GNRMC,212300.00,A,3114.50755,N,12117.64452,E,0.010,,131217,,,A*6A
$GNRMC,212301.00,A,3114.50754,N,12117.64454,E,0.009,,131217,,,A*64
$GNRMC,212302.00,A,3114.50753,N,12117.64455,E,0.016,,131217,,,A*6F
$GNRMC,212303.00,A,3114.50752,N,12117.64457,E,0.006,,131217,,,A*6C
$GNRMC,212304.00,A,3114.50751,N,12117.64458,E,0.013,,131217,,,A*63
$GNRMC,212305.00,A,3114.50750,N,12117.64458,E,0.008,,131217,,,A*69
$GNRMC,212306.00,A,3114.50749,N,12117.64458,E,0.020,,131217,,,A*68
$GNRMC,212307.00,A,3114.50749,N,12117.64460,E,0.015,,131217,,,A*64
$GNRMC,212308.00,A,3114.50749,N,12117.64461,E,0.008,,131217,,,A*66
$GNRMC,212309.00,A,3114.50749,N,12117.64462,E,0.012,,131217,,,A*6F
$GNRMC,212310.00,A,3114.50748,N,12117.64464,E,0.013,,131217,,,A*61
$GNRMC,212311.00,A,3114.50749,N,12117.64465,E,0.006,,131217,,,A*64
$GNRMC,212312.00,A,3114.50749,N,12117.64465,E,0.011,,131217,,,A*61
$GNRMC,212313.00,A,3114.50750,N,12117.64465,E,0.010,,131217,,,A*69
$GNRMC,212314.00,A,3114.50751,N,12117.64466,E,0.005,,131217,,,A*68
$GNRMC,212315.00,A,3114.50752,N,12117.64466,E,0.005,,131217,,,A*6A
$GNRMC,212316.00,A,3114.50752,N,12117.64466,E,0.010,,131217,,,A*6D
$GNRMC,212317.00,A,3114.50753,N,12117.64467,E,0.003,,131217,,,A*6E
$GNRMC,212318.00,A,3114.50753,N,12117.64467,E,0.010,,131217,,,A*63
$GNRMC,212319.00,A,3114.50751,N,12117.64465,E,0.011,,131217,,,A*63
$GNRMC,212320.00,A,3114.50751,N,12117.64462,E,0.008,,131217,,,A*66
$GNRMC,212321.00,A,3114.50749,N,12117.64460,E,0.007,,131217,,,A*63
$GNRMC,212322.00,A,3114.50748,N,12117.64458,E,0.007,,131217,,,A*6A
$GNRMC,212323.00,A,3114.50747,N,12117.64456,E,0.020,,131217,,,A*6F
$GNRMC,212324.00,A,3114.50746,N,12117.64455,E,0.017,,131217,,,A*6E
$GNRMC,212325.00,A,3114.50746,N,12117.64454,E,0.018,,131217,,,A*61
$GNRMC,212326.00,A,3114.50746,N,12117.64454,E,0.019,,131217,,,A*63
$GNRMC,212327.00,A,3114.50746,N,12117.64454,E,0.010,,131217,,,A*6B
$GNRMC,212328.00,A,3114.50745,N,12117.64453,E,0.008,,131217,,,A*69
$GNRMC,212329.00,A,3114.50745,N,12117.64454,E,0.006,,131217,,,A*61
$GNRMC,212330.00,A,3114.50744,N,12117.64454,E,0.011,,131217,,,A*6E
$GNRMC,212331.00,A,3114.50743,N,12117.64455,E,0.003,,131217,,,A*6A
$GNRMC,212332.00,A,3114.50741,N,12117.64456,E,0.008,,131217,,,A*63
$GNRMC,212333.00,A,3114.50739,N,12117.64458,E,0.014,,131217,,,A*6E
$GNRMC,212334.00,A,3114.50737,N,12117.64459,E,0.026,,131217,,,A*67
$GNRMC,212335.00,A,3114.50736,N,12117.64459,E,0.014,,131217,,,A*66
$GNRMC,212336.00,A,3114.50734,N,12117.64460,E,0.019,,131217,,,A*60
$GNRMC,212337.00,A,3114.50731,N,12117.64461,E,0.009,,131217,,,A*64
$GNRMC,212338.00,A,3114.50729,N,12117.64461,E,0.024,,131217,,,D*68
$GNRMC,212339.00,A,3114.50727,N,12117.64460,E,0.011,,131217,,,D*60
$GNRMC,212340.00,A,3114.50724,N,12117.64460,E,0.008,,131217,,,D*65
$GNRMC,212341.00,A,3114.50722,N,12117.64460,E,0.006,,131217,,,D*6C
$GNRMC,212342.00,A,3114.50719,N,12117.64462,E,0.013,,131217,,,D*61
$GNRMC,212343.00,A,3114.50714,N,12117.64462,E,0.017,,131217,,,D*69
$GNRMC,212344.00,A,3114.50710,N,12117.64464,E,0.013,,131217,,,D*68
$GNRMC,212345.00,A,3114.50706,N,12117.64463,E,0.008,,131217,,,D*63
$GNRMC,212346.00,A,3114.50703,N,12117.64461,E,0.005,,131217,,,D*6A
$GNRMC,212347.00,A,3114.50700,N,12117.64459,E,0.017,,131217,,,D*60
$GNRMC,212348.00,A,3114.50697,N,12117.64457,E,0.010,,131217,,,D*69
$GNRMC,212349.00,A,3114.50693,N,12117.64454,E,0.009,,131217,,,D*67
$GNRMC,212350.00,A,3114.50692,N,12117.64448,E,0.008,,131217,,,D*62
$GNRMC,212351.00,A,3114.50690,N,12117.64444,E,0.003,,131217,,,D*66
$GNRMC,212352.00,A,3114.50686,N,12117.64442,E,0.001,,131217,,,D*66
$GNRMC,212353.00,A,3114.50685,N,12117.64439,E,0.007,,131217,,,D*6E
$GNRMC,212354.00,A,3114.50682,N,12117.64438,E,0.017,,131217,,,D*6E
$GNRMC,212355.00,A,3114.50678,N,12117.64436,E,0.016,,131217,,,D*65
$GNRMC,212356.00,A,3114.50674,N,12117.64435,E,0.021,,131217,,,D*6D
$GNRMC,212357.00,A,3114.50670,N,12117.64435,E,0.017,,131217,,,D*6D
$GNRMC,212358.00,A,3114.50665,N,12117.64435,E,0.016,,131217,,,D*67
$GNRMC,212359.00,A,3114.50660,N,12117.64435,E,0.018,,131217,,,D*6D
$GNRMC,212400.00,A,3114.50656,N,12117.64434,E,0.011,,131217,,,D*6B
$GNRMC,212401.00,A,3114.50653,N,12117.64433,E,0.015,,131217,,,D*6C
$GNRMC,212402.00,A,3114.50650,N,12117.64434,E,0.004,,131217,,,D*6B
$GNRMC,212403.00,A,3114.50648,N,12117.64434,E,0.014,,131217,,,D*62
$GNRMC,212404.00,A,3114.50646,N,12117.64433,E,0.010,,131217,,,D*68
$GNRMC,212405.00,A,3114.50643,N,12117.64433,E,0.013,,131217,,,D*6F
$GNRMC,212406.00,A,3114.50640,N,12117.64433,E,0.017,,131217,,,D*6B
$GNRMC,212407.00,A,3114.50637,N,12117.64432,E,0.016,,131217,,,D*6A
$GNRMC,212408.00,A,3114.50636,N,12117.64432,E,0.003,,131217,,,D*60
$GNRMC,212409.00,A,3114.50633,N,12117.64433,E,0.008,,131217,,,D*6E
$GNRMC,212410.00,A,3114.50630,N,12117.64432,E,0.008,,131217,,,D*64
$GNRMC,212411.00,A,3114.50627,N,12117.64433,E,0.015,,131217,,,D*6E
$GNRMC,212412.00,A,3114.50621,N,12117.64434,E,0.015,,131217,,,D*6C
$GNRMC,212413.00,A,3114.50618,N,12117.64434,E,0.010,,131217,,,D*62
$GNRMC,212414.00,A,3114.50613,N,12117.64433,E,0.010,,131217,,,D*69
$GNRMC,212415.00,A,3114.50605,N,12117.64433,E,0.013,,131217,,,D*6C
$GNRMC,212416.00,A,3114.50597,N,12117.64431,E,0.021,,131217,,,D*64
$GNRMC,212417.00,A,3114.50590,N,12117.64429,E,0.018,,131217,,,D*61
$GNRMC,212418.00,A,3114.50585,N,12117.64427,E,0.010,,131217,,,D*6C
$GNRMC,212419.00,A,3114.50582,N,12117.64424,E,0.017,,131217,,,D*6E
$GNRMC,212420.00,A,3114.50577,N,12117.64421,E,0.011,,131217,,,D*6D
$GNRMC,212421.00,A,3114.50571,N,12117.64420,E,0.018,,131217,,,D*62
$GNRMC,212422.00,A,3114.50568,N,12117.64419,E,0.010,,131217,,,D*6B
$GNRMC,212423.00,A,3114.50566,N,12117.64419,E,0.011,,131217,,,D*65
$GNRMC,212424.00,A,3114.50564,N,12117.64420,E,0.019,,131217,,,D*62
$GNRMC,212425.00,A,3114.50563,N,12117.64421,E,0.005,,131217,,,D*68
$GNRMC,212426.00,A,3114.50562,N,12117.64422,E,0.004,,131217,,,D*68
$GNRMC,212427.00,A,3114.50561,N,12117.64423,E,0.011,,131217,,,D*6F
$GNRMC,212428.00,A,3114.50559,N,12117.64423,E,0.014,,131217,,,D*6E
$GNRMC,212429.00,A,3114.50559,N,12117.64421,E,0.019,,131217,,,D*60
$GNRMC,212430.00,A,3114.50558,N,12117.64420,E,0.013,,131217,,,D*62
$GNRMC,212431.00,A,3114.50558,N,12117.64418,E,0.006,,131217,,,D*6C
$GNRMC,212432.00,A,3114.50559,N,12117.64417,E,0.006,,131217,,,D*61
$GNRMC,212433.00,A,3114.50559,N,12117.64415,E,0.006,,131217,,,D*62
$GNRMC,212434.00,A,3114.50560,N,12117.64414,E,0.009,,131217,,,D*61
$GNRMC,212435.00,A,3114.50560,N,12117.64415,E,0.004,,131217,,,D*6C
$GNRMC,212436.00,A,3114.50560,N,12117.64414,E,0.013,,131217,,,D*68
$GNRMC,212437.00,A,3114.50560,N,12117.64413,E,0.021,,131217,,,D*6F
$GNRMC,212438.00,A,3114.50560,N,12117.64411,E,0.005,,131217,,,D*64
$GNRMC,212439.00,A,3114.50560,N,12117.64409,E,0.012,,131217,,,D*6A
$GNRMC,212440.00,A,3114.50560,N,12117.64408,E,0.017,,131217,,,D*60
$GNRMC,212441.00,A,3114.50559,N,12117.64408,E,0.011,,131217,,,D*6D
$GNRMC,212442.00,A,3114.50559,N,12117.64408,E,0.018,,131217,,,D*67
$GNRMC,212443.00,A,3114.50558,N,12117.64408,E,0.014,,131217,,,D*6B
$GNRMC,212444.00,A,3114.50557,N,12117.64408,E,0.007,,131217,,,D*61
$GNRMC,212445.00,A,3114.50558,N,12117.64408,E,0.002,,131217,,,D*6A
$GNRMC,212446.00,A,3114.50557,N,12117.64408,E,0.009,,131217,,,D*6D
$GNRMC,212447.00,A,3114.50557,N,12117.64409,E,0.010,,131217,,,D*65
$GNRMC,212448.00,A,3114.50557,N,12117.64410,E,0.008,,131217,,,D*6B
$GNRMC,212449.00,A,3114.50557,N,12117.64412,E,0.009,,131217,,,D*69
$GNRMC,212450.00,A,3114.50556,N,12117.64416,E,0.004,,131217,,,D*69
$GNRMC,212451.00,A,3114.50555,N,12117.64421,E,0.003,,131217,,,D*68
$GNRMC,212452.00,A,3114.50554,N,12117.64425,E,0.008,,131217,,,D*65
$GNRMC,212453.00,A,3114.50552,N,12117.64429,E,0.008,,131217,,,D*6E
$GNRMC,212454.00,A,3114.50550,N,12117.64432,E,0.009,,131217,,,D*60
$GNRMC,212455.00,A,3114.50547,N,12117.64435,E,0.015,,131217,,,D*6D
$GNRMC,212456.00,A,3114.50545,N,12117.64437,E,0.010,,131217,,,D*6B
$GNRMC,212457.00,A,3114.50543,N,12117.64439,E,0.009,,131217,,,D*6A
$GNRMC,212458.00,A,3114.50540,N,12117.64441,E,0.009,,131217,,,D*69
$GNRMC,212459.00,A,3114.50537,N,12117.64443,E,0.010,,131217,,,D*62
$GNRMC,212500.00,A,3114.50535,N,12117.64445,E,0.009,,131217,,,D*63
$GNRMC,212501.00,A,3114.50532,N,12117.64448,E,0.006,,131217,,,D*67
$GNRMC,212502.00,A,3114.50529,N,12117.64450,E,0.013,,131217,,,D*63
$GNRMC,212503.00,A,3114.50526,N,12117.64452,E,0.022,,131217,,,D*6D
$GNRMC,212504.00,A,3114.50522,N,12117.64454,E,0.026,,131217,,,D*6C
$GNRMC,212505.00,A,3114.50518,N,12117.64457,E,0.016,,131217,,,D*64
$GNRMC,212506.00,A,3114.50516,N,12117.64460,E,0.018,,131217,,,D*63
$GNRMC,212507.00,A,3114.50514,N,12117.64461,E,0.015,,131217,,,D*6C
$GNRMC,212508.00,A,3114.50513,N,12117.64462,E,0.017,,131217,,,D*65
$GNRMC,212509.00,A,3114.50512,N,12117.64462,E,0.012,,131217,,,D*60
$GNRMC,212510.00,A,3114.50511,N,12117.64462,E,0.007,,131217,,,D*6F
$GNRMC,212511.00,A,3114.50511,N,12117.64460,E,0.012,,131217,,,D*68
$GNRMC,212512.00,A,3114.50510,N,12117.64459,E,0.013,,131217,,,D*61
$GNRMC,212513.00,A,3114.50509,N,12117.64457,E,0.008,,131217,,,D*6C
$GNRMC,212514.00,A,3114.50507,N,12117.64456,E,0.014,,131217,,,D*69
$GNRMC,212515.00,A,3114.50504,N,12117.64456,E,0.017,,131217,,,D*68
$GNRMC,212516.00,A,3114.50503,N,12117.64455,E,0.017,,131217,,,D*6F
$GNRMC,212517.00,A,3114.50501,N,12117.64455,E,0.012,,131217,,,D*69
$GNRMC,212518.00,A,3114.50499,N,12117.64455,E,0.009,,131217,,,D*6C
$GNRMC,212519.00,A,3114.50496,N,12117.64455,E,0.007,,131217,,,D*6C
$GNRMC,212520.00,A,3114.50494,N,12117.64457,E,0.006,,131217,,,D*67
$GNRMC,212521.00,A,3114.50492,N,12117.64458,E,0.001,,131217,,,D*68
$GNRMC,212522.00,A,3114.50492,N,12117.64458,E,0.005,,131217,,,D*6F
$GNRMC,212523.00,A,3114.50490,N,12117.64458,E,0.017,,131217,,,D*6F
$GNRMC,212524.00,A,3114.50488,N,12117.64459,E,0.021,,131217,,,D*65
$GNRMC,212525.00,A,3114.50487,N,12117.64459,E,0.018,,131217,,,D*61
$GNRMC,212526.00,A,3114.50487,N,12117.64459,E,0.012,,131217,,,D*68
$GNRMC,212527.00,A,3114.50485,N,12117.64459,E,0.014,,131217,,,D*6D
$GNRMC,212528.00,A,3114.50483,N,12117.64457,E,0.022,,131217,,,D*6F
$GNRMC,212529.00,A,3114.50482,N,12117.64456,E,0.010,,131217,,,D*6F
$GNRMC,212530.00,A,3114.50483,N,12117.64453,E,0.006,,131217,,,D*64
$GNRMC,212531.00,A,3114.50483,N,12117.64451,E,0.006,,131217,,,D*67
$GNRMC,212532.00,A,3114.50483,N,12117.64447,E,0.017,,131217,,,D*63
$GNRMC,212533.00,A,3114.50483,N,12117.64444,E,0.017,,131217,,,D*61
$GNRMC,212534.00,A,3114.50484,N,12117.64441,E,0.009,,131217,,,D*6B
$GNRMC,212535.00,A,3114.50483,N,12117.64439,E,0.011,,131217,,,D*6B
$GNRMC,212536.00,A,3114.50483,N,12117.64438,E,0.011,,131217,,,D*69
$GNRMC,212537.00,A,3114.50482,N,12117.64436,E,0.014,,131217,,,D*62
$GNRMC,212538.00,A,3114.50481,N,12117.64434,E,0.011,,131217,,,D*69
$GNRMC,212539.00,A,3114.50481,N,12117.64432,E,0.006,,131217,,,D*68
$GNRMC,212540.00,A,3114.50481,N,12117.64430,E,0.011,,131217,,,D*62
$GNRMC,212541.00,A,3114.50482,N,12117.64428,E,0.008,,131217,,,D*61
$GNRMC,212542.00,A,3114.50483,N,12117.64428,E,0.011,,131217,,,D*6B
$GNRMC,212543.00,A,3114.50485,N,12117.64427,E,0.012,,131217,,,D*60
$GNRMC,212544.00,A,3114.50485,N,12117.64425,E,0.007,,131217,,,D*61
$GNRMC,212545.00,A,3114.50484,N,12117.64424,E,0.017,,131217,,,D*61
$GNRMC,212546.00,A,3114.50484,N,12117.64423,E,0.008,,131217,,,D*6B
$GNRMC,212547.00,A,3114.50484,N,12117.64421,E,0.013,,131217,,,D*62
$GNRMC,212548.00,A,3114.50484,N,12117.64418,E,0.015,,131217,,,D*61
$GNRMC,212549.00,A,3114.50484,N,12117.64416,E,0.018,,131217,,,D*63
$GNRMC,212550.00,A,3114.50483,N,12117.64414,E,0.020,,131217,,,D*65
$GNRMC,212551.00,A,3114.50483,N,12117.64412,E,0.016,,131217,,,D*67
$GNRMC,212552.00,A,3114.50484,N,12117.64410,E,0.014,,131217,,,D*63
$GNRMC,212553.00,A,3114.50484,N,12117.64408,E,0.003,,131217,,,D*6D
$GNRMC,212554.00,A,3114.50484,N,12117.64405,E,0.008,,131217,,,D*6C
$GNRMC,212555.00,A,3114.50485,N,12117.64403,E,0.008,,131217,,,D*6A
$GNRMC,212556.00,A,3114.50485,N,12117.64401,E,0.002,,131217,,,D*61
$GNRMC,212557.00,A,3114.50485,N,12117.64399,E,0.002,,131217,,,D*66
$GNRMC,212558.00,A,3114.50485,N,12117.64398,E,0.005,,131217,,,D*6F
$GNRMC,212559.00,A,3114.50486,N,12117.64397,E,0.009,,131217,,,D*6E
$GNRMC,212600.00,A,3114.50486,N,12117.64396,E,0.009,,131217,,,D*60
$GNRMC,212601.00,A,3114.50486,N,12117.64395,E,0.008,,131217,,,D*63
$GNRMC,212602.00,A,3114.50487,N,12117.64395,E,0.007,,131217,,,D*6E
$GNRMC,212603.00,A,3114.50487,N,12117.64395,E,0.010,,131217,,,D*69
$GNRMC,212604.00,A,3114.50487,N,12117.64396,E,0.013,,131217,,,D*6E
$GNRMC,212605.00,A,3114.50487,N,12117.64398,E,0.006,,131217,,,D*65
$GNRMC,212606.00,A,3114.50487,N,12117.64399,E,0.003,,131217,,,D*62
$GNRMC,212607.00,A,3114.50488,N,12117.64399,E,0.004,,131217,,,D*6B
$GNRMC,212608.00,A,3114.50489,N,12117.64401,E,0.003,,131217,,,D*64
$GNRMC,212609.00,A,3114.50489,N,12117.64403,E,0.007,,131217,,,D*63
$GNRMC,212610.00,A,3114.50490,N,12117.64404,E,0.009,,131217,,,D*6A
$GNRMC,212611.00,A,3114.50490,N,12117.64405,E,0.018,,131217,,,D*6A
$GNRMC,212612.00,A,3114.50492,N,12117.64405,E,0.007,,131217,,,D*65
$GNRMC,212613.00,A,3114.50493,N,12117.64406,E,0.010,,131217,,,D*60
$GNRMC,212614.00,A,3114.50495,N,12117.64406,E,0.010,,131217,,,D*61
$GNRMC,212615.00,A,3114.50497,N,12117.64406,E,0.009,,131217,,,D*6A
$GNRMC,212616.00,A,3114.50499,N,12117.64405,E,0.007,,131217,,,D*6A
$GNRMC,212617.00,A,3114.50502,N,12117.64405,E,0.004,,131217,,,D*6B
$GNRMC,212618.00,A,3114.50504,N,12117.64404,E,0.011,,131217,,,D*67
$GNRMC,212619.00,A,3114.50506,N,12117.64403,E,0.002,,131217,,,D*61
$GNRMC,212620.00,A,3114.50508,N,12117.64403,E,0.011,,131217,,,D*67
$GNRMC,212621.00,A,3114.50511,N,12117.64403,E,0.009,,131217,,,D*67
$GNRMC,212622.00,A,3114.50513,N,12117.64402,E,0.007,,131217,,,D*69
$GNRMC,212623.00,A,3114.50515,N,12117.64403,E,0.012,,131217,,,D*6B
$GNRMC,212624.00,A,3114.50517,N,12117.64403,E,0.005,,131217,,,D*68
$GNRMC,212625.00,A,3114.50519,N,12117.64405,E,0.008,,131217,,,D*6C
$GNRMC,212626.00,A,3114.50521,N,12117.64406,E,0.002,,131217,,,D*6D
$GNRMC,212627.00,A,3114.50524,N,12117.64407,E,0.004,,131217,,,D*6E
$GNRMC,212628.00,A,3114.50527,N,12117.64407,E,0.007,,131217,,,D*61
$GNRMC,212629.00,A,3114.50530,N,12117.64407,E,0.013,,131217,,,D*63
$GNRMC,212630.00,A,3114.50533,N,12117.64406,E,0.003,,131217,,,D*68
$GNRMC,212631.00,A,3114.50536,N,12117.64405,E,0.003,,131217,,,D*6F
$GNRMC,212632.00,A,3114.50538,N,12117.64405,E,0.007,,131217,,,D*66
$GNRMC,212633.00,A,3114.50540,N,12117.64403,E,0.010,,131217,,,D*68
$GNRMC,212634.00,A,3114.50541,N,12117.64402,E,0.003,,131217,,,D*6D
$GNRMC,212635.00,A,3114.50543,N,12117.64402,E,0.018,,131217,,,D*64
$GNRMC,212636.00,A,3114.50544,N,12117.64402,E,0.012,,131217,,,D*6A
$GNRMC,212637.00,A,3114.50544,N,12117.64402,E,0.006,,131217,,,D*6E
$GNRMC,212638.00,A,3114.50545,N,12117.64403,E,0.007,,131217,,,D*60
$GNRMC,212639.00,A,3114.50546,N,12117.64404,E,0.005,,131217,,,D*67
$GNRMC,212640.00,A,3114.50547,N,12117.64405,E,0.012,,131217,,,D*6F
$GNRMC,212641.00,A,3114.50548,N,12117.64406,E,0.008,,131217,,,D*69
$GNRMC,212642.00,A,3114.50549,N,12117.64408,E,0.006,,131217,,,D*6B
$GNRMC,212643.00,A,3114.50550,N,12117.64409,E,0.009,,131217,,,D*6C
$GNRMC,212644.00,A,3114.50550,N,12117.64410,E,0.004,,131217,,,D*6E
$GNRMC,212645.00,A,3114.50550,N,12117.64411,E,0.008,,131217,,,D*62
$GNRMC,212646.00,A,3114.50550,N,12117.64412,E,0.015,,131217,,,D*6E
$GNRMC,212647.00,A,3114.50550,N,12117.64413,E,0.010,,131217,,,D*6B
$GNRMC,212648.00,A,3114.50551,N,12117.64413,E,0.002,,131217,,,D*66
$GNRMC,212649.00,A,3114.50552,N,12117.64413,E,0.007,,131217,,,D*61
$GNRMC,212650.00,A,3114.50553,N,12117.64413,E,0.006,,131217,,,D*69
$GNRMC,212651.00,A,3114.50554,N,12117.64413,E,0.010,,131217,,,D*68
$GNRMC,212652.00,A,3114.50554,N,12117.64412,E,0.006,,131217,,,D*6D
$GNRMC,212653.00,A,3114.50554,N,12117.64411,E,0.011,,131217,,,D*69
$GNRMC,212654.00,A,3114.50555,N,12117.64410,E,0.014,,131217,,,D*6B
$GNRMC,212655.00,A,3114.50555,N,12117.64409,E,0.015,,131217,,,D*63
$GNRMC,212656.00,A,3114.50556,N,12117.64408,E,0.008,,131217,,,D*6E
$GNRMC,212657.00,A,3114.50557,N,12117.64407,E,0.011,,131217,,,D*69
$GNRMC,212658.00,A,3114.50558,N,12117.64405,E,0.010,,131217,,,D*6A
$GNRMC,212659.00,A,3114.50559,N,12117.64404,E,0.006,,131217,,,D*6C
$GNRMC,212700.00,A,3114.50560,N,12117.64402,E,0.001,,131217,,,D*6A
$GNRMC,212701.00,A,3114.50561,N,12117.64401,E,0.012,,131217,,,D*6B
$GNRMC,212702.00,A,3114.50562,N,12117.64400,E,0.007,,131217,,,D*6E
$GNRMC,212703.00,A,3114.50563,N,12117.64399,E,0.009,,131217,,,D*67
$GNRMC,212704.00,A,3114.50564,N,12117.64399,E,0.010,,131217,,,D*6F
$GNRMC,212705.00,A,3114.50565,N,12117.64399,E,0.010,,131217,,,D*6F
$GNRMC,212706.00,A,3114.50566,N,12117.64398,E,0.013,,131217,,,D*6D
$GNRMC,212707.00,A,3114.50567,N,12117.64397,E,0.007,,131217,,,D*67
$GNRMC,212708.00,A,3114.50568,N,12117.64395,E,0.013,,131217,,,D*60
$GNRMC,212709.00,A,3114.50569,N,12117.64393,E,0.003,,131217,,,D*67
$GNRMC,212710.00,A,3114.50570,N,12117.64392,E,0.011,,131217,,,D*65
$GNRMC,212711.00,A,3114.50572,N,12117.64391,E,0.002,,131217,,,D*67
$GNRMC,212712.00,A,3114.50574,N,12117.64390,E,0.006,,131217,,,D*67
$GNRMC,212713.00,A,3114.50575,N,12117.64389,E,0.013,,131217,,,D*6B
$GNRMC,212714.00,A,3114.50578,N,12117.64387,E,0.004,,131217,,,D*69
$GNRMC,212715.00,A,3114.50580,N,12117.64385,E,0.007,,131217,,,D*6E
$GNRMC,212716.00,A,3114.50582,N,12117.64383,E,0.012,,131217,,,D*6D
$GNRMC,212717.00,A,3114.50585,N,12117.64382,E,0.006,,131217,,,D*6F
$GNRMC,212718.00,A,3114.50586,N,12117.64380,E,0.006,,131217,,,D*61
$GNRMC,212719.00,A,3114.50587,N,12117.64378,E,0.013,,131217,,,D*62
$GNRMC,212720.00,A,3114.50588,N,12117.64375,E,0.010,,131217,,,D*69
$GNRMC,212721.00,A,3114.50589,N,12117.64374,E,0.009,,131217,,,D*60
$GNRMC,212722.00,A,3114.50590,N,12117.64374,E,0.006,,131217,,,D*64
$GNRMC,212723.00,A,3114.50591,N,12117.64374,E,0.008,,131217,,,D*6A
$GNRMC,212724.00,A,3114.50591,N,12117.64374,E,0.010,,131217,,,D*64
$GNRMC,212725.00,A,3114.50592,N,12117.64373,E,0.006,,131217,,,D*66
$GNRMC,212726.00,A,3114.50593,N,12117.64374,E,0.001,,131217,,,D*64
$GNRMC,212727.00,A,3114.50593,N,12117.64373,E,0.002,,131217,,,D*61
$GNRMC,212728.00,A,3114.50592,N,12117.64373,E,0.011,,131217,,,D*6D
$GNRMC,212729.00,A,3114.50591,N,12117.64373,E,0.002,,131217,,,D*6D
$GNRMC,212730.00,A,3114.50591,N,12117.64374,E,0.004,,131217,,,D*64
$GNRMC,212731.00,A,3114.50590,N,12117.64374,E,0.014,,131217,,,D*65
$GNRMC,212732.00,A,3114.50590,N,12117.64375,E,0.005,,131217,,,D*67
$GNRMC,212733.00,A,3114.50589,N,12117.64375,E,0.008,,131217,,,D*63
$GNRMC,212734.00,A,3114.50589,N,12117.64376,E,0.004,,131217,,,D*6B
$GNRMC,212735.00,A,3114.50589,N,12117.64376,E,0.003,,131217,,,D*6D
$GNRMC,212736.00,A,3114.50590,N,12117.64376,E,0.011,,131217,,,D*65
$GNRMC,212737.00,A,3114.50590,N,12117.64376,E,0.004,,131217,,,D*60
$GNRMC,212738.00,A,3114.50591,N,12117.64376,E,0.006,,131217,,,D*6C
$GNRMC,212739.00,A,3114.50592,N,12117.64375,E,0.012,,131217,,,D*68
$GNRMC,212740.00,A,3114.50593,N,12117.64375,E,0.010,,131217,,,D*65
$GNRMC,212741.00,A,3114.50594,N,12117.64374,E,0.007,,131217,,,D*64
$GNRMC,212742.00,A,3114.50595,N,12117.64374,E,0.007,,131217,,,D*66
$GNRMC,212743.00,A,3114.50596,N,12117.64373,E,0.004,,131217,,,D*60
$GNRMC,212744.00,A,3114.50597,N,12117.64372,E,0.007,,131217,,,D*64
$GNRMC,212745.00,A,3114.50598,N,12117.64372,E,0.016,,131217,,,D*6A
$GNRMC,212746.00,A,3114.50599,N,12117.64371,E,0.010,,131217,,,D*6D
$GNRMC,212747.00,A,3114.50600,N,12117.64370,E,0.010,,131217,,,D*6E
$GNRMC,212748.00,A,3114.50601,N,12117.64369,E,0.008,,131217,,,D*61
$GNRMC,212749.00,A,3114.50602,N,12117.64368,E,0.010,,131217,,,D*6B
$GNRMC,212750.00,A,3114.50603,N,12117.64367,E,0.007,,131217,,,D*6B
$GNRMC,212751.00,A,3114.50603,N,12117.64366,E,0.009,,131217,,,D*65
$GNRMC,212752.00,A,3114.50603,N,12117.64365,E,0.009,,131217,,,D*65
$GNRMC,212753.00,A,3114.50602,N,12117.64364,E,0.007,,131217,,,D*6A
$GNRMC,212754.00,A,3114.50600,N,12117.64363,E,0.003,,131217,,,D*6C
$GNRMC,212755.00,A,3114.50599,N,12117.64362,E,0.008,,131217,,,D*64
$GNRMC,212756.00,A,3114.50597,N,12117.64361,E,0.009,,131217,,,D*6B
$GNRMC,212757.00,A,3114.50596,N,12117.64359,E,0.004,,131217,,,D*6D
$GNRMC,212758.00,A,3114.50594,N,12117.64358,E,0.004,,131217,,,D*61
$GNRMC,212759.00,A,3114.50593,N,12117.64356,E,0.009,,131217,,,D*64
$GNRMC,212800.00,A,3114.50591,N,12117.64355,E,0.008,,131217,,,D*67
$GNRMC,212801.00,A,3114.50589,N,12117.64354,E,0.015,,131217,,,D*62
$GNRMC,212802.00,A,3114.50588,N,12117.64353,E,0.012,,131217,,,D*60
$GNRMC,212803.00,A,3114.50587,N,12117.64352,E,0.007,,131217,,,D*6B
$GNRMC,212804.00,A,3114.50585,N,12117.64351,E,0.009,,131217,,,D*63
$GNRMC,212805.00,A,3114.50584,N,12117.64350,E,0.013,,131217,,,D*69
$GNRMC,212806.00,A,3114.50582,N,12117.64349,E,0.010,,131217,,,D*67
$GNRMC,212807.00,A,3114.50580,N,12117.64349,E,0.001,,131217,,,D*64
$GNRMC,212808.00,A,3114.50579,N,12117.64349,E,0.003,,131217,,,D*6F
$GNRMC,212809.00,A,3114.50577,N,12117.64349,E,0.002,,131217,,,D*61
$GNRMC,212810.00,A,3114.50575,N,12117.64349,E,0.007,,131217,,,D*6E
$GNRMC,212811.00,A,3114.50573,N,12117.64349,E,0.008,,131217,,,D*66
