$GNRMC,210931.00,A,3114.76136,N,12117.43075,E,0.021,,171217,,,A*65
$GNRMC,210932.00,A,3114.76132,N,12117.43071,E,0.046,,171217,,,A*67
$GNRMC,210933.00,A,3114.76131,N,12117.43071,E,0.039,,171217,,,A*6D
$GNRMC,210933.00,A,3114.76128,N,12117.43072,E,0.044,,171217,,,A*6C
$GNRMC,210934.00,A,3114.76124,N,12117.43075,E,0.016,,171217,,,A*67
$GNRMC,210935.00,A,3114.76125,N,12117.43077,E,0.035,,171217,,,A*64
$GNRMC,210936.00,A,3114.76126,N,12117.43079,E,0.013,,171217,,,A*6E
$GNRMC,210937.00,A,3114.76121,N,12117.43071,E,0.018,,171217,,,A*6B
$GNRMC,210938.00,A,3114.76119,N,12117.43065,E,0.004,,171217,,,A*67
$GNRMC,210939.00,A,3114.76121,N,12117.43059,E,0.038,,171217,,,A*6D
$GNRMC,210940.00,A,3114.76117,N,12117.43051,E,0.009,,171217,,,A*6C
$GNRMC,210941.00,A,3114.76116,N,12117.43046,E,0.002,,171217,,,A*61
$GNRMC,210942.00,A,3114.76115,N,12117.43044,E,0.004,,171217,,,A*65
$GNRMC,210943.00,A,3114.76116,N,12117.43043,E,0.007,,171217,,,A*63
$GNRMC,210944.00,A,3114.76115,N,12117.43044,E,0.006,,171217,,,A*61
$GNRMC,210945.00,A,3114.76115,N,12117.43046,E,0.009,,171217,,,A*6D
$GNRMC,210946.00,A,3114.76114,N,12117.43048,E,0.001,,171217,,,A*69
$GNRMC,210947.00,A,3114.76114,N,12117.43051,E,0.004,,171217,,,A*65
$GNRMC,210948.00,A,3114.76112,N,12117.43054,E,0.009,,171217,,,A*64
$GNRMC,210949.00,A,3114.76110,N,12117.43058,E,0.008,,171217,,,A*6A
$GNRMC,210950.00,A,3114.76107,N,12117.43060,E,0.006,,171217,,,A*61
$GNRMC,210951.00,A,3114.76104,N,12117.43065,E,0.004,,171217,,,A*64
$GNRMC,210952.00,A,3114.76102,N,12117.43070,E,0.005,,171217,,,A*64
$GNRMC,210953.00,A,3114.76101,N,12117.43076,E,0.011,,171217,,,A*65
$GNRMC,210954.00,A,3114.76100,N,12117.43081,E,0.007,,171217,,,A*6C
$GNRMC,210955.00,A,3114.76099,N,12117.43086,E,0.008,,171217,,,A*64
$GNRMC,210956.00,A,3114.76099,N,12117.43091,E,0.003,,171217,,,A*6A
$GNRMC,210957.00,A,3114.76100,N,12117.43095,E,0.004,,171217,,,A*69
$GNRMC,210958.00,A,3114.76101,N,12117.43101,E,0.008,,171217,,,A*67
$GNRMC,210959.00,A,3114.76102,N,12117.43106,E,0.008,,171217,,,A*62
$GNRMC,211000.00,A,3114.76103,N,12117.43111,E,0.016,,171217,,,A*6E
$GNRMC,211001.00,A,3114.76104,N,12117.43114,E,0.008,,171217,,,A*62
$GNRMC,211002.00,A,3114.76105,N,12117.43116,E,0.008,,171217,,,A*62
$GNRMC,211003.00,A,3114.76105,N,12117.43118,E,0.005,,171217,,,A*60
$GNRMC,211004.00,A,3114.76106,N,12117.43119,E,0.006,,171217,,,A*66
$GNRMC,211005.00,A,3114.76106,N,12117.43120,E,0.008,,171217,,,A*63
$GNRMC,211006.00,A,3114.76106,N,12117.43121,E,0.003,,171217,,,A*6A
$GNRMC,211007.00,A,3114.76106,N,12117.43121,E,0.006,,171217,,,A*6E
$GNRMC,211008.00,A,3114.76105,N,12117.43121,E,0.005,,171217,,,A*61
$GNRMC,211009.00,A,3114.76105,N,12117.43122,E,0.011,,171217,,,A*66
$GNRMC,211010.00,A,3114.76101,N,12117.43124,E,0.122,,171217,,,A*6D
$GNRMC,211011.00,A,3114.76098,N,12117.43128,E,0.015,,171217,,,A*64
$GNRMC,211012.00,A,3114.76099,N,12117.43136,E,0.009,,171217,,,A*64
$GNRMC,211013.00,A,3114.76097,N,12117.43142,E,0.011,,171217,,,A*61
$GNRMC,211014.00,A,3114.76093,N,12117.43148,E,0.012,,171217,,,A*6B
$GNRMC,211015.00,A,3114.76091,N,12117.43150,E,0.008,,171217,,,A*6A
$GNRMC,211016.00,A,3114.76091,N,12117.43151,E,0.009,,171217,,,A*69
$GNRMC,211017.00,A,3114.76089,N,12117.43151,E,0.002,,171217,,,A*6A
$GNRMC,211018.00,A,3114.76088,N,12117.43151,E,0.008,,171217,,,A*6E
$GNRMC,211019.00,A,3114.76088,N,12117.43150,E,0.002,,171217,,,A*64
$GNRMC,211020.00,A,3114.76087,N,12117.43151,E,0.007,,171217,,,A*65
$GNRMC,211021.00,A,3114.76088,N,12117.43151,E,0.003,,171217,,,A*6F
$GNRMC,211022.00,A,3114.76088,N,12117.43151,E,0.011,,171217,,,A*6F
$GNRMC,211023.00,A,3114.76089,N,12117.43150,E,0.008,,171217,,,A*66
$GNRMC,211024.00,A,3114.76090,N,12117.43150,E,0.004,,171217,,,A*65
$GNRMC,211025.00,A,3114.76091,N,12117.43150,E,0.004,,171217,,,A*65
$GNRMC,211026.00,A,3114.76093,N,12117.43151,E,0.006,,171217,,,A*67
$GNRMC,211027.00,A,3114.76094,N,12117.43152,E,0.006,,171217,,,A*62
$GNRMC,211028.00,A,3114.76096,N,12117.43152,E,0.005,,171217,,,A*6C
$GNRMC,211029.00,A,3114.76097,N,12117.43153,E,0.007,,171217,,,A*6F
$GNRMC,211030.00,A,3114.76098,N,12117.43153,E,0.008,,171217,,,A*67
$GNRMC,211031.00,A,3114.76099,N,12117.43154,E,0.008,,171217,,,A*60
$GNRMC,211032.00,A,3114.76100,N,12117.43154,E,0.006,,171217,,,A*6C
$GNRMC,211033.00,A,3114.76102,N,12117.43155,E,0.003,,171217,,,A*6B
$GNRMC,211034.00,A,3114.76104,N,12117.43155,E,0.003,,171217,,,A*6A
$GNRMC,211035.00,A,3114.76107,N,12117.43156,E,0.012,,171217,,,A*6B
$GNRMC,211036.00,A,3114.76109,N,12117.43156,E,0.003,,171217,,,A*66
$GNRMC,211037.00,A,3114.76110,N,12117.43157,E,0.016,,171217,,,A*6A
$GNRMC,211038.00,A,3114.76111,N,12117.43158,E,0.006,,171217,,,A*6A
$GNRMC,211039.00,A,3114.76112,N,12117.43159,E,0.008,,171217,,,A*67
$GNRMC,211040.00,A,3114.76113,N,12117.43160,E,0.008,,171217,,,A*62
$GNRMC,211041.00,A,3114.76113,N,12117.43162,E,0.009,,171217,,,A*60
$GNRMC,211042.00,A,3114.76114,N,12117.43164,E,0.008,,171217,,,A*63
$GNRMC,211043.00,A,3114.76115,N,12117.43167,E,0.003,,171217,,,A*6B
$GNRMC,211044.00,A,3114.76117,N,12117.43169,E,0.005,,171217,,,A*66
$GNRMC,211045.00,A,3114.76118,N,12117.43170,E,0.005,,171217,,,A*60
$GNRMC,211046.00,A,3114.76119,N,12117.43172,E,0.004,,171217,,,A*61
$GNRMC,211047.00,A,3114.76119,N,12117.43173,E,0.007,,171217,,,A*62
$GNRMC,211048.00,A,3114.76120,N,12117.43175,E,0.009,,171217,,,A*6F
$GNRMC,211049.00,A,3114.76121,N,12117.43175,E,0.019,,171217,,,A*6E
$GNRMC,211050.00,A,3114.76123,N,12117.43176,E,0.013,,171217,,,A*6D
$GNRMC,211051.00,A,3114.76124,N,12117.43177,E,0.002,,171217,,,A*6A
$GNRMC,211052.00,A,3114.76126,N,12117.43177,E,0.007,,171217,,,A*6E
$GNRMC,211053.00,A,3114.76127,N,12117.43178,E,0.010,,171217,,,A*67
$GNRMC,211054.00,A,3114.76129,N,12117.43178,E,0.005,,171217,,,A*6A
$GNRMC,211055.00,A,3114.76131,N,12117.43178,E,0.010,,171217,,,A*66
$GNRMC,211056.00,A,3114.76135,N,12117.43177,E,0.006,,171217,,,A*69
$GNRMC,211057.00,A,3114.76138,N,12117.43177,E,0.004,,171217,,,A*67
$GNRMC,211058.00,A,3114.76141,N,12117.43176,E,0.005,,171217,,,A*66
$GNRMC,211059.00,A,3114.76144,N,12117.43175,E,0.009,,171217,,,A*6D
$GNRMC,211100.00,A,3114.76146,N,12117.43173,E,0.020,,171217,,,A*6F
$GNRMC,211101.00,A,3114.76149,N,12117.43172,E,0.011,,171217,,,A*62
$GNRMC,211102.00,A,3114.76151,N,12117.43171,E,0.013,,171217,,,A*69
$GNRMC,211103.00,A,3114.76154,N,12117.43170,E,0.002,,171217,,,A*6C
$GNRMC,211104.00,A,3114.76157,N,12117.43169,E,0.008,,171217,,,A*6A
$GNRMC,211105.00,A,3114.76160,N,12117.43169,E,0.007,,171217,,,A*60
$GNRMC,211106.00,A,3114.76163,N,12117.43171,E,0.014,,171217,,,A*6B
$GNRMC,211107.00,A,3114.76165,N,12117.43173,E,0.001,,171217,,,A*6A
$GNRMC,211108.00,A,3114.76167,N,12117.43175,E,0.005,,171217,,,A*65
$GNRMC,211109.00,A,3114.76170,N,12117.43177,E,0.011,,171217,,,A*65
$GNRMC,211110.00,A,3114.76171,N,12117.43180,E,0.008,,171217,,,A*6C
$GNRMC,211111.00,A,3114.76172,N,12117.43182,E,0.018,,171217,,,A*6D
$GNRMC,211112.00,A,3114.76172,N,12117.43184,E,0.016,,171217,,,A*66
$GNRMC,211113.00,A,3114.76173,N,12117.43185,E,0.001,,171217,,,A*61
$GNRMC,211114.00,A,3114.76173,N,12117.43187,E,0.011,,171217,,,A*65
$GNRMC,211115.00,A,3114.76174,N,12117.43188,E,0.001,,171217,,,A*6D
$GNRMC,211116.00,A,3114.76175,N,12117.43189,E,0.010,,171217,,,A*6E
$GNRMC,211117.00,A,3114.76177,N,12117.43188,E,0.016,,171217,,,A*6A
$GNRMC,211118.00,A,3114.76179,N,12117.43188,E,0.000,,171217,,,A*6C
$GNRMC,211119.00,A,3114.76180,N,12117.43187,E,0.004,,171217,,,A*60
$GNRMC,211120.00,A,3114.76178,N,12117.43187,E,0.011,,171217,,,A*69
$GNRMC,211121.00,A,3114.76179,N,12117.43187,E,0.007,,171217,,,A*6E
$GNRMC,211122.00,A,3114.76177,N,12117.43186,E,0.010,,171217,,,A*64
$GNRMC,211123.00,A,3114.76179,N,12117.43186,E,0.009,,171217,,,A*63
$GNRMC,211124.00,A,3114.76179,N,12117.43185,E,0.005,,171217,,,A*6B
$GNRMC,211125.00,A,3114.76176,N,12117.43184,E,0.012,,171217,,,A*62
$GNRMC,211126.00,A,3114.76173,N,12117.43184,E,0.002,,171217,,,A*65
$GNRMC,211127.00,A,3114.76170,N,12117.43185,E,0.015,,171217,,,A*60
$GNRMC,211128.00,A,3114.76167,N,12117.43185,E,0.006,,171217,,,A*6B
$GNRMC,211129.00,A,3114.76166,N,12117.43184,E,0.002,,171217,,,A*6E
$GNRMC,211130.00,A,3114.76165,N,12117.43184,E,0.006,,171217,,,A*61
$GNRMC,211131.00,A,3114.76162,N,12117.43184,E,0.007,,171217,,,A*66
$GNRMC,211132.00,A,3114.76160,N,12117.43184,E,0.008,,171217,,,A*68
$GNRMC,211133.00,A,3114.76159,N,12117.43183,E,0.002,,171217,,,A*6E
$GNRMC,211134.00,A,3114.76158,N,12117.43181,E,0.012,,171217,,,A*6B
$GNRMC,211135.00,A,3114.76157,N,12117.43181,E,0.009,,171217,,,A*6F
$GNRMC,211136.00,A,3114.76157,N,12117.43180,E,0.021,,171217,,,A*67
$GNRMC,211137.00,A,3114.76157,N,12117.43178,E,0.005,,171217,,,A*67
$GNRMC,211138.00,A,3114.76157,N,12117.43177,E,0.016,,171217,,,A*65
$GNRMC,211139.00,A,3114.76156,N,12117.43176,E,0.025,,171217,,,A*64
$GNRMC,211140.00,A,3114.76157,N,12117.43174,E,0.005,,171217,,,A*6B
$GNRMC,211141.00,A,3114.76158,N,12117.43173,E,0.003,,171217,,,A*64
$GNRMC,211142.00,A,3114.76160,N,12117.43172,E,0.051,,171217,,,D*6F
$GNRMC,211143.00,A,3114.76162,N,12117.43170,E,0.004,,171217,,,D*6E
$GNRMC,211144.00,A,3114.76163,N,12117.43170,E,0.003,,171217,,,D*6F
$GNRMC,211145.00,A,3114.76164,N,12117.43169,E,0.002,,171217,,,D*60
$GNRMC,211146.00,A,3114.76165,N,12117.43169,E,0.006,,171217,,,D*66
$GNRMC,211147.00,A,3114.76166,N,12117.43168,E,0.006,,171217,,,D*65
$GNRMC,211148.00,A,3114.76166,N,12117.43167,E,0.007,,171217,,,D*64
$GNRMC,211149.00,A,3114.76166,N,12117.43166,E,0.005,,171217,,,D*66
$GNRMC,211150.00,A,3114.76166,N,12117.43166,E,0.010,,171217,,,D*6A
$GNRMC,211151.00,A,3114.76165,N,12117.43165,E,0.001,,171217,,,D*6B
$GNRMC,211152.00,A,3114.76163,N,12117.43165,E,0.001,,171217,,,D*6E
$GNRMC,211153.00,A,3114.76162,N,12117.43165,E,0.006,,171217,,,D*69
$GNRMC,211154.00,A,3114.76162,N,12117.43164,E,0.006,,171217,,,D*6F
$GNRMC,211155.00,A,3114.76162,N,12117.43164,E,0.014,,171217,,,D*6D
$GNRMC,211156.00,A,3114.76162,N,12117.43164,E,0.013,,171217,,,D*69
$GNRMC,211157.00,A,3114.76161,N,12117.43165,E,0.006,,171217,,,D*6E
$GNRMC,211158.00,A,3114.76160,N,12117.43165,E,0.012,,171217,,,D*65
$GNRMC,211159.00,A,3114.76161,N,12117.43165,E,0.009,,171217,,,D*6F
$GNRMC,211200.00,A,3114.76161,N,12117.43165,E,0.007,,171217,,,D*6E
$GNRMC,211201.00,A,3114.76163,N,12117.43165,E,0.008,,171217,,,D*62
$GNRMC,211202.00,A,3114.76164,N,12117.43165,E,0.016,,171217,,,D*69
$GNRMC,211203.00,A,3114.76166,N,12117.43164,E,0.004,,171217,,,D*68
$GNRMC,211204.00,A,3114.76168,N,12117.43162,E,0.014,,171217,,,D*66
$GNRMC,211205.00,A,3114.76169,N,12117.43161,E,0.009,,171217,,,D*69
$GNRMC,211206.00,A,3114.76170,N,12117.43160,E,0.002,,171217,,,D*68
$GNRMC,211207.00,A,3114.76170,N,12117.43159,E,0.002,,171217,,,D*63
$GNRMC,211208.00,A,3114.76170,N,12117.43158,E,0.009,,171217,,,D*66
$GNRMC,211209.00,A,3114.76170,N,12117.43159,E,0.006,,171217,,,D*69
$GNRMC,211210.00,A,3114.76171,N,12117.43159,E,0.007,,171217,,,D*61
$GNRMC,211211.00,A,3114.76172,N,12117.43159,E,0.011,,171217,,,D*64
$GNRMC,211212.00,A,3114.76172,N,12117.43160,E,0.012,,171217,,,D*6E
$GNRMC,211213.00,A,3114.76173,N,12117.43159,E,0.005,,171217,,,D*62
$GNRMC,211214.00,A,3114.76174,N,12117.43159,E,0.006,,171217,,,D*61
$GNRMC,211215.00,A,3114.76175,N,12117.43157,E,0.008,,171217,,,D*61
$GNRMC,211216.00,A,3114.76176,N,12117.43155,E,0.010,,171217,,,D*6A
$GNRMC,211217.00,A,3114.76178,N,12117.43153,E,0.010,,171217,,,D*63
$GNRMC,211218.00,A,3114.76179,N,12117.43152,E,0.011,,171217,,,D*6D
$GNRMC,211219.00,A,3114.76179,N,12117.43152,E,0.007,,171217,,,D*6B
$GNRMC,211220.00,A,3114.76179,N,12117.43152,E,0.012,,171217,,,D*65
$GNRMC,211221.00,A,3114.76179,N,12117.43153,E,0.008,,171217,,,D*6E
$GNRMC,211222.00,A,3114.76180,N,12117.43154,E,0.006,,171217,,,D*62
$GNRMC,211223.00,A,3114.76181,N,12117.43155,E,0.011,,171217,,,D*65
$GNRMC,211224.00,A,3114.76181,N,12117.43156,E,0.010,,171217,,,D*60
$GNRMC,211225.00,A,3114.76182,N,12117.43156,E,0.005,,171217,,,D*66
$GNRMC,211226.00,A,3114.76182,N,12117.43157,E,0.002,,171217,,,D*63
$GNRMC,211227.00,A,3114.76182,N,12117.43157,E,0.012,,171217,,,D*63
$GNRMC,211228.00,A,3114.76181,N,12117.43157,E,0.015,,171217,,,D*68
$GNRMC,211229.00,A,3114.76182,N,12117.43156,E,0.012,,171217,,,D*6C
$GNRMC,211230.00,A,3114.76183,N,12117.43156,E,0.009,,171217,,,D*6F
$GNRMC,211231.00,A,3114.76183,N,12117.43155,E,0.005,,171217,,,D*61
$GNRMC,211232.00,A,3114.76185,N,12117.43154,E,0.008,,171217,,,D*68
$GNRMC,211233.00,A,3114.76186,N,12117.43154,E,0.005,,171217,,,D*67
$GNRMC,211234.00,A,3114.76187,N,12117.43153,E,0.011,,171217,,,D*63
$GNRMC,211235.00,A,3114.76189,N,12117.43153,E,0.009,,171217,,,D*65
$GNRMC,211236.00,A,3114.76191,N,12117.43152,E,0.014,,171217,,,D*62
$GNRMC,211237.00,A,3114.76194,N,12117.43151,E,0.006,,171217,,,D*66
$GNRMC,211238.00,A,3114.76197,N,12117.43151,E,0.016,,171217,,,D*6B
$GNRMC,211239.00,A,3114.76199,N,12117.43151,E,0.006,,171217,,,D*65
$GNRMC,211240.00,A,3114.76201,N,12117.43151,E,0.014,,171217,,,D*6A
$GNRMC,211241.00,A,3114.76202,N,12117.43150,E,0.010,,171217,,,D*6D
$GNRMC,211242.00,A,3114.76204,N,12117.43150,E,0.002,,171217,,,D*6B
$GNRMC,211243.00,A,3114.76206,N,12117.43148,E,0.010,,171217,,,D*62
$GNRMC,211244.00,A,3114.76207,N,12117.43147,E,0.005,,171217,,,D*6F
$GNRMC,211245.00,A,3114.76207,N,12117.43146,E,0.006,,171217,,,D*6C
$GNRMC,211246.00,A,3114.76207,N,12117.43144,E,0.005,,171217,,,D*6E
$GNRMC,211247.00,A,3114.76207,N,12117.43142,E,0.017,,171217,,,D*6A
$GNRMC,211248.00,A,3114.76207,N,12117.43140,E,0.009,,171217,,,D*68
$GNRMC,211249.00,A,3114.76206,N,12117.43138,E,0.001,,171217,,,D*6F
$GNRMC,211250.00,A,3114.76204,N,12117.43137,E,0.018,,171217,,,D*62
$GNRMC,211251.00,A,3114.76203,N,12117.43135,E,0.011,,171217,,,D*6F
$GNRMC,211252.00,A,3114.76201,N,12117.43134,E,0.004,,171217,,,D*6B
$GNRMC,211253.00,A,3114.76200,N,12117.43132,E,0.010,,171217,,,D*68
$GNRMC,211254.00,A,3114.76198,N,12117.43130,E,0.015,,171217,,,D*6A
$GNRMC,211255.00,A,3114.76197,N,12117.43128,E,0.016,,171217,,,D*6E
$GNRMC,211256.00,A,3114.76193,N,12117.43127,E,0.013,,171217,,,D*63
$GNRMC,211257.00,A,3114.76190,N,12117.43126,E,0.008,,171217,,,D*6A
$GNRMC,211258.00,A,3114.76187,N,12117.43126,E,0.015,,171217,,,D*6F
$GNRMC,211259.00,A,3114.76183,N,12117.43126,E,0.009,,171217,,,D*67
$GNRMC,211300.00,A,3114.76180,N,12117.43126,E,0.007,,171217,,,D*67
$GNRMC,211301.00,A,3114.76179,N,12117.43126,E,0.007,,171217,,,D*60
$GNRMC,211302.00,A,3114.76178,N,12117.43126,E,0.009,,171217,,,D*6C
$GNRMC,211303.00,A,3114.76178,N,12117.43126,E,0.011,,171217,,,D*64
$GNRMC,211304.00,A,3114.76180,N,12117.43127,E,0.002,,171217,,,D*67
$GNRMC,211305.00,A,3114.76181,N,12117.43127,E,0.008,,171217,,,D*6D
$GNRMC,211306.00,A,3114.76182,N,12117.43128,E,0.003,,171217,,,D*69
$GNRMC,211307.00,A,3114.76182,N,12117.43130,E,0.012,,171217,,,D*61
$GNRMC,211308.00,A,3114.76183,N,12117.43130,E,0.018,,171217,,,D*65
$GNRMC,211309.00,A,3114.76183,N,12117.43129,E,0.011,,171217,,,D*65
$GNRMC,211310.00,A,3114.76184,N,12117.43129,E,0.011,,171217,,,D*6A
$GNRMC,211311.00,A,3114.76186,N,12117.43126,E,0.019,,171217,,,D*6E
$GNRMC,211312.00,A,3114.76188,N,12117.43124,E,0.005,,171217,,,D*6C
$GNRMC,211313.00,A,3114.76191,N,12117.43122,E,0.004,,171217,,,D*62
$GNRMC,211314.00,A,3114.76193,N,12117.43119,E,0.005,,171217,,,D*6E
$GNRMC,211315.00,A,3114.76196,N,12117.43118,E,0.003,,171217,,,D*6D
$GNRMC,211316.00,A,3114.76199,N,12117.43116,E,0.007,,171217,,,D*6B
$GNRMC,211317.00,A,3114.76201,N,12117.43114,E,0.013,,171217,,,D*6F
$GNRMC,211318.00,A,3114.76203,N,12117.43112,E,0.008,,171217,,,D*6E
$GNRMC,211319.00,A,3114.76205,N,12117.43111,E,0.011,,171217,,,D*62
$GNRMC,211320.00,A,3114.76207,N,12117.43110,E,0.010,,171217,,,D*6A
$GNRMC,211321.00,A,3114.76209,N,12117.43109,E,0.012,,171217,,,D*6F
$GNRMC,211322.00,A,3114.76211,N,12117.43109,E,0.006,,171217,,,D*60
$GNRMC,211323.00,A,3114.76212,N,12117.43109,E,0.016,,171217,,,D*63
$GNRMC,211324.00,A,3114.76213,N,12117.43110,E,0.002,,171217,,,D*68
$GNRMC,211325.00,A,3114.76214,N,12117.43110,E,0.009,,171217,,,D*65
$GNRMC,211326.00,A,3114.76215,N,12117.43110,E,0.004,,171217,,,D*6A
$GNRMC,211327.00,A,3114.76216,N,12117.43110,E,0.003,,171217,,,D*6F
$GNRMC,211328.00,A,3114.76215,N,12117.43111,E,0.005,,171217,,,D*64
$GNRMC,211329.00,A,3114.76215,N,12117.43113,E,0.004,,171217,,,D*66
$GNRMC,211330.00,A,3114.76215,N,12117.43114,E,0.006,,171217,,,D*6B
$GNRMC,211331.00,A,3114.76215,N,12117.43115,E,0.005,,171217,,,D*68
$GNRMC,211332.00,A,3114.76215,N,12117.43115,E,0.007,,171217,,,D*69
$GNRMC,211333.00,A,3114.76216,N,12117.43114,E,0.010,,171217,,,D*6C
$GNRMC,211334.00,A,3114.76217,N,12117.43113,E,0.009,,171217,,,D*65
$GNRMC,211335.00,A,3114.76218,N,12117.43111,E,0.015,,171217,,,D*64
$GNRMC,211336.00,A,3114.76219,N,12117.43110,E,0.006,,171217,,,D*65
$GNRMC,211337.00,A,3114.76220,N,12117.43110,E,0.008,,171217,,,D*60
$GNRMC,211338.00,A,3114.76220,N,12117.43111,E,0.004,,171217,,,D*62
$GNRMC,211339.00,A,3114.76220,N,12117.43112,E,0.006,,171217,,,D*62
$GNRMC,211340.00,A,3114.76220,N,12117.43113,E,0.009,,171217,,,D*62
$GNRMC,211341.00,A,3114.76219,N,12117.43114,E,0.005,,171217,,,D*62
$GNRMC,211342.00,A,3114.76218,N,12117.43114,E,0.003,,171217,,,D*66
$GNRMC,211343.00,A,3114.76217,N,12117.43116,E,0.002,,171217,,,D*6B
$GNRMC,211344.00,A,3114.76216,N,12117.43118,E,0.006,,171217,,,D*67
$GNRMC,211345.00,A,3114.76216,N,12117.43119,E,0.005,,171217,,,D*64
$GNRMC,211346.00,A,3114.76216,N,12117.43119,E,0.005,,171217,,,D*67
$GNRMC,211347.00,A,3114.76216,N,12117.43119,E,0.007,,171217,,,D*64
$GNRMC,211348.00,A,3114.76216,N,12117.43120,E,0.003,,171217,,,D*65
$GNRMC,211349.00,A,3114.76216,N,12117.43121,E,0.003,,171217,,,D*65
$GNRMC,211350.00,A,3114.76216,N,12117.43121,E,0.009,,171217,,,D*67
$GNRMC,211351.00,A,3114.76216,N,12117.43123,E,0.014,,171217,,,D*68
$GNRMC,211352.00,A,3114.76218,N,12117.43124,E,0.008,,171217,,,D*6F
$GNRMC,211353.00,A,3114.76220,N,12117.43125,E,0.012,,171217,,,D*6F
$GNRMC,211354.00,A,3114.76221,N,12117.43126,E,0.009,,171217,,,D*60
$GNRMC,211355.00,A,3114.76220,N,12117.43127,E,0.017,,171217,,,D*6E
$GNRMC,211356.00,A,3114.76218,N,12117.43129,E,0.012,,171217,,,D*6D
$GNRMC,211357.00,A,3114.76216,N,12117.43131,E,0.005,,171217,,,D*6D
$GNRMC,211358.00,A,3114.76213,N,12117.43132,E,0.006,,171217,,,D*67
$GNRMC,211359.00,A,3114.76210,N,12117.43133,E,0.007,,171217,,,D*65
$GNRMC,211400.00,A,3114.76207,N,12117.43134,E,0.008,,171217,,,D*60
$GNRMC,211401.00,A,3114.76204,N,12117.43134,E,0.011,,171217,,,D*6A
$GNRMC,211402.00,A,3114.76200,N,12117.43134,E,0.008,,171217,,,D*65
$GNRMC,211403.00,A,3114.76195,N,12117.43135,E,0.014,,171217,,,D*67
$GNRMC,211404.00,A,3114.76191,N,12117.43137,E,0.013,,171217,,,D*61
$GNRMC,211405.00,A,3114.76187,N,12117.43139,E,0.014,,171217,,,D*6E
$GNRMC,211406.00,A,3114.76184,N,12117.43140,E,0.005,,171217,,,D*60
$GNRMC,211407.00,A,3114.76182,N,12117.43140,E,0.010,,171217,,,D*63
$GNRMC,211408.00,A,3114.76181,N,12117.43141,E,0.008,,171217,,,D*67
$GNRMC,211409.00,A,3114.76179,N,12117.43140,E,0.012,,171217,,,D*6B
$GNRMC,211410.00,A,3114.76176,N,12117.43138,E,0.007,,171217,,,D*67
$GNRMC,211411.00,A,3114.76173,N,12117.43136,E,0.013,,171217,,,D*68
$GNRMC,211412.00,A,3114.76172,N,12117.43134,E,0.009,,171217,,,D*63
$GNRMC,211413.00,A,3114.76170,N,12117.43132,E,0.014,,171217,,,D*6A
$GNRMC,211414.00,A,3114.76167,N,12117.43129,E,0.008,,171217,,,D*6C
$GNRMC,211415.00,A,3114.76164,N,12117.43126,E,0.010,,171217,,,D*68
$GNRMC,211416.00,A,3114.76161,N,12117.43124,E,0.007,,171217,,,D*6A
$GNRMC,211417.00,A,3114.76158,N,12117.43122,E,0.004,,171217,,,D*64
$GNRMC,211418.00,A,3114.76155,N,12117.43120,E,0.008,,171217,,,D*68
$GNRMC,211419.00,A,3114.76153,N,12117.43118,E,0.006,,171217,,,D*6A
$GNRMC,211420.00,A,3114.76150,N,12117.43116,E,0.010,,171217,,,D*6A
$GNRMC,211421.00,A,3114.76146,N,12117.43115,E,0.008,,171217,,,D*66
$GNRMC,211422.00,A,3114.76143,N,12117.43114,E,0.008,,171217,,,D*61
$GNRMC,211423.00,A,3114.76139,N,12117.43113,E,0.012,,171217,,,D*61
$GNRMC,211424.00,A,3114.76136,N,12117.43112,E,0.008,,171217,,,D*63
$GNRMC,211425.00,A,3114.76134,N,12117.43113,E,0.016,,171217,,,D*6E
$GNRMC,211426.00,A,3114.76133,N,12117.43113,E,0.008,,171217,,,D*65
$GNRMC,211427.00,A,3114.76132,N,12117.43114,E,0.012,,171217,,,D*69
$GNRMC,211428.00,A,3114.76132,N,12117.43114,E,0.016,,171217,,,D*62
$GNRMC,211429.00,A,3114.76133,N,12117.43115,E,0.009,,171217,,,D*6D
$GNRMC,211430.00,A,3114.76133,N,12117.43116,E,0.001,,171217,,,D*6E
$GNRMC,211431.00,A,3114.76134,N,12117.43117,E,0.003,,171217,,,D*6B
$GNRMC,211432.00,A,3114.76136,N,12117.43119,E,0.004,,171217,,,D*63
$GNRMC,211433.00,A,3114.76138,N,12117.43120,E,0.009,,171217,,,D*6B
$GNRMC,211434.00,A,3114.76139,N,12117.43122,E,0.003,,171217,,,D*65
$GNRMC,211435.00,A,3114.76140,N,12117.43123,E,0.005,,171217,,,D*6D
$GNRMC,211436.00,A,3114.76140,N,12117.43124,E,0.001,,171217,,,D*6D
$GNRMC,211437.00,A,3114.76137,N,12117.43125,E,0.012,,171217,,,D*6F
$GNRMC,211438.00,A,3114.76136,N,12117.43126,E,0.011,,171217,,,D*61
$GNRMC,211439.00,A,3114.76133,N,12117.43129,E,0.017,,171217,,,D*6C
$GNRMC,211440.00,A,3114.76131,N,12117.43131,E,0.008,,171217,,,D*67
$GNRMC,211441.00,A,3114.76130,N,12117.43133,E,0.006,,171217,,,D*6B
$GNRMC,211442.00,A,3114.76128,N,12117.43134,E,0.011,,171217,,,D*60
$GNRMC,211443.00,A,3114.76126,N,12117.43136,E,0.004,,171217,,,D*69
$GNRMC,211444.00,A,3114.76125,N,12117.43138,E,0.002,,171217,,,D*65
$GNRMC,211445.00,A,3114.76125,N,12117.43138,E,0.003,,171217,,,D*65
$GNRMC,211446.00,A,3114.76124,N,12117.43139,E,0.011,,171217,,,D*65
$GNRMC,211447.00,A,3114.76123,N,12117.43140,E,0.006,,171217,,,D*6B
$GNRMC,211448.00,A,3114.76123,N,12117.43140,E,0.007,,171217,,,D*65
$GNRMC,211449.00,A,3114.76123,N,12117.43140,E,0.004,,171217,,,D*67
$GNRMC,211450.00,A,3114.76123,N,12117.43140,E,0.006,,171217,,,D*6D
$GNRMC,211451.00,A,3114.76124,N,12117.43140,E,0.007,,171217,,,D*6A
$GNRMC,211452.00,A,3114.76125,N,12117.43139,E,0.004,,171217,,,D*65
$GNRMC,211453.00,A,3114.76127,N,12117.43137,E,0.004,,171217,,,D*68
$GNRMC,211454.00,A,3114.76128,N,12117.43135,E,0.015,,171217,,,D*62
$GNRMC,211455.00,A,3114.76130,N,12117.43134,E,0.007,,171217,,,D*68
$GNRMC,211456.00,A,3114.76131,N,12117.43133,E,0.009,,171217,,,D*63
$GNRMC,211457.00,A,3114.76132,N,12117.43132,E,0.005,,171217,,,D*6C
$GNRMC,211458.00,A,3114.76133,N,12117.43132,E,0.013,,171217,,,D*65
$GNRMC,211459.00,A,3114.76135,N,12117.43131,E,0.015,,171217,,,D*67
$GNRMC,211500.00,A,3114.76135,N,12117.43132,E,0.002,,171217,,,D*6F
$GNRMC,211501.00,A,3114.76137,N,12117.43133,E,0.009,,171217,,,D*66
$GNRMC,211502.00,A,3114.76137,N,12117.43134,E,0.006,,171217,,,D*6D
$GNRMC,211503.00,A,3114.76137,N,12117.43134,E,0.008,,171217,,,D*62
$GNRMC,211504.00,A,3114.76139,N,12117.43136,E,0.017,,171217,,,D*67
$GNRMC,211505.00,A,3114.76140,N,12117.43137,E,0.010,,171217,,,D*6E
$GNRMC,211506.00,A,3114.76141,N,12117.43139,E,0.011,,171217,,,D*63
$GNRMC,211507.00,A,3114.76141,N,12117.43140,E,0.007,,171217,,,D*6B
$GNRMC,211508.00,A,3114.76139,N,12117.43142,E,0.011,,171217,,,D*6E
$GNRMC,211509.00,A,3114.76139,N,12117.43143,E,0.008,,171217,,,D*66
$GNRMC,211510.00,A,3114.76139,N,12117.43144,E,0.004,,171217,,,D*65
$GNRMC,211511.00,A,3114.76136,N,12117.43146,E,0.014,,171217,,,D*68
$GNRMC,211512.00,A,3114.76134,N,12117.43147,E,0.011,,171217,,,D*6D
$GNRMC,211513.00,A,3114.76133,N,12117.43149,E,0.005,,171217,,,D*60
$GNRMC,211514.00,A,3114.76133,N,12117.43151,E,0.009,,171217,,,D*62
$GNRMC,211515.00,A,3114.76133,N,12117.43153,E,0.004,,171217,,,D*6C
$GNRMC,211516.00,A,3114.76134,N,12117.43154,E,0.007,,171217,,,D*6C
$GNRMC,211517.00,A,3114.76135,N,12117.43157,E,0.011,,171217,,,D*68
$GNRMC,211518.00,A,3114.76136,N,12117.43158,E,0.003,,171217,,,D*68
$GNRMC,211519.00,A,3114.76138,N,12117.43160,E,0.004,,171217,,,D*6B
$GNRMC,211520.00,A,3114.76140,N,12117.43160,E,0.012,,171217,,,D*69
$GNRMC,211521.00,A,3114.76142,N,12117.43160,E,0.006,,171217,,,D*6F
$GNRMC,211522.00,A,3114.76144,N,12117.43158,E,0.001,,171217,,,D*66
$GNRMC,211523.00,A,3114.76146,N,12117.43156,E,0.005,,171217,,,D*6F
$GNRMC,211524.00,A,3114.76147,N,12117.43155,E,0.005,,171217,,,D*6A
$GNRMC,211525.00,A,3114.76149,N,12117.43153,E,0.009,,171217,,,D*6F
$GNRMC,211526.00,A,3114.76151,N,12117.43152,E,0.008,,171217,,,D*65
$GNRMC,211527.00,A,3114.76151,N,12117.43150,E,0.005,,171217,,,D*6B
$GNRMC,211528.00,A,3114.76151,N,12117.43148,E,0.012,,171217,,,D*6B
$GNRMC,211529.00,A,3114.76152,N,12117.43145,E,0.013,,171217,,,D*65
$GNRMC,211530.00,A,3114.76152,N,12117.43143,E,0.009,,171217,,,D*60
$GNRMC,211531.00,A,3114.76154,N,12117.43140,E,0.005,,171217,,,D*68
$GNRMC,211532.00,A,3114.76157,N,12117.43138,E,0.002,,171217,,,D*60
$GNRMC,211533.00,A,3114.76161,N,12117.43137,E,0.008,,171217,,,D*61
$GNRMC,211534.00,A,3114.76164,N,12117.43136,E,0.004,,171217,,,D*6E
$GNRMC,211535.00,A,3114.76166,N,12117.43134,E,0.007,,171217,,,D*6C
$GNRMC,211536.00,A,3114.76167,N,12117.43133,E,0.006,,171217,,,D*68
$GNRMC,211537.00,A,3114.76168,N,12117.43133,E,0.008,,171217,,,D*68
$GNRMC,211538.00,A,3114.76169,N,12117.43133,E,0.009,,171217,,,D*67
$GNRMC,211539.00,A,3114.76170,N,12117.43133,E,0.010,,171217,,,D*66
$GNRMC,211540.00,A,3114.76169,N,12117.43132,E,0.004,,171217,,,D*64
$GNRMC,211541.00,A,3114.76168,N,12117.43130,E,0.013,,171217,,,D*60
$GNRMC,211542.00,A,3114.76165,N,12117.43129,E,0.005,,171217,,,D*61
$GNRMC,211543.00,A,3114.76164,N,12117.43128,E,0.007,,171217,,,D*62
$GNRMC,211544.00,A,3114.76163,N,12117.43128,E,0.008,,171217,,,D*6D
$GNRMC,211545.00,A,3114.76160,N,12117.43128,E,0.004,,171217,,,D*63
$GNRMC,211546.00,A,3114.76158,N,12117.43127,E,0.010,,171217,,,D*61
$GNRMC,211547.00,A,3114.76157,N,12117.43126,E,0.007,,171217,,,D*68
$GNRMC,211548.00,A,3114.76155,N,12117.43126,E,0.009,,171217,,,D*6B
$GNRMC,211549.00,A,3114.76153,N,12117.43125,E,0.006,,171217,,,D*60
$GNRMC,211550.00,A,3114.76152,N,12117.43124,E,0.003,,171217,,,D*6D
$GNRMC,211551.00,A,3114.76149,N,12117.43123,E,0.007,,171217,,,D*65
$GNRMC,211552.00,A,3114.76147,N,12117.43122,E,0.002,,171217,,,D*6C
$GNRMC,211553.00,A,3114.76145,N,12117.43119,E,0.007,,171217,,,D*62
$GNRMC,211554.00,A,3114.76142,N,12117.43116,E,0.010,,171217,,,D*6B
$GNRMC,211555.00,A,3114.76140,N,12117.43111,E,0.009,,171217,,,D*67
$GNRMC,211556.00,A,3114.76137,N,12117.43108,E,0.006,,171217,,,D*63
$GNRMC,211557.00,A,3114.76134,N,12117.43105,E,0.014,,171217,,,D*6F
$GNRMC,211558.00,A,3114.76129,N,12117.43102,E,0.020,,171217,,,D*6C
$GNRMC,211559.00,A,3114.76124,N,12117.43100,E,0.016,,171217,,,D*67
$GNRMC,211600.00,A,3114.76119,N,12117.43098,E,0.009,,171217,,,D*68
$GNRMC,211601.00,A,3114.76115,N,12117.43096,E,0.020,,171217,,,D*60
$GNRMC,211602.00,A,3114.76113,N,12117.43093,E,0.001,,171217,,,D*63
$GNRMC,211603.00,A,3114.76110,N,12117.43091,E,0.005,,171217,,,D*67
$GNRMC,211604.00,A,3114.76108,N,12117.43090,E,0.010,,171217,,,D*6C
$GNRMC,211605.00,A,3114.76106,N,12117.43089,E,0.014,,171217,,,D*6F
$GNRMC,211606.00,A,3114.76103,N,12117.43089,E,0.020,,171217,,,D*6E
$GNRMC,211607.00,A,3114.76101,N,12117.43090,E,0.004,,171217,,,D*63
$GNRMC,211608.00,A,3114.76100,N,12117.43091,E,0.010,,171217,,,D*69
$GNRMC,211609.00,A,3114.76101,N,12117.43093,E,0.005,,171217,,,D*6F
$GNRMC,211610.00,A,3114.76103,N,12117.43095,E,0.006,,171217,,,D*60
$GNRMC,211611.00,A,3114.76104,N,12117.43098,E,0.008,,171217,,,D*65
$GNRMC,211612.00,A,3114.76105,N,12117.43100,E,0.020,,171217,,,D*6D
$GNRMC,211613.00,A,3114.76106,N,12117.43101,E,0.013,,171217,,,D*6E
$GNRMC,211614.00,A,3114.76109,N,12117.43102,E,0.007,,171217,,,D*60
$GNRMC,211615.00,A,3114.76113,N,12117.43103,E,0.008,,171217,,,D*64
$GNRMC,211616.00,A,3114.76115,N,12117.43103,E,0.007,,171217,,,D*6E
$GNRMC,211617.00,A,3114.76119,N,12117.43103,E,0.013,,171217,,,D*66
$GNRMC,211618.00,A,3114.76123,N,12117.43103,E,0.005,,171217,,,D*67
$GNRMC,211619.00,A,3114.76128,N,12117.43103,E,0.013,,171217,,,D*6A
$GNRMC,211620.00,A,3114.76131,N,12117.43103,E,0.005,,171217,,,D*6F
$GNRMC,211621.00,A,3114.76134,N,12117.43100,E,0.015,,171217,,,D*69
$GNRMC,211622.00,A,3114.76137,N,12117.43100,E,0.004,,171217,,,D*69
$GNRMC,211623.00,A,3114.76141,N,12117.43099,E,0.006,,171217,,,D*6A
$GNRMC,211624.00,A,3114.76146,N,12117.43098,E,0.007,,171217,,,D*6A
$GNRMC,211625.00,A,3114.76151,N,12117.43097,E,0.008,,171217,,,D*6D
$GNRMC,211626.00,A,3114.76155,N,12117.43095,E,0.001,,171217,,,D*61
$GNRMC,211627.00,A,3114.76159,N,12117.43096,E,0.008,,171217,,,D*66
$GNRMC,211628.00,A,3114.76161,N,12117.43097,E,0.005,,171217,,,D*6E
$GNRMC,211629.00,A,3114.76164,N,12117.43098,E,0.008,,171217,,,D*68
$GNRMC,211630.00,A,3114.76168,N,12117.43100,E,0.001,,171217,,,D*65
$GNRMC,211631.00,A,3114.76171,N,12117.43103,E,0.008,,171217,,,D*66
$GNRMC,211632.00,A,3114.76174,N,12117.43105,E,0.008,,171217,,,D*66
$GNRMC,211633.00,A,3114.76178,N,12117.43107,E,0.007,,171217,,,D*66
$GNRMC,211634.00,A,3114.76182,N,12117.43109,E,0.004,,171217,,,D*69
$GNRMC,211635.00,A,3114.76186,N,12117.43112,E,0.008,,171217,,,D*6A
$GNRMC,211636.00,A,3114.76192,N,12117.43116,E,0.004,,171217,,,D*64
$GNRMC,211637.00,A,3114.76197,N,12117.43120,E,0.009,,171217,,,D*68
$GNRMC,211638.00,A,3114.76202,N,12117.43123,E,0.004,,171217,,,D*66
$GNRMC,211639.00,A,3114.76204,N,12117.43128,E,0.003,,171217,,,D*6D
$GNRMC,211640.00,A,3114.76206,N,12117.43133,E,0.003,,171217,,,D*6B
$GNRMC,211641.00,A,3114.76207,N,12117.43137,E,0.011,,171217,,,D*6C
$GNRMC,211642.00,A,3114.76208,N,12117.43141,E,0.004,,171217,,,D*65
$GNRMC,211643.00,A,3114.76208,N,12117.43145,E,0.014,,171217,,,D*61
$GNRMC,211644.00,A,3114.76209,N,12117.43152,E,0.004,,171217,,,D*60
$GNRMC,211645.00,A,3114.76208,N,12117.43157,E,0.019,,171217,,,D*69
$GNRMC,211646.00,A,3114.76207,N,12117.43162,E,0.008,,171217,,,D*63
$GNRMC,211647.00,A,3114.76206,N,12117.43167,E,0.008,,171217,,,D*66
$GNRMC,211648.00,A,3114.76205,N,12117.43170,E,0.001,,171217,,,D*65
$GNRMC,211649.00,A,3114.76204,N,12117.43172,E,0.001,,171217,,,D*67
$GNRMC,211650.00,A,3114.76203,N,12117.43176,E,0.003,,171217,,,D*6E
$GNRMC,211651.00,A,3114.76203,N,12117.43180,E,0.007,,171217,,,D*62
$GNRMC,211652.00,A,3114.76203,N,12117.43184,E,0.004,,171217,,,D*66
$GNRMC,211653.00,A,3114.76203,N,12117.43187,E,0.005,,171217,,,D*65
$GNRMC,211654.00,A,3114.76204,N,12117.43191,E,0.013,,171217,,,D*65
$GNRMC,211655.00,A,3114.76206,N,12117.43195,E,0.008,,171217,,,D*68
$GNRMC,211656.00,A,3114.76206,N,12117.43197,E,0.007,,171217,,,D*66
$GNRMC,211657.00,A,3114.76206,N,12117.43200,E,0.006,,171217,,,D*6B
$GNRMC,211658.00,A,3114.76206,N,12117.43202,E,0.006,,171217,,,D*66
$GNRMC,211659.00,A,3114.76207,N,12117.43203,E,0.003,,171217,,,D*62
$GNRMC,211700.00,A,3114.76207,N,12117.43205,E,0.008,,171217,,,D*62
$GNRMC,211701.00,A,3114.76208,N,12117.43207,E,0.006,,171217,,,D*60
$GNRMC,211702.00,A,3114.76209,N,12117.43208,E,0.011,,171217,,,D*6B
$GNRMC,211703.00,A,3114.76210,N,12117.43209,E,0.005,,171217,,,D*66
$GNRMC,211704.00,A,3114.76210,N,12117.43210,E,0.013,,171217,,,D*6E
$GNRMC,211705.00,A,3114.76209,N,12117.43210,E,0.002,,171217,,,D*67
$GNRMC,211706.00,A,3114.76209,N,12117.43211,E,0.009,,171217,,,D*6E
$GNRMC,211707.00,A,3114.76209,N,12117.43211,E,0.007,,171217,,,D*61
$GNRMC,211708.00,A,3114.76209,N,12117.43211,E,0.004,,171217,,,D*6D
$GNRMC,211709.00,A,3114.76210,N,12117.43212,E,0.016,,171217,,,D*64
$GNRMC,211710.00,A,3114.76211,N,12117.43212,E,0.007,,171217,,,D*6D
$GNRMC,211711.00,A,3114.76213,N,12117.43211,E,0.004,,171217,,,D*6E
$GNRMC,211712.00,A,3114.76214,N,12117.43210,E,0.006,,171217,,,D*69
$GNRMC,211713.00,A,3114.76216,N,12117.43210,E,0.006,,171217,,,D*6A
$GNRMC,211714.00,A,3114.76217,N,12117.43210,E,0.004,,171217,,,D*6E
$GNRMC,211715.00,A,3114.76219,N,12117.43210,E,0.015,,171217,,,D*61
$GNRMC,211716.00,A,3114.76222,N,12117.43209,E,0.013,,171217,,,D*64
$GNRMC,211717.00,A,3114.76224,N,12117.43208,E,0.011,,171217,,,D*60
$GNRMC,211718.00,A,3114.76226,N,12117.43209,E,0.005,,171217,,,D*69
$GNRMC,211719.00,A,3114.76228,N,12117.43209,E,0.002,,171217,,,D*61
$GNRMC,211720.00,A,3114.76229,N,12117.43210,E,0.006,,171217,,,D*66
$GNRMC,211721.00,A,3114.76228,N,12117.43212,E,0.003,,171217,,,D*61
$GNRMC,211722.00,A,3114.76224,N,12117.43213,E,0.022,,171217,,,D*6C
$GNRMC,211723.00,A,3114.76221,N,12117.43214,E,0.001,,171217,,,D*6E
$GNRMC,211724.00,A,3114.76218,N,12117.43215,E,0.016,,171217,,,D*64
$GNRMC,211725.00,A,3114.76215,N,12117.43214,E,0.014,,171217,,,D*6B
$GNRMC,211726.00,A,3114.76213,N,12117.43214,E,0.005,,171217,,,D*6E
$GNRMC,211727.00,A,3114.76210,N,12117.43214,E,0.015,,171217,,,D*6D
$GNRMC,211728.00,A,3114.76207,N,12117.43215,E,0.015,,171217,,,D*65
$GNRMC,211729.00,A,3114.76204,N,12117.43217,E,0.006,,171217,,,D*67
$GNRMC,211730.00,A,3114.76202,N,12117.43219,E,0.011,,171217,,,D*61
$GNRMC,211731.00,A,3114.76200,N,12117.43220,E,0.009,,171217,,,D*61
$GNRMC,211732.00,A,3114.76199,N,12117.43222,E,0.012,,171217,,,D*69
$GNRMC,211733.00,A,3114.76197,N,12117.43223,E,0.010,,171217,,,D*65
$GNRMC,211734.00,A,3114.76196,N,12117.43225,E,0.008,,171217,,,D*6C
$GNRMC,211735.00,A,3114.76192,N,12117.43227,E,0.003,,171217,,,D*60
$GNRMC,211736.00,A,3114.76188,N,12117.43230,E,0.006,,171217,,,D*6B
$GNRMC,211737.00,A,3114.76186,N,12117.43232,E,0.014,,171217,,,D*65
$GNRMC,211738.00,A,3114.76183,N,12117.43235,E,0.011,,171217,,,D*6D
$GNRMC,211739.00,A,3114.76181,N,12117.43236,E,0.004,,171217,,,D*69
$GNRMC,211740.00,A,3114.76179,N,12117.43238,E,0.009,,171217,,,D*63
$GNRMC,211741.00,A,3114.76175,N,12117.43238,E,0.010,,171217,,,D*66
$GNRMC,211742.00,A,3114.76173,N,12117.43237,E,0.014,,171217,,,D*68
$GNRMC,211743.00,A,3114.76170,N,12117.43236,E,0.015,,171217,,,D*6A
$GNRMC,211744.00,A,3114.76168,N,12117.43235,E,0.007,,171217,,,D*64
$GNRMC,211745.00,A,3114.76164,N,12117.43236,E,0.015,,171217,,,D*69
$GNRMC,211746.00,A,3114.76159,N,12117.43238,E,0.013,,171217,,,D*6C
$GNRMC,211747.00,A,3114.76155,N,12117.43239,E,0.015,,171217,,,D*66
$GNRMC,211748.00,A,3114.76151,N,12117.43241,E,0.013,,171217,,,D*64
$GNRMC,211749.00,A,3114.76149,N,12117.43243,E,0.013,,171217,,,D*6E
$GNRMC,211750.00,A,3114.76149,N,12117.43244,E,0.007,,171217,,,D*64
$GNRMC,211751.00,A,3114.76150,N,12117.43245,E,0.004,,171217,,,D*6F
$GNRMC,211752.00,A,3114.76151,N,12117.43245,E,0.008,,171217,,,D*61
$GNRMC,211753.00,A,3114.76153,N,12117.43244,E,0.007,,171217,,,D*6C
$GNRMC,211754.00,A,3114.76155,N,12117.43243,E,0.010,,171217,,,D*6C
$GNRMC,211755.00,A,3114.76158,N,12117.43240,E,0.012,,171217,,,D*61
$GNRMC,211756.00,A,3114.76161,N,12117.43238,E,0.006,,171217,,,D*62
$GNRMC,211757.00,A,3114.76164,N,12117.43237,E,0.006,,171217,,,D*69
$GNRMC,211758.00,A,3114.76167,N,12117.43235,E,0.008,,171217,,,D*69
$GNRMC,211759.00,A,3114.76170,N,12117.43234,E,0.011,,171217,,,D*67
$GNRMC,211800.00,A,3114.76173,N,12117.43232,E,0.009,,171217,,,D*68
$GNRMC,211801.00,A,3114.76178,N,12117.43230,E,0.010,,171217,,,D*68
$GNRMC,211802.00,A,3114.76183,N,12117.43229,E,0.016,,171217,,,D*61
$GNRMC,211803.00,A,3114.76187,N,12117.43227,E,0.000,,171217,,,D*6D
$GNRMC,211804.00,A,3114.76190,N,12117.43224,E,0.006,,171217,,,D*69
$GNRMC,211805.00,A,3114.76193,N,12117.43222,E,0.015,,171217,,,D*6F
$GNRMC,211806.00,A,3114.76197,N,12117.43219,E,0.010,,171217,,,D*65
$GNRMC,211807.00,A,3114.76200,N,12117.43217,E,0.011,,171217,,,D*66
$GNRMC,211808.00,A,3114.76201,N,12117.43214,E,0.010,,171217,,,D*6A
$GNRMC,211809.00,A,3114.76201,N,12117.43214,E,0.010,,171217,,,D*6B
$GNRMC,211810.00,A,3114.76202,N,12117.43214,E,0.011,,171217,,,D*61
$GNRMC,211811.00,A,3114.76201,N,12117.43213,E,0.006,,171217,,,D*62
$GNRMC,211812.00,A,3114.76201,N,12117.43212,E,0.016,,171217,,,D*61
$GNRMC,211813.00,A,3114.76199,N,12117.43211,E,0.001,,171217,,,D*67
$GNRMC,211814.00,A,3114.76199,N,12117.43211,E,0.002,,171217,,,D*63
$GNRMC,211815.00,A,3114.76198,N,12117.43209,E,0.008,,171217,,,D*60
$GNRMC,211816.00,A,3114.76198,N,12117.43207,E,0.007,,171217,,,D*62
$GNRMC,211817.00,A,3114.76198,N,12117.43207,E,0.006,,171217,,,D*62
$GNRMC,211818.00,A,3114.76198,N,12117.43206,E,0.016,,171217,,,D*6D
$GNRMC,211819.00,A,3114.76196,N,12117.43206,E,0.014,,171217,,,D*60
$GNRMC,211820.00,A,3114.76195,N,12117.43206,E,0.013,,171217,,,D*6E
$GNRMC,211821.00,A,3114.76193,N,12117.43205,E,0.006,,171217,,,D*6E
$GNRMC,211822.00,A,3114.76191,N,12117.43206,E,0.007,,171217,,,D*6D
$GNRMC,211823.00,A,3114.76189,N,12117.43206,E,0.008,,171217,,,D*6A
$GNRMC,211824.00,A,3114.76186,N,12117.43206,E,0.010,,171217,,,D*6B
$GNRMC,211825.00,A,3114.76185,N,12117.43206,E,0.009,,171217,,,D*61
$GNRMC,211826.00,A,3114.76183,N,12117.43207,E,0.005,,171217,,,D*69
$GNRMC,211827.00,A,3114.76182,N,12117.43207,E,0.014,,171217,,,D*69
$GNRMC,211828.00,A,3114.76181,N,12117.43207,E,0.009,,171217,,,D*69
$GNRMC,211829.00,A,3114.76180,N,12117.43208,E,0.018,,171217,,,D*66
$GNRMC,211830.00,A,3114.76178,N,12117.43208,E,0.013,,171217,,,D*62
$GNRMC,211831.00,A,3114.76178,N,12117.43206,E,0.001,,171217,,,D*6E
$GNRMC,211832.00,A,3114.76178,N,12117.43205,E,0.012,,171217,,,D*6C
$GNRMC,211833.00,A,3114.76177,N,12117.43205,E,0.007,,171217,,,D*66
$GNRMC,211834.00,A,3114.76175,N,12117.43204,E,0.011,,171217,,,D*65
$GNRMC,211835.00,A,3114.76172,N,12117.43203,E,0.007,,171217,,,D*63
$GNRMC,211836.00,A,3114.76169,N,12117.43203,E,0.010,,171217,,,D*6C
$GNRMC,211837.00,A,3114.76165,N,12117.43202,E,0.009,,171217,,,D*68
$GNRMC,211838.00,A,3114.76163,N,12117.43202,E,0.004,,171217,,,D*6C
$GNRMC,211839.00,A,3114.76160,N,12117.43201,E,0.006,,171217,,,D*6F
$GNRMC,211840.00,A,3114.76156,N,12117.43200,E,0.017,,171217,,,D*65
$GNRMC,211841.00,A,3114.76155,N,12117.43198,E,0.007,,171217,,,D*64
$GNRMC,211842.00,A,3114.76153,N,12117.43197,E,0.014,,171217,,,D*6C
$GNRMC,211843.00,A,3114.76151,N,12117.43193,E,0.012,,171217,,,D*6D
$GNRMC,211844.00,A,3114.76149,N,12117.43191,E,0.009,,171217,,,D*6B
$GNRMC,211845.00,A,3114.76147,N,12117.43188,E,0.008,,171217,,,D*6D
$GNRMC,211846.00,A,3114.76145,N,12117.43186,E,0.009,,171217,,,D*63
$GNRMC,211847.00,A,3114.76143,N,12117.43184,E,0.012,,171217,,,D*6C
$GNRMC,211848.00,A,3114.76141,N,12117.43181,E,0.008,,171217,,,D*6F
$GNRMC,211849.00,A,3114.76139,N,12117.43180,E,0.006,,171217,,,D*6E
$GNRMC,211850.00,A,3114.76137,N,12117.43179,E,0.009,,171217,,,D*61
$GNRMC,211851.00,A,3114.76136,N,12117.43178,E,0.005,,171217,,,D*6C
$GNRMC,211852.00,A,3114.76134,N,12117.43177,E,0.009,,171217,,,D*6E
$GNRMC,211853.00,A,3114.76132,N,12117.43177,E,0.003,,171217,,,D*63
$GNRMC,211854.00,A,3114.76130,N,12117.43175,E,0.011,,171217,,,D*67
$GNRMC,211855.00,A,3114.76128,N,12117.43174,E,0.009,,171217,,,D*67
$GNRMC,211856.00,A,3114.76127,N,12117.43174,E,0.014,,171217,,,D*67
$GNRMC,211857.00,A,3114.76125,N,12117.43174,E,0.013,,171217,,,D*63
$GNRMC,211858.00,A,3114.76122,N,12117.43174,E,0.001,,171217,,,D*68
$GNRMC,211859.00,A,3114.76121,N,12117.43175,E,0.007,,171217,,,D*6D
$GNRMC,211900.00,A,3114.76121,N,12117.43175,E,0.013,,171217,,,D*65
$GNRMC,211901.00,A,3114.76122,N,12117.43175,E,0.011,,171217,,,D*65
$GNRMC,211902.00,A,3114.76125,N,12117.43176,E,0.011,,171217,,,D*62
$GNRMC,211903.00,A,3114.76127,N,12117.43178,E,0.022,,171217,,,D*6F
$GNRMC,211904.00,A,3114.76129,N,12117.43179,E,0.006,,171217,,,D*61
$GNRMC,211905.00,A,3114.76132,N,12117.43180,E,0.009,,171217,,,D*63
$GNRMC,211906.00,A,3114.76135,N,12117.43180,E,0.009,,171217,,,D*67
$GNRMC,211907.00,A,3114.76140,N,12117.43181,E,0.006,,171217,,,D*6A
$GNRMC,211908.00,A,3114.76144,N,12117.43181,E,0.018,,171217,,,D*6E
$GNRMC,211909.00,A,3114.76148,N,12117.43182,E,0.013,,171217,,,D*6B
$GNRMC,211910.00,A,3114.76153,N,12117.43183,E,0.011,,171217,,,D*6A
$GNRMC,211911.00,A,3114.76158,N,12117.43184,E,0.023,,171217,,,D*66
$GNRMC,211912.00,A,3114.76162,N,12117.43184,E,0.010,,171217,,,D*6C
$GNRMC,211913.00,A,3114.76165,N,12117.43184,E,0.007,,171217,,,D*6C
$GNRMC,211914.00,A,3114.76167,N,12117.43184,E,0.003,,171217,,,D*6D
$GNRMC,211915.00,A,3114.76169,N,12117.43184,E,0.016,,171217,,,D*66
$GNRMC,211916.00,A,3114.76170,N,12117.43183,E,0.007,,171217,,,D*6A
$GNRMC,211917.00,A,3114.76172,N,12117.43183,E,0.011,,171217,,,D*6E
$GNRMC,211918.00,A,3114.76172,N,12117.43183,E,0.010,,171217,,,D*60
$GNRMC,211919.00,A,3114.76173,N,12117.43183,E,0.003,,171217,,,D*62
$GNRMC,211920.00,A,3114.76175,N,12117.43183,E,0.003,,171217,,,D*6E
$GNRMC,211921.00,A,3114.76177,N,12117.43182,E,0.008,,171217,,,D*67
$GNRMC,211922.00,A,3114.76179,N,12117.43182,E,0.011,,171217,,,D*62
$GNRMC,211923.00,A,3114.76180,N,12117.43182,E,0.011,,171217,,,D*65
$GNRMC,211924.00,A,3114.76180,N,12117.43181,E,0.009,,171217,,,D*68
$GNRMC,211925.00,A,3114.76179,N,12117.43183,E,0.010,,171217,,,D*65
$GNRMC,211926.00,A,3114.76180,N,12117.43184,E,0.006,,171217,,,D*60
$GNRMC,211927.00,A,3114.76180,N,12117.43186,E,0.002,,171217,,,D*67
$GNRMC,211928.00,A,3114.76181,N,12117.43188,E,0.010,,171217,,,D*64
$GNRMC,211929.00,A,3114.76182,N,12117.43189,E,0.008,,171217,,,D*6E
$GNRMC,211930.00,A,3114.76185,N,12117.43190,E,0.019,,171217,,,D*69
$GNRMC,211931.00,A,3114.76186,N,12117.43190,E,0.005,,171217,,,D*66
$GNRMC,211932.00,A,3114.76186,N,12117.43191,E,0.007,,171217,,,D*66
$GNRMC,211933.00,A,3114.76187,N,12117.43191,E,0.011,,171217,,,D*61
$GNRMC,211934.00,A,3114.76188,N,12117.43192,E,0.027,,171217,,,D*6F
$GNRMC,211935.00,A,3114.76190,N,12117.43193,E,0.005,,171217,,,D*66
$GNRMC,211936.00,A,3114.76192,N,12117.43193,E,0.011,,171217,,,D*62
$GNRMC,211937.00,A,3114.76195,N,12117.43193,E,0.010,,171217,,,D*65
$GNRMC,211938.00,A,3114.76198,N,12117.43195,E,0.015,,171217,,,D*64
$GNRMC,211939.00,A,3114.76200,N,12117.43196,E,0.006,,171217,,,D*66
$GNRMC,211940.00,A,3114.76202,N,12117.43197,E,0.007,,171217,,,D*6A
$GNRMC,211941.00,A,3114.76204,N,12117.43197,E,0.014,,171217,,,D*6F
$GNRMC,211942.00,A,3114.76205,N,12117.43196,E,0.012,,171217,,,D*6A
$GNRMC,211943.00,A,3114.76205,N,12117.43195,E,0.006,,171217,,,D*6D
$GNRMC,211944.00,A,3114.76205,N,12117.43194,E,0.005,,171217,,,D*68
$GNRMC,211945.00,A,3114.76205,N,12117.43193,E,0.028,,171217,,,D*61
$GNRMC,211946.00,A,3114.76205,N,12117.43192,E,0.012,,171217,,,D*6A
$GNRMC,211947.00,A,3114.76203,N,12117.43191,E,0.005,,171217,,,D*68
$GNRMC,211948.00,A,3114.76201,N,12117.43190,E,0.005,,171217,,,D*64
$GNRMC,211949.00,A,3114.76200,N,12117.43189,E,0.014,,171217,,,D*6C
$GNRMC,211950.00,A,3114.76199,N,12117.43187,E,0.004,,171217,,,D*68
$GNRMC,211951.00,A,3114.76198,N,12117.43185,E,0.010,,171217,,,D*6F
$GNRMC,211952.00,A,3114.76197,N,12117.43185,E,0.007,,171217,,,D*65
$GNRMC,211953.00,A,3114.76197,N,12117.43184,E,0.007,,171217,,,D*65
$GNRMC,211954.00,A,3114.76195,N,12117.43183,E,0.011,,171217,,,D*60
$GNRMC,211955.00,A,3114.76196,N,12117.43181,E,0.005,,171217,,,D*65
$GNRMC,211956.00,A,3114.76196,N,12117.43179,E,0.010,,171217,,,D*65
$GNRMC,211957.00,A,3114.76196,N,12117.43176,E,0.004,,171217,,,D*6E
$GNRMC,211958.00,A,3114.76196,N,12117.43174,E,0.007,,171217,,,D*60
$GNRMC,211959.00,A,3114.76196,N,12117.43172,E,0.011,,171217,,,D*60
$GNRMC,212000.00,A,3114.76196,N,12117.43172,E,0.011,,171217,,,D*66
$GNRMC,212001.00,A,3114.76195,N,12117.43170,E,0.010,,171217,,,D*67
$GNRMC,212002.00,A,3114.76195,N,12117.43167,E,0.011,,171217,,,D*63
$GNRMC,212003.00,A,3114.76195,N,12117.43165,E,0.014,,171217,,,D*65
$GNRMC,212004.00,A,3114.76194,N,12117.43162,E,0.008,,171217,,,D*69
$GNRMC,212005.00,A,3114.76194,N,12117.43159,E,0.010,,171217,,,D*69
$GNRMC,212006.00,A,3114.76194,N,12117.43157,E,0.010,,171217,,,D*64
$GNRMC,212007.00,A,3114.76194,N,12117.43154,E,0.010,,171217,,,D*66
$GNRMC,212008.00,A,3114.76194,N,12117.43151,E,0.017,,171217,,,D*6B
$GNRMC,212009.00,A,3114.76196,N,12117.43146,E,0.008,,171217,,,D*60
$GNRMC,212010.00,A,3114.76198,N,12117.43142,E,0.005,,171217,,,D*6F
$GNRMC,212011.00,A,3114.76200,N,12117.43138,E,0.001,,171217,,,D*65
$GNRMC,212012.00,A,3114.76209,N,12117.43136,E,0.019,,171217,,,D*68
$GNRMC,212013.00,A,3114.76217,N,12117.43133,E,0.010,,171217,,,D*6A
$GNRMC,212014.00,A,3114.76221,N,12117.43130,E,0.004,,171217,,,D*6E
$GNRMC,212015.00,A,3114.76223,N,12117.43128,E,0.004,,171217,,,D*64
$GNRMC,212016.00,A,3114.76223,N,12117.43127,E,0.010,,171217,,,D*6D
$GNRMC,212017.00,A,3114.76222,N,12117.43125,E,0.002,,171217,,,D*6C
$GNRMC,212018.00,A,3114.76220,N,12117.43124,E,0.008,,171217,,,D*6A
$GNRMC,212019.00,A,3114.76219,N,12117.43124,E,0.009,,171217,,,D*60
$GNRMC,212020.00,A,3114.76218,N,12117.43124,E,0.005,,171217,,,D*67
$GNRMC,212021.00,A,3114.76217,N,12117.43125,E,0.007,,171217,,,D*6A
$GNRMC,212022.00,A,3114.76214,N,12117.43126,E,0.016,,171217,,,D*69
$GNRMC,212023.00,A,3114.76211,N,12117.43127,E,0.009,,171217,,,D*62
$GNRMC,212024.00,A,3114.76208,N,12117.43127,E,0.006,,171217,,,D*62
$GNRMC,212025.00,A,3114.76205,N,12117.43128,E,0.008,,171217,,,D*6F
$GNRMC,212026.00,A,3114.76204,N,12117.43128,E,0.009,,171217,,,D*6C
$GNRMC,212027.00,A,3114.76203,N,12117.43129,E,0.000,,171217,,,D*62
$GNRMC,212028.00,A,3114.76200,N,12117.43129,E,0.005,,171217,,,D*6B
$GNRMC,212029.00,A,3114.76198,N,12117.43130,E,0.002,,171217,,,D*67
$GNRMC,212030.00,A,3114.76195,N,12117.43130,E,0.007,,171217,,,D*67
$GNRMC,212031.00,A,3114.76193,N,12117.43131,E,0.012,,171217,,,D*65
$GNRMC,212032.00,A,3114.76191,N,12117.43132,E,0.012,,171217,,,D*67
$GNRMC,212033.00,A,3114.76189,N,12117.43132,E,0.008,,171217,,,D*64
$GNRMC,212034.00,A,3114.76187,N,12117.43130,E,0.010,,171217,,,D*66
$GNRMC,212035.00,A,3114.76183,N,12117.43129,E,0.013,,171217,,,D*68
$GNRMC,212036.00,A,3114.76180,N,12117.43129,E,0.008,,171217,,,D*62
$GNRMC,212037.00,A,3114.76180,N,12117.43128,E,0.011,,171217,,,D*6A
$GNRMC,212038.00,A,3114.76181,N,12117.43127,E,0.013,,171217,,,D*69
$GNRMC,212039.00,A,3114.76183,N,12117.43126,E,0.001,,171217,,,D*68
$GNRMC,212040.00,A,3114.76185,N,12117.43126,E,0.010,,171217,,,D*60
$GNRMC,212041.00,A,3114.76187,N,12117.43126,E,0.015,,171217,,,D*66
$GNRMC,212042.00,A,3114.76189,N,12117.43126,E,0.013,,171217,,,D*6D
$GNRMC,212043.00,A,3114.76190,N,12117.43125,E,0.006,,171217,,,D*63
$GNRMC,212044.00,A,3114.76191,N,12117.43125,E,0.003,,171217,,,D*60
$GNRMC,212045.00,A,3114.76193,N,12117.43124,E,0.003,,171217,,,D*62
$GNRMC,212046.00,A,3114.76196,N,12117.43124,E,0.001,,171217,,,D*66
$GNRMC,212047.00,A,3114.76198,N,12117.43122,E,0.013,,171217,,,D*6C
$GNRMC,212048.00,A,3114.76201,N,12117.43120,E,0.012,,171217,,,D*63
$GNRMC,212049.00,A,3114.76202,N,12117.43118,E,0.011,,171217,,,D*69
$GNRMC,212050.00,A,3114.76202,N,12117.43116,E,0.008,,171217,,,D*67
$GNRMC,212051.00,A,3114.76200,N,12117.43113,E,0.013,,171217,,,D*6B
$GNRMC,212052.00,A,3114.76199,N,12117.43110,E,0.013,,171217,,,D*68
$GNRMC,212053.00,A,3114.76198,N,12117.43108,E,0.013,,171217,,,D*61
$GNRMC,212054.00,A,3114.76196,N,12117.43106,E,0.001,,171217,,,D*65
$GNRMC,212055.00,A,3114.76194,N,12117.43104,E,0.010,,171217,,,D*64
$GNRMC,212056.00,A,3114.76192,N,12117.43102,E,0.002,,171217,,,D*64
$GNRMC,212057.00,A,3114.76192,N,12117.43100,E,0.004,,171217,,,D*61
$GNRMC,212058.00,A,3114.76191,N,12117.43099,E,0.006,,171217,,,D*6E
$GNRMC,212059.00,A,3114.76191,N,12117.43099,E,0.006,,171217,,,D*6F
$GNRMC,212100.00,A,3114.76191,N,12117.43100,E,0.008,,171217,,,D*6D
$GNRMC,212101.00,A,3114.76190,N,12117.43101,E,0.011,,171217,,,D*64
$GNRMC,212102.00,A,3114.76190,N,12117.43103,E,0.004,,171217,,,D*61
$GNRMC,212103.00,A,3114.76188,N,12117.43105,E,0.010,,171217,,,D*6A
$GNRMC,212104.00,A,3114.76186,N,12117.43107,E,0.006,,171217,,,D*66
$GNRMC,212105.00,A,3114.76185,N,12117.43110,E,0.005,,171217,,,D*61
$GNRMC,212106.00,A,3114.76185,N,12117.43113,E,0.001,,171217,,,D*65
$GNRMC,212107.00,A,3114.76186,N,12117.43114,E,0.005,,171217,,,D*64
$GNRMC,212108.00,A,3114.76187,N,12117.43116,E,0.017,,171217,,,D*6B
$GNRMC,212109.00,A,3114.76186,N,12117.43117,E,0.010,,171217,,,D*6D
$GNRMC,212110.00,A,3114.76183,N,12117.43118,E,0.010,,171217,,,D*6F
$GNRMC,212111.00,A,3114.76182,N,12117.43118,E,0.008,,171217,,,D*66
$GNRMC,212112.00,A,3114.76180,N,12117.43117,E,0.016,,171217,,,D*67
$GNRMC,212113.00,A,3114.76178,N,12117.43116,E,0.004,,171217,,,D*63
$GNRMC,212114.00,A,3114.76177,N,12117.43115,E,0.009,,171217,,,D*65
$GNRMC,212115.00,A,3114.76175,N,12117.43115,E,0.004,,171217,,,D*6B
$GNRMC,212116.00,A,3114.76174,N,12117.43115,E,0.002,,171217,,,D*6F
$GNRMC,212117.00,A,3114.76172,N,12117.43114,E,0.007,,171217,,,D*6C
$GNRMC,212118.00,A,3114.76170,N,12117.43113,E,0.013,,171217,,,D*63
$GNRMC,212119.00,A,3114.76167,N,12117.43112,E,0.008,,171217,,,D*6F
$GNRMC,212120.00,A,3114.76164,N,12117.43112,E,0.008,,171217,,,D*66
$GNRMC,212121.00,A,3114.76161,N,12117.43111,E,0.006,,171217,,,D*6F
$GNRMC,212122.00,A,3114.76158,N,12117.43111,E,0.008,,171217,,,D*68
$GNRMC,212123.00,A,3114.76154,N,12117.43110,E,0.008,,171217,,,D*64
$GNRMC,212124.00,A,3114.76150,N,12117.43110,E,0.003,,171217,,,D*6C
$GNRMC,212125.00,A,3114.76147,N,12117.43109,E,0.012,,171217,,,D*63
$GNRMC,212126.00,A,3114.76143,N,12117.43108,E,0.015,,171217,,,D*62
$GNRMC,212127.00,A,3114.76140,N,12117.43106,E,0.010,,171217,,,D*6B
$GNRMC,212128.00,A,3114.76137,N,12117.43105,E,0.013,,171217,,,D*64
$GNRMC,212129.00,A,3114.76137,N,12117.43104,E,0.004,,171217,,,D*62
$GNRMC,212130.00,A,3114.76137,N,12117.43102,E,0.007,,171217,,,D*6F
$GNRMC,212131.00,A,3114.76135,N,12117.43100,E,0.003,,171217,,,D*6A
$GNRMC,212132.00,A,3114.76134,N,12117.43100,E,0.010,,171217,,,D*6A
$GNRMC,212133.00,A,3114.76133,N,12117.43099,E,0.004,,171217,,,D*68
$GNRMC,212134.00,A,3114.76132,N,12117.43098,E,0.011,,171217,,,D*6B
$GNRMC,212135.00,A,3114.76131,N,12117.43098,E,0.008,,171217,,,D*61
$GNRMC,212136.00,A,3114.76131,N,12117.43097,E,0.011,,171217,,,D*65
$GNRMC,212137.00,A,3114.76131,N,12117.43093,E,0.007,,171217,,,D*67
$GNRMC,212138.00,A,3114.76131,N,12117.43090,E,0.005,,171217,,,D*69
$GNRMC,212139.00,A,3114.76132,N,12117.43086,E,0.007,,171217,,,D*6E
$GNRMC,212140.00,A,3114.76134,N,12117.43082,E,0.003,,171217,,,D*66
$GNRMC,212141.00,A,3114.76135,N,12117.43078,E,0.004,,171217,,,D*64
$GNRMC,212142.00,A,3114.76136,N,12117.43075,E,0.012,,171217,,,D*6E
$GNRMC,212143.00,A,3114.76137,N,12117.43072,E,0.009,,171217,,,D*63
$GNRMC,212144.00,A,3114.76137,N,12117.43069,E,0.005,,171217,,,D*62
$GNRMC,212145.00,A,3114.76138,N,12117.43066,E,0.016,,171217,,,D*61
$GNRMC,212146.00,A,3114.76139,N,12117.43063,E,0.015,,171217,,,D*65
$GNRMC,212147.00,A,3114.76140,N,12117.43060,E,0.006,,171217,,,D*6B
$GNRMC,212148.00,A,3114.76140,N,12117.43057,E,0.007,,171217,,,D*61
$GNRMC,212149.00,A,3114.76140,N,12117.43055,E,0.007,,171217,,,D*62
$GNRMC,212150.00,A,3114.76142,N,12117.43052,E,0.015,,171217,,,D*6C
$GNRMC,212151.00,A,3114.76144,N,12117.43052,E,0.007,,171217,,,D*68
$GNRMC,212152.00,A,3114.76146,N,12117.43052,E,0.015,,171217,,,D*6A
$GNRMC,212153.00,A,3114.76148,N,12117.43052,E,0.008,,171217,,,D*69
$GNRMC,212154.00,A,3114.76151,N,12117.43053,E,0.016,,171217,,,D*68
$GNRMC,212155.00,A,3114.76153,N,12117.43054,E,0.015,,171217,,,D*6F
$GNRMC,212156.00,A,3114.76154,N,12117.43055,E,0.009,,171217,,,D*67
$GNRMC,212157.00,A,3114.76157,N,12117.43056,E,0.013,,171217,,,D*6D
$GNRMC,212158.00,A,3114.76159,N,12117.43057,E,0.012,,171217,,,D*6C
$GNRMC,212159.00,A,3114.76160,N,12117.43057,E,0.009,,171217,,,D*6D
$GNRMC,212200.00,A,3114.76162,N,12117.43058,E,0.007,,171217,,,D*61
$GNRMC,212201.00,A,3114.76163,N,12117.43059,E,0.003,,171217,,,D*64
$GNRMC,212202.00,A,3114.76164,N,12117.43060,E,0.007,,171217,,,D*6E
$GNRMC,212203.00,A,3114.76164,N,12117.43061,E,0.006,,171217,,,D*6F
$GNRMC,212204.00,A,3114.76164,N,12117.43062,E,0.007,,171217,,,D*6A
$GNRMC,212205.00,A,3114.76164,N,12117.43061,E,0.009,,171217,,,D*66
$GNRMC,212206.00,A,3114.76163,N,12117.43060,E,0.009,,171217,,,D*63
$GNRMC,212207.00,A,3114.76162,N,12117.43059,E,0.008,,171217,,,D*68
$GNRMC,212208.00,A,3114.76160,N,12117.43059,E,0.010,,171217,,,D*6C
$GNRMC,212209.00,A,3114.76158,N,12117.43059,E,0.014,,171217,,,D*62
$GNRMC,212210.00,A,3114.76156,N,12117.43060,E,0.001,,171217,,,D*6A
$GNRMC,212211.00,A,3114.76154,N,12117.43060,E,0.007,,171217,,,D*6F
$GNRMC,212212.00,A,3114.76152,N,12117.43060,E,0.005,,171217,,,D*68
$GNRMC,212213.00,A,3114.76149,N,12117.43059,E,0.005,,171217,,,D*69
$GNRMC,212214.00,A,3114.76146,N,12117.43059,E,0.002,,171217,,,D*66
$GNRMC,212215.00,A,3114.76144,N,12117.43059,E,0.005,,171217,,,D*62
$GNRMC,212216.00,A,3114.76143,N,12117.43059,E,0.005,,171217,,,D*66
$GNRMC,212217.00,A,3114.76141,N,12117.43058,E,0.006,,171217,,,D*67
$GNRMC,212218.00,A,3114.76141,N,12117.43058,E,0.006,,171217,,,D*68
$GNRMC,212219.00,A,3114.76140,N,12117.43058,E,0.001,,171217,,,D*6F
$GNRMC,212220.00,A,3114.76139,N,12117.43057,E,0.010,,171217,,,D*64
$GNRMC,212221.00,A,3114.76137,N,12117.43057,E,0.012,,171217,,,D*69
$GNRMC,212222.00,A,3114.76137,N,12117.43057,E,0.009,,171217,,,D*60
$GNRMC,212223.00,A,3114.76136,N,12117.43058,E,0.019,,171217,,,D*6E
$GNRMC,212224.00,A,3114.76134,N,12117.43059,E,0.010,,171217,,,D*63
$GNRMC,212225.00,A,3114.76134,N,12117.43059,E,0.010,,171217,,,D*62
$GNRMC,212226.00,A,3114.76133,N,12117.43060,E,0.006,,171217,,,D*6B
$GNRMC,212227.00,A,3114.76132,N,12117.43059,E,0.002,,171217,,,D*65
$GNRMC,212228.00,A,3114.76130,N,12117.43059,E,0.010,,171217,,,D*6B
$GNRMC,212229.00,A,3114.76129,N,12117.43060,E,0.002,,171217,,,D*6B
$GNRMC,212230.00,A,3114.76128,N,12117.43061,E,0.008,,171217,,,D*69
$GNRMC,212231.00,A,3114.76125,N,12117.43062,E,0.011,,171217,,,D*6E
$GNRMC,212232.00,A,3114.76122,N,12117.43063,E,0.001,,171217,,,D*6A
$GNRMC,212233.00,A,3114.76119,N,12117.43064,E,0.010,,171217,,,D*64
$GNRMC,212234.00,A,3114.76115,N,12117.43065,E,0.006,,171217,,,D*69
$GNRMC,212235.00,A,3114.76112,N,12117.43064,E,0.012,,171217,,,D*6B
$GNRMC,212236.00,A,3114.76111,N,12117.43063,E,0.002,,171217,,,D*6D
$GNRMC,212237.00,A,3114.76108,N,12117.43062,E,0.007,,171217,,,D*60
$GNRMC,212238.00,A,3114.76105,N,12117.43061,E,0.002,,171217,,,D*64
$GNRMC,212239.00,A,3114.76103,N,12117.43059,E,0.002,,171217,,,D*68
$GNRMC,212240.00,A,3114.76101,N,12117.43057,E,0.008,,171217,,,D*60
$GNRMC,212241.00,A,3114.76100,N,12117.43054,E,0.010,,171217,,,D*6A
$GNRMC,212242.00,A,3114.76098,N,12117.43052,E,0.007,,171217,,,D*69
$GNRMC,212243.00,A,3114.76096,N,12117.43050,E,0.014,,171217,,,D*66
$GNRMC,212244.00,A,3114.76094,N,12117.43047,E,0.007,,171217,,,D*67
$GNRMC,212245.00,A,3114.76091,N,12117.43045,E,0.013,,171217,,,D*64
$GNRMC,212246.00,A,3114.76088,N,12117.43042,E,0.007,,171217,,,D*6D
$GNRMC,212247.00,A,3114.76086,N,12117.43041,E,0.005,,171217,,,D*63
$GNRMC,212248.00,A,3114.76084,N,12117.43040,E,0.005,,171217,,,D*6F
$GNRMC,212249.00,A,3114.76083,N,12117.43039,E,0.012,,171217,,,D*61
$GNRMC,212250.00,A,3114.76083,N,12117.43038,E,0.003,,171217,,,D*68
$GNRMC,212251.00,A,3114.76084,N,12117.43039,E,0.008,,171217,,,D*64
$GNRMC,212252.00,A,3114.76087,N,12117.43040,E,0.016,,171217,,,D*65
$GNRMC,212253.00,A,3114.76092,N,12117.43041,E,0.017,,171217,,,D*60
$GNRMC,212254.00,A,3114.76098,N,12117.43042,E,0.005,,171217,,,D*6D
$GNRMC,212255.00,A,3114.76103,N,12117.43043,E,0.027,,171217,,,D*6E
$GNRMC,212256.00,A,3114.76106,N,12117.43043,E,0.000,,171217,,,D*6D
$GNRMC,212257.00,A,3114.76109,N,12117.43044,E,0.018,,171217,,,D*6D
$GNRMC,212258.00,A,3114.76112,N,12117.43043,E,0.008,,171217,,,D*6E
$GNRMC,212259.00,A,3114.76114,N,12117.43042,E,0.004,,171217,,,D*64
$GNRMC,212300.00,A,3114.76116,N,12117.43042,E,0.009,,171217,,,D*66
$GNRMC,212301.00,A,3114.76118,N,12117.43041,E,0.009,,171217,,,D*6A
$GNRMC,212302.00,A,3114.76120,N,12117.43040,E,0.009,,171217,,,D*63
$GNRMC,212303.00,A,3114.76121,N,12117.43039,E,0.001,,171217,,,D*65
$GNRMC,212304.00,A,3114.76122,N,12117.43038,E,0.015,,171217,,,D*65
$GNRMC,212305.00,A,3114.76123,N,12117.43037,E,0.007,,171217,,,D*69
$GNRMC,212306.00,A,3114.76123,N,12117.43036,E,0.013,,171217,,,D*6E
$GNRMC,212307.00,A,3114.76124,N,12117.43035,E,0.007,,171217,,,D*6E
$GNRMC,212308.00,A,3114.76125,N,12117.43034,E,0.009,,171217,,,D*6F
$GNRMC,212309.00,A,3114.76125,N,12117.43031,E,0.015,,171217,,,D*66
$GNRMC,212310.00,A,3114.76127,N,12117.43028,E,0.007,,171217,,,D*67
$GNRMC,212311.00,A,3114.76127,N,12117.43025,E,0.005,,171217,,,D*69
$GNRMC,212312.00,A,3114.76129,N,12117.43021,E,0.005,,171217,,,D*60
$GNRMC,212313.00,A,3114.76131,N,12117.43019,E,0.005,,171217,,,D*63
$GNRMC,212314.00,A,3114.76134,N,12117.43018,E,0.011,,171217,,,D*65
$GNRMC,212315.00,A,3114.76137,N,12117.43016,E,0.020,,171217,,,D*6B
$GNRMC,212316.00,A,3114.76139,N,12117.43014,E,0.014,,171217,,,D*63
$GNRMC,212317.00,A,3114.76141,N,12117.43012,E,0.004,,171217,,,D*6A
$GNRMC,212318.00,A,3114.76143,N,12117.43010,E,0.009,,171217,,,D*68
$GNRMC,212319.00,A,3114.76145,N,12117.43007,E,0.012,,171217,,,D*63
$GNRMC,212320.00,A,3114.76146,N,12117.43005,E,0.021,,171217,,,D*68
$GNRMC,212321.00,A,3114.76148,N,12117.43003,E,0.016,,171217,,,D*65
$GNRMC,212322.00,A,3114.76149,N,12117.43003,E,0.011,,171217,,,D*60
$GNRMC,212323.00,A,3114.76151,N,12117.43004,E,0.015,,171217,,,D*6B
$GNRMC,212324.00,A,3114.76152,N,12117.43004,E,0.011,,171217,,,D*6B
$GNRMC,212325.00,A,3114.76151,N,12117.43004,E,0.009,,171217,,,D*60
$GNRMC,212326.00,A,3114.76151,N,12117.43004,E,0.015,,171217,,,D*6E
$GNRMC,212327.00,A,3114.76150,N,12117.43005,E,0.012,,171217,,,D*68
$GNRMC,212328.00,A,3114.76148,N,12117.43007,E,0.011,,171217,,,D*6F
$GNRMC,212329.00,A,3114.76146,N,12117.43009,E,0.003,,171217,,,D*6D
$GNRMC,212330.00,A,3114.76144,N,12117.43010,E,0.006,,171217,,,D*6A
$GNRMC,212331.00,A,3114.76142,N,12117.43013,E,0.003,,171217,,,D*6B
$GNRMC,212332.00,A,3114.76139,N,12117.43015,E,0.002,,171217,,,D*63
$GNRMC,212333.00,A,3114.76136,N,12117.43018,E,0.003,,171217,,,D*61
$GNRMC,212334.00,A,3114.76133,N,12117.43022,E,0.005,,171217,,,D*6C
$GNRMC,212335.00,A,3114.76130,N,12117.43026,E,0.015,,171217,,,D*6B
$GNRMC,212336.00,A,3114.76126,N,12117.43030,E,0.010,,171217,,,D*6D
$GNRMC,212337.00,A,3114.76121,N,12117.43034,E,0.016,,171217,,,D*69
$GNRMC,212338.00,A,3114.76115,N,12117.43037,E,0.004,,171217,,,D*61
$GNRMC,212339.00,A,3114.76110,N,12117.43040,E,0.004,,171217,,,D*65
$GNRMC,212340.00,A,3114.76104,N,12117.43045,E,0.005,,171217,,,D*6A
$GNRMC,212341.00,A,3114.76099,N,12117.43050,E,0.007,,171217,,,D*68
$GNRMC,212342.00,A,3114.76096,N,12117.43054,E,0.011,,171217,,,D*67
$GNRMC,212343.00,A,3114.76091,N,12117.43058,E,0.006,,171217,,,D*6B
$GNRMC,212344.00,A,3114.76088,N,12117.43061,E,0.015,,171217,,,D*6C
$GNRMC,212345.00,A,3114.76084,N,12117.43064,E,0.009,,171217,,,D*69
$GNRMC,212346.00,A,3114.76081,N,12117.43067,E,0.009,,171217,,,D*6C
$GNRMC,212347.00,A,3114.76080,N,12117.43068,E,0.017,,171217,,,D*6C
$GNRMC,212348.00,A,3114.76079,N,12117.43069,E,0.013,,171217,,,D*60
$GNRMC,212349.00,A,3114.76078,N,12117.43069,E,0.005,,171217,,,D*67
$GNRMC,212350.00,A,3114.76077,N,12117.43070,E,0.015,,171217,,,D*69
$GNRMC,212351.00,A,3114.76078,N,12117.43070,E,0.001,,171217,,,D*62
$GNRMC,212352.00,A,3114.76078,N,12117.43069,E,0.004,,171217,,,D*6C
$GNRMC,212353.00,A,3114.76079,N,12117.43069,E,0.007,,171217,,,D*6F
$GNRMC,212354.00,A,3114.76080,N,12117.43069,E,0.011,,171217,,,D*69
$GNRMC,212355.00,A,3114.76083,N,12117.43069,E,0.007,,171217,,,D*6C
$GNRMC,212356.00,A,3114.76086,N,12117.43069,E,0.005,,171217,,,D*68
$GNRMC,212357.00,A,3114.76089,N,12117.43069,E,0.005,,171217,,,D*66
$GNRMC,212358.00,A,3114.76093,N,12117.43069,E,0.010,,171217,,,D*66
$GNRMC,212359.00,A,3114.76096,N,12117.43068,E,0.018,,171217,,,D*6B
$GNRMC,212400.00,A,3114.76099,N,12117.43067,E,0.010,,171217,,,D*68
$GNRMC,212401.00,A,3114.76103,N,12117.43066,E,0.005,,171217,,,D*6E
$GNRMC,212402.00,A,3114.76107,N,12117.43065,E,0.016,,171217,,,D*68
$GNRMC,212403.00,A,3114.76111,N,12117.43064,E,0.001,,171217,,,D*69
$GNRMC,212404.00,A,3114.76116,N,12117.43064,E,0.008,,171217,,,D*60
$GNRMC,212405.00,A,3114.76120,N,12117.43064,E,0.017,,171217,,,D*6A
$GNRMC,212406.00,A,3114.76123,N,12117.43064,E,0.002,,171217,,,D*6E
$GNRMC,212407.00,A,3114.76126,N,12117.43064,E,0.011,,171217,,,D*68
$GNRMC,212408.00,A,3114.76129,N,12117.43063,E,0.004,,171217,,,D*6B
$GNRMC,212409.00,A,3114.76131,N,12117.43063,E,0.008,,171217,,,D*6F
$GNRMC,212410.00,A,3114.76133,N,12117.43061,E,0.008,,171217,,,D*67
$GNRMC,212411.00,A,3114.76135,N,12117.43060,E,0.001,,171217,,,D*68
