$GNRMC,211040.00,A,3114.53772,N,12117.69405,E,0.010,,121217,,,A*66
$GNRMC,211041.00,A,3114.53772,N,12117.69405,E,0.009,,121217,,,A*6F
$GNRMC,211042.00,A,3114.53772,N,12117.69405,E,0.008,,121217,,,A*6D
$GNRMC,211043.00,A,3114.53771,N,12117.69405,E,0.016,,121217,,,A*60
$GNRMC,211044.00,A,3114.53771,N,12117.69406,E,0.004,,121217,,,A*67
$GNRMC,211045.00,A,3114.53771,N,12117.69406,E,0.007,,121217,,,A*65
$GNRMC,211046.00,A,3114.53770,N,12117.69406,E,0.013,,121217,,,A*62
$GNRMC,211047.00,A,3114.53771,N,12117.69405,E,0.008,,121217,,,A*6B
$GNRMC,211048.00,A,3114.53771,N,12117.69403,E,0.008,,121217,,,A*62
$GNRMC,211049.00,A,3114.53772,N,12117.69402,E,0.007,,121217,,,A*6E
$GNRMC,211050.00,A,3114.53772,N,12117.69401,E,0.016,,121217,,,A*65
$GNRMC,211051.00,A,3114.53771,N,12117.69400,E,0.015,,121217,,,A*65
$GNRMC,211052.00,A,3114.53771,N,12117.69398,E,0.009,,121217,,,A*6D
$GNRMC,211053.00,A,3114.53771,N,12117.69397,E,0.005,,121217,,,A*6F
$GNRMC,211054.00,A,3114.53770,N,12117.69396,E,0.010,,121217,,,A*6C
$GNRMC,211055.00,A,3114.53769,N,12117.69395,E,0.013,,121217,,,A*65
$GNRMC,211056.00,A,3114.53767,N,12117.69394,E,0.012,,121217,,,A*68
$GNRMC,211057.00,A,3114.53766,N,12117.69393,E,0.002,,121217,,,A*6E
$GNRMC,211058.00,A,3114.53765,N,12117.69392,E,0.007,,121217,,,A*66
$GNRMC,211059.00,A,3114.53764,N,12117.69391,E,0.004,,121217,,,A*66
$GNRMC,211100.00,A,3114.53764,N,12117.69390,E,0.002,,121217,,,A*6C
$GNRMC,211101.00,A,3114.53765,N,12117.69388,E,0.022,,121217,,,A*67
$GNRMC,211102.00,A,3114.53766,N,12117.69386,E,0.019,,121217,,,A*61
$GNRMC,211103.00,A,3114.53767,N,12117.69384,E,0.005,,121217,,,A*6E
$GNRMC,211104.00,A,3114.53768,N,12117.69382,E,0.008,,121217,,,A*6D
$GNRMC,211105.00,A,3114.53769,N,12117.69380,E,0.005,,121217,,,A*62
$GNRMC,211106.00,A,3114.53768,N,12117.69377,E,0.022,,121217,,,A*6D
$GNRMC,211107.00,A,3114.53767,N,12117.69373,E,0.013,,121217,,,A*65
$GNRMC,211108.00,A,3114.53766,N,12117.69369,E,0.005,,121217,,,A*67
$GNRMC,211109.00,A,3114.53764,N,12117.69365,E,0.014,,121217,,,A*68
$GNRMC,211110.00,A,3114.53761,N,12117.69362,E,0.004,,121217,,,A*63
$GNRMC,211111.00,A,3114.53759,N,12117.69357,E,0.010,,121217,,,A*6A
$GNRMC,211112.00,A,3114.53756,N,12117.69353,E,0.022,,121217,,,A*63
$GNRMC,211113.00,A,3114.53752,N,12117.69349,E,0.008,,121217,,,A*65
$GNRMC,211114.00,A,3114.53748,N,12117.69345,E,0.014,,121217,,,A*68
$GNRMC,211115.00,A,3114.53745,N,12117.69341,E,0.010,,121217,,,A*64
$GNRMC,211116.00,A,3114.53742,N,12117.69337,E,0.006,,121217,,,A*66
$GNRMC,211117.00,A,3114.53740,N,12117.69333,E,0.005,,121217,,,A*62
$GNRMC,211118.00,A,3114.53737,N,12117.69330,E,0.010,,121217,,,A*6A
$GNRMC,211119.00,A,3114.53736,N,12117.69327,E,0.010,,121217,,,A*6C
$GNRMC,211120.00,A,3114.53734,N,12117.69324,E,0.002,,121217,,,A*64
$GNRMC,211121.00,A,3114.53732,N,12117.69321,E,0.018,,121217,,,A*6D
$GNRMC,211122.00,A,3114.53730,N,12117.69318,E,0.025,,121217,,,A*68
$GNRMC,211123.00,A,3114.53729,N,12117.69316,E,0.005,,121217,,,A*6D
$GNRMC,211124.00,A,3114.53728,N,12117.69315,E,0.022,,121217,,,D*68
$GNRMC,211125.00,A,3114.53727,N,12117.69314,E,0.012,,121217,,,D*64
$GNRMC,211126.00,A,3114.53727,N,12117.69314,E,0.005,,121217,,,D*61
$GNRMC,211127.00,A,3114.53726,N,12117.69314,E,0.007,,121217,,,D*63
$GNRMC,211128.00,A,3114.53727,N,12117.69313,E,0.012,,121217,,,D*6E
$GNRMC,211129.00,A,3114.53726,N,12117.69313,E,0.010,,121217,,,D*6C
$GNRMC,211130.00,A,3114.53726,N,12117.69314,E,0.005,,121217,,,D*67
$GNRMC,211131.00,A,3114.53726,N,12117.69316,E,0.011,,121217,,,D*61
$GNRMC,211132.00,A,3114.53726,N,12117.69319,E,0.007,,121217,,,D*6A
$GNRMC,211133.00,A,3114.53726,N,12117.69321,E,0.004,,121217,,,D*63
$GNRMC,211134.00,A,3114.53726,N,12117.69323,E,0.008,,121217,,,D*6A
$GNRMC,211135.00,A,3114.53726,N,12117.69325,E,0.009,,121217,,,D*6C
$GNRMC,211136.00,A,3114.53727,N,12117.69328,E,0.012,,121217,,,D*69
$GNRMC,211137.00,A,3114.53727,N,12117.69330,E,0.007,,121217,,,D*65
$GNRMC,211138.00,A,3114.53727,N,12117.69333,E,0.009,,121217,,,D*67
$GNRMC,211139.00,A,3114.53726,N,12117.69335,E,0.007,,121217,,,D*6F
$GNRMC,211140.00,A,3114.53726,N,12117.69336,E,0.014,,121217,,,D*60
$GNRMC,211141.00,A,3114.53725,N,12117.69339,E,0.011,,121217,,,D*68
$GNRMC,211142.00,A,3114.53725,N,12117.69341,E,0.010,,121217,,,D*65
$GNRMC,211143.00,A,3114.53726,N,12117.69344,E,0.008,,121217,,,D*6B
$GNRMC,211144.00,A,3114.53726,N,12117.69346,E,0.002,,121217,,,D*64
$GNRMC,211145.00,A,3114.53727,N,12117.69349,E,0.006,,121217,,,D*6F
$GNRMC,211146.00,A,3114.53728,N,12117.69353,E,0.009,,121217,,,D*67
$GNRMC,211147.00,A,3114.53728,N,12117.69357,E,0.023,,121217,,,D*6A
$GNRMC,211148.00,A,3114.53729,N,12117.69361,E,0.005,,121217,,,D*65
$GNRMC,211149.00,A,3114.53730,N,12117.69364,E,0.007,,121217,,,D*6B
$GNRMC,211150.00,A,3114.53730,N,12117.69366,E,0.011,,121217,,,D*66
$GNRMC,211151.00,A,3114.53732,N,12117.69369,E,0.010,,121217,,,D*6B
$GNRMC,211152.00,A,3114.53734,N,12117.69371,E,0.013,,121217,,,D*64
$GNRMC,211153.00,A,3114.53735,N,12117.69374,E,0.009,,121217,,,D*6A
$GNRMC,211154.00,A,3114.53737,N,12117.69376,E,0.012,,121217,,,D*67
$GNRMC,211155.00,A,3114.53740,N,12117.69378,E,0.018,,121217,,,D*62
$GNRMC,211156.00,A,3114.53740,N,12117.69380,E,0.006,,121217,,,D*69
$GNRMC,211157.00,A,3114.53741,N,12117.69384,E,0.007,,121217,,,D*6C
$GNRMC,211158.00,A,3114.53741,N,12117.69389,E,0.000,,121217,,,D*69
$GNRMC,211159.00,A,3114.53741,N,12117.69392,E,0.014,,121217,,,D*67
$GNRMC,211200.00,A,3114.53741,N,12117.69397,E,0.007,,121217,,,D*6F
$GNRMC,211201.00,A,3114.53742,N,12117.69399,E,0.013,,121217,,,D*66
$GNRMC,211202.00,A,3114.53745,N,12117.69401,E,0.008,,121217,,,D*6E
$GNRMC,211203.00,A,3114.53748,N,12117.69403,E,0.007,,121217,,,D*6F
$GNRMC,211204.00,A,3114.53751,N,12117.69405,E,0.008,,121217,,,D*69
$GNRMC,211205.00,A,3114.53754,N,12117.69405,E,0.011,,121217,,,D*65
$GNRMC,211206.00,A,3114.53756,N,12117.69405,E,0.013,,121217,,,D*66
$GNRMC,211207.00,A,3114.53757,N,12117.69405,E,0.014,,121217,,,D*61
$GNRMC,211208.00,A,3114.53759,N,12117.69405,E,0.012,,121217,,,D*66
$GNRMC,211209.00,A,3114.53761,N,12117.69405,E,0.008,,121217,,,D*67
$GNRMC,211210.00,A,3114.53762,N,12117.69404,E,0.003,,121217,,,D*66
$GNRMC,211211.00,A,3114.53763,N,12117.69404,E,0.010,,121217,,,D*64
$GNRMC,211212.00,A,3114.53763,N,12117.69406,E,0.008,,121217,,,D*6C
$GNRMC,211213.00,A,3114.53763,N,12117.69408,E,0.012,,121217,,,D*68
$GNRMC,211214.00,A,3114.53763,N,12117.69411,E,0.009,,121217,,,D*6D
$GNRMC,211215.00,A,3114.53762,N,12117.69414,E,0.009,,121217,,,D*68
$GNRMC,211216.00,A,3114.53761,N,12117.69415,E,0.008,,121217,,,D*68
$GNRMC,211217.00,A,3114.53759,N,12117.69415,E,0.009,,121217,,,D*63
$GNRMC,211218.00,A,3114.53759,N,12117.69413,E,0.008,,121217,,,D*6B
$GNRMC,211219.00,A,3114.53759,N,12117.69412,E,0.008,,121217,,,D*6B
$GNRMC,211220.00,A,3114.53759,N,12117.69410,E,0.012,,121217,,,D*68
$GNRMC,211221.00,A,3114.53758,N,12117.69409,E,0.014,,121217,,,D*66
$GNRMC,211222.00,A,3114.53756,N,12117.69409,E,0.006,,121217,,,D*68
$GNRMC,211223.00,A,3114.53753,N,12117.69408,E,0.012,,121217,,,D*68
$GNRMC,211224.00,A,3114.53751,N,12117.69407,E,0.005,,121217,,,D*64
$GNRMC,211225.00,A,3114.53749,N,12117.69408,E,0.010,,121217,,,D*67
$GNRMC,211226.00,A,3114.53745,N,12117.69411,E,0.012,,121217,,,D*62
$GNRMC,211227.00,A,3114.53740,N,12117.69415,E,0.010,,121217,,,D*60
$GNRMC,211228.00,A,3114.53735,N,12117.69417,E,0.016,,121217,,,D*69
$GNRMC,211229.00,A,3114.53731,N,12117.69420,E,0.009,,121217,,,D*66
$GNRMC,211230.00,A,3114.53727,N,12117.69421,E,0.016,,121217,,,D*66
$GNRMC,211231.00,A,3114.53723,N,12117.69421,E,0.010,,121217,,,D*65
$GNRMC,211232.00,A,3114.53719,N,12117.69420,E,0.011,,121217,,,D*6F
$GNRMC,211233.00,A,3114.53714,N,12117.69420,E,0.014,,121217,,,D*66
$GNRMC,211234.00,A,3114.53710,N,12117.69419,E,0.014,,121217,,,D*6F
$GNRMC,211235.00,A,3114.53707,N,12117.69418,E,0.012,,121217,,,D*6F
$GNRMC,211236.00,A,3114.53705,N,12117.69418,E,0.008,,121217,,,D*65
$GNRMC,211237.00,A,3114.53703,N,12117.69417,E,0.010,,121217,,,D*64
$GNRMC,211238.00,A,3114.53700,N,12117.69417,E,0.004,,121217,,,D*6D
$GNRMC,211239.00,A,3114.53698,N,12117.69417,E,0.008,,121217,,,D*60
$GNRMC,211240.00,A,3114.53695,N,12117.69417,E,0.006,,121217,,,D*6D
$GNRMC,211241.00,A,3114.53692,N,12117.69418,E,0.009,,121217,,,D*6B
$GNRMC,211242.00,A,3114.53689,N,12117.69416,E,0.022,,121217,,,D*65
$GNRMC,211243.00,A,3114.53685,N,12117.69415,E,0.013,,121217,,,D*69
$GNRMC,211244.00,A,3114.53684,N,12117.69412,E,0.004,,121217,,,D*6E
$GNRMC,211245.00,A,3114.53683,N,12117.69410,E,0.009,,121217,,,D*67
$GNRMC,211246.00,A,3114.53682,N,12117.69408,E,0.017,,121217,,,D*63
$GNRMC,211247.00,A,3114.53682,N,12117.69406,E,0.022,,121217,,,D*6A
$GNRMC,211248.00,A,3114.53681,N,12117.69404,E,0.008,,121217,,,D*6C
$GNRMC,211249.00,A,3114.53678,N,12117.69402,E,0.014,,121217,,,D*60
$GNRMC,211250.00,A,3114.53675,N,12117.69401,E,0.010,,121217,,,D*62
$GNRMC,211251.00,A,3114.53671,N,12117.69401,E,0.015,,121217,,,D*62
$GNRMC,211252.00,A,3114.53666,N,12117.69399,E,0.022,,121217,,,D*65
$GNRMC,211253.00,A,3114.53664,N,12117.69398,E,0.009,,121217,,,D*6E
$GNRMC,211254.00,A,3114.53661,N,12117.69396,E,0.001,,121217,,,D*6A
$GNRMC,211255.00,A,3114.53658,N,12117.69394,E,0.016,,121217,,,D*65
$GNRMC,211256.00,A,3114.53655,N,12117.69392,E,0.015,,121217,,,D*6E
$GNRMC,211257.00,A,3114.53652,N,12117.69389,E,0.012,,121217,,,D*65
$GNRMC,211258.00,A,3114.53651,N,12117.69387,E,0.015,,121217,,,D*60
$GNRMC,211259.00,A,3114.53649,N,12117.69385,E,0.011,,121217,,,D*6E
$GNRMC,211300.00,A,3114.53648,N,12117.69383,E,0.007,,121217,,,D*63
$GNRMC,211301.00,A,3114.53646,N,12117.69381,E,0.015,,121217,,,D*6D
$GNRMC,211302.00,A,3114.53645,N,12117.69380,E,0.029,,121217,,,D*63
$GNRMC,211303.00,A,3114.53645,N,12117.69378,E,0.010,,121217,,,D*6F
$GNRMC,211304.00,A,3114.53643,N,12117.69378,E,0.016,,121217,,,D*68
$GNRMC,211305.00,A,3114.53641,N,12117.69377,E,0.013,,121217,,,D*61
$GNRMC,211306.00,A,3114.53639,N,12117.69375,E,0.009,,121217,,,D*64
$GNRMC,211307.00,A,3114.53638,N,12117.69374,E,0.017,,121217,,,D*6A
$GNRMC,211308.00,A,3114.53637,N,12117.69372,E,0.010,,121217,,,D*6B
$GNRMC,211309.00,A,3114.53637,N,12117.69370,E,0.013,,121217,,,D*6B
$GNRMC,211310.00,A,3114.53638,N,12117.69369,E,0.003,,121217,,,D*65
$GNRMC,211311.00,A,3114.53638,N,12117.69367,E,0.012,,121217,,,D*6A
$GNRMC,211312.00,A,3114.53637,N,12117.69366,E,0.035,,121217,,,D*62
$GNRMC,211313.00,A,3114.53637,N,12117.69364,E,0.020,,121217,,,D*65
$GNRMC,211314.00,A,3114.53637,N,12117.69362,E,0.004,,121217,,,D*62
$GNRMC,211315.00,A,3114.53636,N,12117.69360,E,0.015,,121217,,,D*60
$GNRMC,211316.00,A,3114.53636,N,12117.69358,E,0.007,,121217,,,D*6B
$GNRMC,211317.00,A,3114.53636,N,12117.69355,E,0.013,,121217,,,D*62
$GNRMC,211318.00,A,3114.53637,N,12117.69352,E,0.019,,121217,,,D*61
$GNRMC,211319.00,A,3114.53638,N,12117.69349,E,0.008,,121217,,,D*65
$GNRMC,211320.00,A,3114.53640,N,12117.69346,E,0.004,,121217,,,D*63
$GNRMC,211321.00,A,3114.53643,N,12117.69342,E,0.006,,121217,,,D*67
$GNRMC,211322.00,A,3114.53646,N,12117.69339,E,0.015,,121217,,,D*6F
$GNRMC,211323.00,A,3114.53650,N,12117.69335,E,0.008,,121217,,,D*69
$GNRMC,211324.00,A,3114.53653,N,12117.69331,E,0.009,,121217,,,D*68
$GNRMC,211325.00,A,3114.53656,N,12117.69328,E,0.003,,121217,,,D*6E
$GNRMC,211326.00,A,3114.53659,N,12117.69324,E,0.021,,121217,,,D*6E
$GNRMC,211327.00,A,3114.53662,N,12117.69321,E,0.003,,121217,,,D*62
$GNRMC,211328.00,A,3114.53665,N,12117.69318,E,0.008,,121217,,,D*6B
$GNRMC,211329.00,A,3114.53668,N,12117.69315,E,0.005,,121217,,,D*67
$GNRMC,211330.00,A,3114.53670,N,12117.69313,E,0.011,,121217,,,D*65
$GNRMC,211331.00,A,3114.53672,N,12117.69312,E,0.016,,121217,,,D*60
$GNRMC,211332.00,A,3114.53673,N,12117.69309,E,0.016,,121217,,,D*68
$GNRMC,211333.00,A,3114.53674,N,12117.69308,E,0.011,,121217,,,D*68
$GNRMC,211334.00,A,3114.53675,N,12117.69307,E,0.009,,121217,,,D*68
$GNRMC,211335.00,A,3114.53675,N,12117.69307,E,0.018,,121217,,,D*69
$GNRMC,211336.00,A,3114.53676,N,12117.69307,E,0.008,,121217,,,D*68
$GNRMC,211337.00,A,3114.53677,N,12117.69307,E,0.012,,121217,,,D*63
$GNRMC,211338.00,A,3114.53678,N,12117.69307,E,0.006,,121217,,,D*66
$GNRMC,211339.00,A,3114.53678,N,12117.69306,E,0.015,,121217,,,D*64
$GNRMC,211340.00,A,3114.53679,N,12117.69306,E,0.005,,121217,,,D*6A
$GNRMC,211341.00,A,3114.53681,N,12117.69307,E,0.007,,121217,,,D*6F
$GNRMC,211342.00,A,3114.53684,N,12117.69308,E,0.018,,121217,,,D*68
$GNRMC,211343.00,A,3114.53687,N,12117.69308,E,0.008,,121217,,,D*6B
$GNRMC,211344.00,A,3114.53689,N,12117.69309,E,0.008,,121217,,,D*63
$GNRMC,211345.00,A,3114.53693,N,12117.69309,E,0.008,,121217,,,D*69
$GNRMC,211346.00,A,3114.53696,N,12117.69309,E,0.005,,121217,,,D*62
$GNRMC,211347.00,A,3114.53699,N,12117.69309,E,0.012,,121217,,,D*6A
$GNRMC,211348.00,A,3114.53703,N,12117.69309,E,0.004,,121217,,,D*60
$GNRMC,211349.00,A,3114.53706,N,12117.69309,E,0.008,,121217,,,D*68
$GNRMC,211350.00,A,3114.53709,N,12117.69313,E,0.006,,121217,,,D*6A
$GNRMC,211351.00,A,3114.53711,N,12117.69316,E,0.008,,121217,,,D*69
$GNRMC,211352.00,A,3114.53712,N,12117.69320,E,0.014,,121217,,,D*61
$GNRMC,211353.00,A,3114.53711,N,12117.69323,E,0.008,,121217,,,D*6D
$GNRMC,211354.00,A,3114.53711,N,12117.69326,E,0.008,,121217,,,D*6F
$GNRMC,211355.00,A,3114.53709,N,12117.69328,E,0.012,,121217,,,D*62
$GNRMC,211356.00,A,3114.53709,N,12117.69330,E,0.002,,121217,,,D*69
$GNRMC,211357.00,A,3114.53709,N,12117.69331,E,0.005,,121217,,,D*6E
$GNRMC,211358.00,A,3114.53709,N,12117.69333,E,0.008,,121217,,,D*6E
$GNRMC,211359.00,A,3114.53709,N,12117.69334,E,0.016,,121217,,,D*67
$GNRMC,211400.00,A,3114.53708,N,12117.69335,E,0.013,,121217,,,D*69
$GNRMC,211401.00,A,3114.53706,N,12117.69336,E,0.015,,121217,,,D*63
$GNRMC,211402.00,A,3114.53703,N,12117.69336,E,0.018,,121217,,,D*68
$GNRMC,211403.00,A,3114.53700,N,12117.69338,E,0.015,,121217,,,D*69
$GNRMC,211404.00,A,3114.53698,N,12117.69338,E,0.007,,121217,,,D*6D
$GNRMC,211405.00,A,3114.53695,N,12117.69340,E,0.008,,121217,,,D*61
$GNRMC,211406.00,A,3114.53694,N,12117.69341,E,0.015,,121217,,,D*6E
$GNRMC,211407.00,A,3114.53692,N,12117.69343,E,0.013,,121217,,,D*6D
$GNRMC,211408.00,A,3114.53690,N,12117.69347,E,0.005,,121217,,,D*63
$GNRMC,211409.00,A,3114.53689,N,12117.69351,E,0.012,,121217,,,D*6B
$GNRMC,211410.00,A,3114.53688,N,12117.69354,E,0.007,,121217,,,D*63
$GNRMC,211411.00,A,3114.53687,N,12117.69359,E,0.011,,121217,,,D*67
$GNRMC,211412.00,A,3114.53685,N,12117.69364,E,0.008,,121217,,,D*60
$GNRMC,211413.00,A,3114.53684,N,12117.69369,E,0.008,,121217,,,D*6D
$GNRMC,211414.00,A,3114.53683,N,12117.69374,E,0.007,,121217,,,D*6E
$GNRMC,211415.00,A,3114.53683,N,12117.69378,E,0.005,,121217,,,D*61
$GNRMC,211416.00,A,3114.53682,N,12117.69382,E,0.012,,121217,,,D*60
$GNRMC,211417.00,A,3114.53682,N,12117.69386,E,0.012,,121217,,,D*65
$GNRMC,211418.00,A,3114.53682,N,12117.69389,E,0.012,,121217,,,D*65
$GNRMC,211419.00,A,3114.53683,N,12117.69392,E,0.012,,121217,,,D*6F
$GNRMC,211420.00,A,3114.53684,N,12117.69396,E,0.008,,121217,,,D*6D
$GNRMC,211421.00,A,3114.53684,N,12117.69400,E,0.008,,121217,,,D*64
$GNRMC,211422.00,A,3114.53684,N,12117.69405,E,0.010,,121217,,,D*6B
$GNRMC,211423.00,A,3114.53684,N,12117.69409,E,0.009,,121217,,,D*6E
$GNRMC,211424.00,A,3114.53684,N,12117.69414,E,0.011,,121217,,,D*6C
$GNRMC,211425.00,A,3114.53685,N,12117.69417,E,0.013,,121217,,,D*6D
$GNRMC,211426.00,A,3114.53686,N,12117.69420,E,0.009,,121217,,,D*62
$GNRMC,211427.00,A,3114.53686,N,12117.69422,E,0.007,,121217,,,D*6F
$GNRMC,211428.00,A,3114.53686,N,12117.69425,E,0.008,,121217,,,D*68
$GNRMC,211429.00,A,3114.53686,N,12117.69427,E,0.010,,121217,,,D*62
$GNRMC,211430.00,A,3114.53685,N,12117.69429,E,0.002,,121217,,,D*64
$GNRMC,211431.00,A,3114.53685,N,12117.69431,E,0.003,,121217,,,D*6D
$GNRMC,211432.00,A,3114.53685,N,12117.69433,E,0.017,,121217,,,D*69
$GNRMC,211433.00,A,3114.53685,N,12117.69435,E,0.011,,121217,,,D*68
$GNRMC,211434.00,A,3114.53686,N,12117.69436,E,0.003,,121217,,,D*6C
$GNRMC,211435.00,A,3114.53687,N,12117.69438,E,0.003,,121217,,,D*62
$GNRMC,211436.00,A,3114.53687,N,12117.69439,E,0.009,,121217,,,D*6A
$GNRMC,211437.00,A,3114.53688,N,12117.69439,E,0.007,,121217,,,D*6A
$GNRMC,211438.00,A,3114.53690,N,12117.69439,E,0.010,,121217,,,D*6A
$GNRMC,211439.00,A,3114.53693,N,12117.69439,E,0.001,,121217,,,D*68
$GNRMC,211440.00,A,3114.53694,N,12117.69438,E,0.005,,121217,,,D*64
$GNRMC,211441.00,A,3114.53695,N,12117.69438,E,0.011,,121217,,,D*61
$GNRMC,211442.00,A,3114.53695,N,12117.69439,E,0.013,,121217,,,D*61
$GNRMC,211443.00,A,3114.53696,N,12117.69439,E,0.006,,121217,,,D*67
$GNRMC,211444.00,A,3114.53697,N,12117.69439,E,0.007,,121217,,,D*60
$GNRMC,211445.00,A,3114.53698,N,12117.69439,E,0.012,,121217,,,D*6A
$GNRMC,211446.00,A,3114.53700,N,12117.69438,E,0.006,,121217,,,D*6D
$GNRMC,211447.00,A,3114.53702,N,12117.69437,E,0.009,,121217,,,D*6E
$GNRMC,211448.00,A,3114.53704,N,12117.69437,E,0.005,,121217,,,D*6B
$GNRMC,211449.00,A,3114.53707,N,12117.69436,E,0.008,,121217,,,D*65
$GNRMC,211450.00,A,3114.53709,N,12117.69435,E,0.004,,121217,,,D*6C
$GNRMC,211451.00,A,3114.53711,N,12117.69434,E,0.010,,121217,,,D*60
$GNRMC,211452.00,A,3114.53714,N,12117.69432,E,0.014,,121217,,,D*64
$GNRMC,211453.00,A,3114.53717,N,12117.69431,E,0.007,,121217,,,D*67
$GNRMC,211454.00,A,3114.53720,N,12117.69430,E,0.002,,121217,,,D*60
$GNRMC,211455.00,A,3114.53721,N,12117.69428,E,0.009,,121217,,,D*62
$GNRMC,211456.00,A,3114.53724,N,12117.69427,E,0.003,,121217,,,D*61
$GNRMC,211457.00,A,3114.53726,N,12117.69425,E,0.012,,121217,,,D*60
$GNRMC,211458.00,A,3114.53727,N,12117.69424,E,0.015,,121217,,,D*68
$GNRMC,211459.00,A,3114.53728,N,12117.69422,E,0.012,,121217,,,D*67
$GNRMC,211500.00,A,3114.53729,N,12117.69420,E,0.009,,121217,,,D*63
$GNRMC,211501.00,A,3114.53729,N,12117.69419,E,0.012,,121217,,,D*62
$GNRMC,211502.00,A,3114.53730,N,12117.69420,E,0.015,,121217,,,D*64
$GNRMC,211503.00,A,3114.53730,N,12117.69420,E,0.014,,121217,,,D*64
$GNRMC,211504.00,A,3114.53730,N,12117.69422,E,0.005,,121217,,,D*61
$GNRMC,211505.00,A,3114.53729,N,12117.69425,E,0.007,,121217,,,D*6D
$GNRMC,211506.00,A,3114.53727,N,12117.69428,E,0.006,,121217,,,D*6C
$GNRMC,211507.00,A,3114.53726,N,12117.69430,E,0.004,,121217,,,D*67
$GNRMC,211508.00,A,3114.53725,N,12117.69432,E,0.009,,121217,,,D*64
$GNRMC,211509.00,A,3114.53723,N,12117.69434,E,0.009,,121217,,,D*65
$GNRMC,211510.00,A,3114.53721,N,12117.69437,E,0.008,,121217,,,D*6D
$GNRMC,211511.00,A,3114.53719,N,12117.69438,E,0.013,,121217,,,D*62
$GNRMC,211512.00,A,3114.53718,N,12117.69440,E,0.004,,121217,,,D*69
$GNRMC,211513.00,A,3114.53716,N,12117.69442,E,0.009,,121217,,,D*69
$GNRMC,211514.00,A,3114.53715,N,12117.69443,E,0.006,,121217,,,D*63
$GNRMC,211515.00,A,3114.53713,N,12117.69445,E,0.005,,121217,,,D*61
$GNRMC,211516.00,A,3114.53711,N,12117.69447,E,0.008,,121217,,,D*6F
$GNRMC,211517.00,A,3114.53710,N,12117.69448,E,0.007,,121217,,,D*6F
$GNRMC,211518.00,A,3114.53709,N,12117.69449,E,0.010,,121217,,,D*6F
$GNRMC,211519.00,A,3114.53708,N,12117.69452,E,0.005,,121217,,,D*61
$GNRMC,211520.00,A,3114.53707,N,12117.69453,E,0.006,,121217,,,D*66
$GNRMC,211521.00,A,3114.53705,N,12117.69454,E,0.017,,121217,,,D*62
$GNRMC,211522.00,A,3114.53703,N,12117.69453,E,0.017,,121217,,,D*60
$GNRMC,211523.00,A,3114.53700,N,12117.69453,E,0.009,,121217,,,D*6D
$GNRMC,211524.00,A,3114.53698,N,12117.69452,E,0.016,,121217,,,D*65
$GNRMC,211525.00,A,3114.53697,N,12117.69452,E,0.005,,121217,,,D*69
$GNRMC,211526.00,A,3114.53696,N,12117.69451,E,0.005,,121217,,,D*68
$GNRMC,211527.00,A,3114.53696,N,12117.69449,E,0.007,,121217,,,D*62
$GNRMC,211528.00,A,3114.53695,N,12117.69448,E,0.006,,121217,,,D*6E
$GNRMC,211529.00,A,3114.53695,N,12117.69447,E,0.011,,121217,,,D*66
$GNRMC,211530.00,A,3114.53694,N,12117.69446,E,0.011,,121217,,,D*6E
$GNRMC,211531.00,A,3114.53694,N,12117.69444,E,0.008,,121217,,,D*65
$GNRMC,211532.00,A,3114.53694,N,12117.69442,E,0.009,,121217,,,D*61
$GNRMC,211533.00,A,3114.53692,N,12117.69440,E,0.010,,121217,,,D*6C
$GNRMC,211534.00,A,3114.53691,N,12117.69439,E,0.008,,121217,,,D*6F
$GNRMC,211535.00,A,3114.53691,N,12117.69437,E,0.019,,121217,,,D*60
$GNRMC,211536.00,A,3114.53689,N,12117.69435,E,0.011,,121217,,,D*60
$GNRMC,211537.00,A,3114.53688,N,12117.69432,E,0.009,,121217,,,D*6E
$GNRMC,211538.00,A,3114.53689,N,12117.69429,E,0.013,,121217,,,D*61
$GNRMC,211539.00,A,3114.53689,N,12117.69425,E,0.014,,121217,,,D*6B
$GNRMC,211540.00,A,3114.53689,N,12117.69422,E,0.006,,121217,,,D*61
$GNRMC,211541.00,A,3114.53689,N,12117.69420,E,0.008,,121217,,,D*6C
$GNRMC,211542.00,A,3114.53689,N,12117.69418,E,0.009,,121217,,,D*65
$GNRMC,211543.00,A,3114.53691,N,12117.69418,E,0.002,,121217,,,D*66
$GNRMC,211544.00,A,3114.53693,N,12117.69419,E,0.015,,121217,,,D*64
$GNRMC,211545.00,A,3114.53695,N,12117.69420,E,0.017,,121217,,,D*6B
$GNRMC,211546.00,A,3114.53697,N,12117.69421,E,0.011,,121217,,,D*6D
$GNRMC,211547.00,A,3114.53699,N,12117.69423,E,0.008,,121217,,,D*68
$GNRMC,211548.00,A,3114.53700,N,12117.69423,E,0.016,,121217,,,D*69
$GNRMC,211549.00,A,3114.53702,N,12117.69424,E,0.007,,121217,,,D*6D
$GNRMC,211550.00,A,3114.53703,N,12117.69425,E,0.008,,121217,,,D*6A
$GNRMC,211551.00,A,3114.53704,N,12117.69426,E,0.005,,121217,,,D*62
$GNRMC,211552.00,A,3114.53705,N,12117.69426,E,0.012,,121217,,,D*66
$GNRMC,211553.00,A,3114.53705,N,12117.69426,E,0.008,,121217,,,D*6C
$GNRMC,211554.00,A,3114.53706,N,12117.69426,E,0.004,,121217,,,D*64
$GNRMC,211555.00,A,3114.53706,N,12117.69428,E,0.013,,121217,,,D*6D
$GNRMC,211556.00,A,3114.53706,N,12117.69428,E,0.014,,121217,,,D*69
$GNRMC,211557.00,A,3114.53705,N,12117.69430,E,0.011,,121217,,,D*67
$GNRMC,211558.00,A,3114.53704,N,12117.69431,E,0.005,,121217,,,D*6D
$GNRMC,211559.00,A,3114.53703,N,12117.69432,E,0.007,,121217,,,D*6A
$GNRMC,211600.00,A,3114.53702,N,12117.69434,E,0.007,,121217,,,D*62
$GNRMC,211601.00,A,3114.53703,N,12117.69435,E,0.006,,121217,,,D*62
$GNRMC,211602.00,A,3114.53703,N,12117.69438,E,0.003,,121217,,,D*69
$GNRMC,211603.00,A,3114.53703,N,12117.69440,E,0.008,,121217,,,D*6C
$GNRMC,211604.00,A,3114.53704,N,12117.69442,E,0.004,,121217,,,D*62
$GNRMC,211605.00,A,3114.53706,N,12117.69444,E,0.005,,121217,,,D*66
$GNRMC,211606.00,A,3114.53708,N,12117.69445,E,0.012,,121217,,,D*6C
$GNRMC,211607.00,A,3114.53711,N,12117.69445,E,0.011,,121217,,,D*66
$GNRMC,211608.00,A,3114.53714,N,12117.69447,E,0.003,,121217,,,D*6D
$GNRMC,211609.00,A,3114.53716,N,12117.69449,E,0.003,,121217,,,D*60
$GNRMC,211610.00,A,3114.53718,N,12117.69450,E,0.007,,121217,,,D*6A
$GNRMC,211611.00,A,3114.53720,N,12117.69451,E,0.008,,121217,,,D*6E
$GNRMC,211612.00,A,3114.53722,N,12117.69452,E,0.015,,121217,,,D*60
$GNRMC,211613.00,A,3114.53723,N,12117.69454,E,0.007,,121217,,,D*65
$GNRMC,211614.00,A,3114.53725,N,12117.69456,E,0.008,,121217,,,D*69
$GNRMC,211615.00,A,3114.53726,N,12117.69458,E,0.015,,121217,,,D*69
$GNRMC,211616.00,A,3114.53729,N,12117.69458,E,0.014,,121217,,,D*64
$GNRMC,211617.00,A,3114.53733,N,12117.69458,E,0.004,,121217,,,D*6F
$GNRMC,211618.00,A,3114.53735,N,12117.69455,E,0.014,,121217,,,D*6A
$GNRMC,211619.00,A,3114.53739,N,12117.69453,E,0.008,,121217,,,D*6C
$GNRMC,211620.00,A,3114.53742,N,12117.69451,E,0.012,,121217,,,D*63
$GNRMC,211621.00,A,3114.53746,N,12117.69449,E,0.010,,121217,,,D*6D
$GNRMC,211622.00,A,3114.53750,N,12117.69447,E,0.021,,121217,,,D*65
$GNRMC,211623.00,A,3114.53753,N,12117.69445,E,0.017,,121217,,,D*60
$GNRMC,211624.00,A,3114.53757,N,12117.69442,E,0.002,,121217,,,D*60
$GNRMC,211625.00,A,3114.53761,N,12117.69439,E,0.004,,121217,,,D*6E
$GNRMC,211626.00,A,3114.53764,N,12117.69436,E,0.010,,121217,,,D*62
$GNRMC,211627.00,A,3114.53768,N,12117.69432,E,0.010,,121217,,,D*6B
$GNRMC,211628.00,A,3114.53771,N,12117.69428,E,0.006,,121217,,,D*60
$GNRMC,211629.00,A,3114.53773,N,12117.69425,E,0.008,,121217,,,D*60
$GNRMC,211630.00,A,3114.53775,N,12117.69421,E,0.008,,121217,,,D*6A
$GNRMC,211631.00,A,3114.53779,N,12117.69416,E,0.024,,121217,,,D*6D
$GNRMC,211632.00,A,3114.53781,N,12117.69411,E,0.009,,121217,,,D*61
$GNRMC,211633.00,A,3114.53784,N,12117.69407,E,0.020,,121217,,,D*69
$GNRMC,211634.00,A,3114.53787,N,12117.69402,E,0.012,,121217,,,D*69
$GNRMC,211635.00,A,3114.53790,N,12117.69398,E,0.007,,121217,,,D*6E
$GNRMC,211636.00,A,3114.53793,N,12117.69394,E,0.010,,121217,,,D*64
$GNRMC,211637.00,A,3114.53796,N,12117.69391,E,0.013,,121217,,,D*66
$GNRMC,211638.00,A,3114.53797,N,12117.69388,E,0.010,,121217,,,D*63
$GNRMC,211639.00,A,3114.53798,N,12117.69384,E,0.006,,121217,,,D*66
$GNRMC,211640.00,A,3114.53801,N,12117.69380,E,0.018,,121217,,,D*6C
$GNRMC,211641.00,A,3114.53804,N,12117.69377,E,0.010,,121217,,,D*68
$GNRMC,211642.00,A,3114.53804,N,12117.69374,E,0.003,,121217,,,D*6A
$GNRMC,211643.00,A,3114.53806,N,12117.69372,E,0.003,,121217,,,D*6F
$GNRMC,211644.00,A,3114.53807,N,12117.69369,E,0.019,,121217,,,D*68
$GNRMC,211645.00,A,3114.53808,N,12117.69368,E,0.006,,121217,,,D*69
$GNRMC,211646.00,A,3114.53810,N,12117.69367,E,0.007,,121217,,,D*6D
$GNRMC,211647.00,A,3114.53812,N,12117.69366,E,0.004,,121217,,,D*6C
$GNRMC,211648.00,A,3114.53814,N,12117.69366,E,0.016,,121217,,,D*66
$GNRMC,211649.00,A,3114.53816,N,12117.69367,E,0.010,,121217,,,D*62
$GNRMC,211650.00,A,3114.53816,N,12117.69368,E,0.017,,121217,,,D*62
$GNRMC,211651.00,A,3114.53817,N,12117.69370,E,0.015,,121217,,,D*69
$GNRMC,211652.00,A,3114.53817,N,12117.69371,E,0.005,,121217,,,D*6A
$GNRMC,211653.00,A,3114.53816,N,12117.69371,E,0.005,,121217,,,D*6A
$GNRMC,211654.00,A,3114.53817,N,12117.69370,E,0.004,,121217,,,D*6C
$GNRMC,211655.00,A,3114.53816,N,12117.69370,E,0.015,,121217,,,D*6C
$GNRMC,211656.00,A,3114.53815,N,12117.69370,E,0.001,,121217,,,D*69
$GNRMC,211657.00,A,3114.53815,N,12117.69370,E,0.001,,121217,,,D*68
$GNRMC,211658.00,A,3114.53813,N,12117.69371,E,0.005,,121217,,,D*64
$GNRMC,211659.00,A,3114.53813,N,12117.69372,E,0.015,,121217,,,D*67
$GNRMC,211700.00,A,3114.53811,N,12117.69374,E,0.003,,121217,,,D*69
$GNRMC,211701.00,A,3114.53809,N,12117.69374,E,0.013,,121217,,,D*60
$GNRMC,211702.00,A,3114.53807,N,12117.69374,E,0.004,,121217,,,D*6B
$GNRMC,211703.00,A,3114.53805,N,12117.69375,E,0.013,,121217,,,D*6F
$GNRMC,211704.00,A,3114.53802,N,12117.69376,E,0.010,,121217,,,D*6F
$GNRMC,211705.00,A,3114.53798,N,12117.69378,E,0.012,,121217,,,D*6E
$GNRMC,211706.00,A,3114.53797,N,12117.69379,E,0.004,,121217,,,D*64
$GNRMC,211707.00,A,3114.53796,N,12117.69381,E,0.007,,121217,,,D*60
$GNRMC,211708.00,A,3114.53795,N,12117.69383,E,0.010,,121217,,,D*68
$GNRMC,211709.00,A,3114.53793,N,12117.69384,E,0.009,,121217,,,D*60
$GNRMC,211710.00,A,3114.53791,N,12117.69386,E,0.016,,121217,,,D*66
$GNRMC,211711.00,A,3114.53789,N,12117.69388,E,0.016,,121217,,,D*60
$GNRMC,211712.00,A,3114.53788,N,12117.69390,E,0.012,,121217,,,D*6F
$GNRMC,211713.00,A,3114.53787,N,12117.69390,E,0.009,,121217,,,D*6B
$GNRMC,211714.00,A,3114.53787,N,12117.69390,E,0.006,,121217,,,D*63
$GNRMC,211715.00,A,3114.53787,N,12117.69390,E,0.009,,121217,,,D*6D
$GNRMC,211716.00,A,3114.53787,N,12117.69390,E,0.016,,121217,,,D*60
$GNRMC,211717.00,A,3114.53787,N,12117.69390,E,0.014,,121217,,,D*63
$GNRMC,211718.00,A,3114.53787,N,12117.69390,E,0.013,,121217,,,D*6B
$GNRMC,211719.00,A,3114.53787,N,12117.69390,E,0.015,,121217,,,D*6C
$GNRMC,211720.00,A,3114.53787,N,12117.69391,E,0.006,,121217,,,D*65
$GNRMC,211721.00,A,3114.53787,N,12117.69392,E,0.008,,121217,,,D*69
$GNRMC,211722.00,A,3114.53787,N,12117.69393,E,0.013,,121217,,,D*61
$GNRMC,211723.00,A,3114.53787,N,12117.69393,E,0.013,,121217,,,D*60
$GNRMC,211724.00,A,3114.53786,N,12117.69395,E,0.006,,121217,,,D*64
$GNRMC,211725.00,A,3114.53785,N,12117.69397,E,0.022,,121217,,,D*62
$GNRMC,211726.00,A,3114.53786,N,12117.69398,E,0.009,,121217,,,D*64
$GNRMC,211727.00,A,3114.53785,N,12117.69398,E,0.003,,121217,,,D*6C
$GNRMC,211728.00,A,3114.53785,N,12117.69399,E,0.011,,121217,,,D*61
$GNRMC,211729.00,A,3114.53785,N,12117.69400,E,0.016,,121217,,,D*60
$GNRMC,211730.00,A,3114.53784,N,12117.69402,E,0.021,,121217,,,D*6F
$GNRMC,211731.00,A,3114.53783,N,12117.69403,E,0.018,,121217,,,D*62
$GNRMC,211732.00,A,3114.53782,N,12117.69404,E,0.016,,121217,,,D*69
$GNRMC,211733.00,A,3114.53782,N,12117.69404,E,0.017,,121217,,,D*69
$GNRMC,211734.00,A,3114.53782,N,12117.69404,E,0.017,,121217,,,D*6E
$GNRMC,211735.00,A,3114.53783,N,12117.69404,E,0.005,,121217,,,D*6D
$GNRMC,211736.00,A,3114.53783,N,12117.69404,E,0.005,,121217,,,D*6E
$GNRMC,211737.00,A,3114.53783,N,12117.69405,E,0.015,,121217,,,D*6F
$GNRMC,211738.00,A,3114.53782,N,12117.69406,E,0.012,,121217,,,D*65
$GNRMC,211739.00,A,3114.53782,N,12117.69407,E,0.002,,121217,,,D*64
$GNRMC,211740.00,A,3114.53781,N,12117.69409,E,0.013,,121217,,,D*67
$GNRMC,211741.00,A,3114.53779,N,12117.69410,E,0.009,,121217,,,D*62
$GNRMC,211742.00,A,3114.53779,N,12117.69412,E,0.016,,121217,,,D*6D
$GNRMC,211743.00,A,3114.53778,N,12117.69413,E,0.013,,121217,,,D*69
$GNRMC,211744.00,A,3114.53777,N,12117.69415,E,0.017,,121217,,,D*63
$GNRMC,211745.00,A,3114.53776,N,12117.69416,E,0.020,,121217,,,D*64
$GNRMC,211746.00,A,3114.53774,N,12117.69417,E,0.014,,121217,,,D*63
$GNRMC,211747.00,A,3114.53773,N,12117.69418,E,0.020,,121217,,,D*6D
$GNRMC,211748.00,A,3114.53773,N,12117.69419,E,0.014,,121217,,,D*64
$GNRMC,211749.00,A,3114.53773,N,12117.69419,E,0.017,,121217,,,D*66
$GNRMC,211750.00,A,3114.53773,N,12117.69419,E,0.003,,121217,,,D*6B
$GNRMC,211751.00,A,3114.53774,N,12117.69420,E,0.008,,121217,,,D*6C
$GNRMC,211752.00,A,3114.53774,N,12117.69420,E,0.010,,121217,,,D*66
$GNRMC,211753.00,A,3114.53775,N,12117.69421,E,0.011,,121217,,,D*66
$GNRMC,211754.00,A,3114.53775,N,12117.69421,E,0.007,,121217,,,D*66
$GNRMC,211755.00,A,3114.53775,N,12117.69422,E,0.017,,121217,,,D*65
$GNRMC,211756.00,A,3114.53774,N,12117.69424,E,0.005,,121217,,,D*62
$GNRMC,211757.00,A,3114.53773,N,12117.69424,E,0.016,,121217,,,D*66
$GNRMC,211758.00,A,3114.53773,N,12117.69425,E,0.013,,121217,,,D*6D
$GNRMC,211759.00,A,3114.53773,N,12117.69426,E,0.015,,121217,,,D*69
$GNRMC,211800.00,A,3114.53772,N,12117.69427,E,0.014,,121217,,,D*6B
$GNRMC,211801.00,A,3114.53772,N,12117.69429,E,0.004,,121217,,,D*65
$GNRMC,211802.00,A,3114.53772,N,12117.69430,E,0.012,,121217,,,D*69
$GNRMC,211803.00,A,3114.53772,N,12117.69432,E,0.013,,121217,,,D*6B
$GNRMC,211804.00,A,3114.53771,N,12117.69434,E,0.014,,121217,,,D*6E
$GNRMC,211805.00,A,3114.53770,N,12117.69436,E,0.009,,121217,,,D*60
$GNRMC,211806.00,A,3114.53770,N,12117.69437,E,0.011,,121217,,,D*6B
$GNRMC,211807.00,A,3114.53769,N,12117.69439,E,0.010,,121217,,,D*6D
$GNRMC,211808.00,A,3114.53769,N,12117.69440,E,0.010,,121217,,,D*6C
$GNRMC,211809.00,A,3114.53768,N,12117.69442,E,0.007,,121217,,,D*68
$GNRMC,211810.00,A,3114.53769,N,12117.69442,E,0.013,,121217,,,D*64
$GNRMC,211811.00,A,3114.53770,N,12117.69443,E,0.008,,121217,,,D*66
$GNRMC,211812.00,A,3114.53770,N,12117.69443,E,0.016,,121217,,,D*6A
$GNRMC,211813.00,A,3114.53771,N,12117.69444,E,0.009,,121217,,,D*63
$GNRMC,211814.00,A,3114.53771,N,12117.69445,E,0.007,,121217,,,D*6B
$GNRMC,211815.00,A,3114.53772,N,12117.69446,E,0.006,,121217,,,D*6B
$GNRMC,211816.00,A,3114.53774,N,12117.69446,E,0.025,,121217,,,D*6F
$GNRMC,211817.00,A,3114.53775,N,12117.69447,E,0.018,,121217,,,D*60
$GNRMC,211818.00,A,3114.53776,N,12117.69448,E,0.011,,121217,,,D*6A
$GNRMC,211819.00,A,3114.53778,N,12117.69450,E,0.012,,121217,,,D*6F
$GNRMC,211820.00,A,3114.53779,N,12117.69452,E,0.008,,121217,,,D*6D
$GNRMC,211821.00,A,3114.53780,N,12117.69454,E,0.010,,121217,,,D*65
$GNRMC,211822.00,A,3114.53780,N,12117.69457,E,0.017,,121217,,,D*62
$GNRMC,211823.00,A,3114.53779,N,12117.69460,E,0.018,,121217,,,D*6E
$GNRMC,211824.00,A,3114.53779,N,12117.69462,E,0.013,,121217,,,D*60
$GNRMC,211825.00,A,3114.53778,N,12117.69466,E,0.016,,121217,,,D*61
$GNRMC,211826.00,A,3114.53776,N,12117.69470,E,0.012,,121217,,,D*6F
$GNRMC,211827.00,A,3114.53776,N,12117.69474,E,0.008,,121217,,,D*61
$GNRMC,211828.00,A,3114.53776,N,12117.69477,E,0.006,,121217,,,D*63
$GNRMC,211829.00,A,3114.53777,N,12117.69480,E,0.003,,121217,,,D*6E
$GNRMC,211830.00,A,3114.53777,N,12117.69481,E,0.012,,121217,,,D*67
$GNRMC,211831.00,A,3114.53778,N,12117.69482,E,0.007,,121217,,,D*6E
$GNRMC,211832.00,A,3114.53780,N,12117.69482,E,0.010,,121217,,,D*6C
$GNRMC,211833.00,A,3114.53780,N,12117.69483,E,0.009,,121217,,,D*64
$GNRMC,211834.00,A,3114.53780,N,12117.69484,E,0.016,,121217,,,D*6A
$GNRMC,211835.00,A,3114.53781,N,12117.69484,E,0.019,,121217,,,D*65
$GNRMC,211836.00,A,3114.53782,N,12117.69485,E,0.005,,121217,,,D*69
$GNRMC,211837.00,A,3114.53784,N,12117.69487,E,0.010,,121217,,,D*68
$GNRMC,211838.00,A,3114.53786,N,12117.69488,E,0.009,,121217,,,D*62
$GNRMC,211839.00,A,3114.53788,N,12117.69489,E,0.008,,121217,,,D*6D
$GNRMC,211840.00,A,3114.53790,N,12117.69491,E,0.003,,121217,,,D*68
$GNRMC,211841.00,A,3114.53791,N,12117.69493,E,0.014,,121217,,,D*6C
$GNRMC,211842.00,A,3114.53793,N,12117.69493,E,0.013,,121217,,,D*6A
$GNRMC,211843.00,A,3114.53795,N,12117.69493,E,0.015,,121217,,,D*6B
$GNRMC,211844.00,A,3114.53797,N,12117.69492,E,0.011,,121217,,,D*6B
$GNRMC,211845.00,A,3114.53799,N,12117.69490,E,0.008,,121217,,,D*6E
$GNRMC,211846.00,A,3114.53800,N,12117.69489,E,0.020,,121217,,,D*60
$GNRMC,211847.00,A,3114.53803,N,12117.69487,E,0.006,,121217,,,D*68
$GNRMC,211848.00,A,3114.53803,N,12117.69486,E,0.010,,121217,,,D*61
$GNRMC,211849.00,A,3114.53804,N,12117.69484,E,0.010,,121217,,,D*65
$GNRMC,211850.00,A,3114.53805,N,12117.69482,E,0.015,,121217,,,D*6F
$GNRMC,211851.00,A,3114.53807,N,12117.69479,E,0.010,,121217,,,D*6D
$GNRMC,211852.00,A,3114.53810,N,12117.69476,E,0.011,,121217,,,D*66
$GNRMC,211853.00,A,3114.53811,N,12117.69472,E,0.007,,121217,,,D*65
$GNRMC,211854.00,A,3114.53813,N,12117.69469,E,0.009,,121217,,,D*64
$GNRMC,211855.00,A,3114.53815,N,12117.69466,E,0.008,,121217,,,D*6D
$GNRMC,211856.00,A,3114.53816,N,12117.69463,E,0.022,,121217,,,D*60
$GNRMC,211857.00,A,3114.53817,N,12117.69460,E,0.011,,121217,,,D*63
$GNRMC,211858.00,A,3114.53817,N,12117.69457,E,0.012,,121217,,,D*6B
$GNRMC,211859.00,A,3114.53818,N,12117.69454,E,0.013,,121217,,,D*67
$GNRMC,211900.00,A,3114.53816,N,12117.69450,E,0.014,,121217,,,D*67
$GNRMC,211901.00,A,3114.53814,N,12117.69447,E,0.011,,121217,,,D*67
$GNRMC,211902.00,A,3114.53813,N,12117.69442,E,0.015,,121217,,,D*62
$GNRMC,211903.00,A,3114.53811,N,12117.69438,E,0.014,,121217,,,D*6D
$GNRMC,211904.00,A,3114.53810,N,12117.69434,E,0.019,,121217,,,D*6A
$GNRMC,211905.00,A,3114.53811,N,12117.69430,E,0.010,,121217,,,D*67
$GNRMC,211906.00,A,3114.53811,N,12117.69426,E,0.014,,121217,,,D*67
$GNRMC,211907.00,A,3114.53810,N,12117.69423,E,0.013,,121217,,,D*65
$GNRMC,211908.00,A,3114.53810,N,12117.69420,E,0.021,,121217,,,D*68
$GNRMC,211909.00,A,3114.53810,N,12117.69418,E,0.023,,121217,,,D*60
$GNRMC,211910.00,A,3114.53810,N,12117.69413,E,0.020,,121217,,,D*60
$GNRMC,211911.00,A,3114.53810,N,12117.69410,E,0.010,,121217,,,D*61
$GNRMC,211912.00,A,3114.53808,N,12117.69407,E,0.018,,121217,,,D*65
$GNRMC,211913.00,A,3114.53808,N,12117.69403,E,0.008,,121217,,,D*61
$GNRMC,211914.00,A,3114.53807,N,12117.69399,E,0.010,,121217,,,D*64
$GNRMC,211915.00,A,3114.53806,N,12117.69396,E,0.011,,121217,,,D*6A
$GNRMC,211916.00,A,3114.53804,N,12117.69393,E,0.012,,121217,,,D*6D
$GNRMC,211917.00,A,3114.53803,N,12117.69389,E,0.017,,121217,,,D*65
$GNRMC,211918.00,A,3114.53803,N,12117.69386,E,0.006,,121217,,,D*65
$GNRMC,211919.00,A,3114.53801,N,12117.69383,E,0.014,,121217,,,D*60
$GNRMC,211920.00,A,3114.53800,N,12117.69380,E,0.016,,121217,,,D*6A
$GNRMC,211921.00,A,3114.53799,N,12117.69377,E,0.022,,121217,,,D*6B
$GNRMC,211922.00,A,3114.53798,N,12117.69376,E,0.013,,121217,,,D*6A
$GNRMC,211923.00,A,3114.53796,N,12117.69375,E,0.012,,121217,,,D*67
$GNRMC,211924.00,A,3114.53795,N,12117.69375,E,0.009,,121217,,,D*69
$GNRMC,211925.00,A,3114.53794,N,12117.69375,E,0.013,,121217,,,D*62
$GNRMC,211926.00,A,3114.53793,N,12117.69375,E,0.020,,121217,,,D*66
$GNRMC,211927.00,A,3114.53793,N,12117.69373,E,0.014,,121217,,,D*66
$GNRMC,211928.00,A,3114.53793,N,12117.69372,E,0.014,,121217,,,D*68
$GNRMC,211929.00,A,3114.53792,N,12117.69370,E,0.011,,121217,,,D*6F
$GNRMC,211930.00,A,3114.53793,N,12117.69367,E,0.011,,121217,,,D*60
$GNRMC,211931.00,A,3114.53791,N,12117.69365,E,0.013,,121217,,,D*63
$GNRMC,211932.00,A,3114.53789,N,12117.69364,E,0.017,,121217,,,D*6C
$GNRMC,211933.00,A,3114.53789,N,12117.69361,E,0.019,,121217,,,D*66
$GNRMC,211934.00,A,3114.53791,N,12117.69357,E,0.014,,121217,,,D*60
$GNRMC,211935.00,A,3114.53791,N,12117.69354,E,0.006,,121217,,,D*61
$GNRMC,211936.00,A,3114.53791,N,12117.69352,E,0.014,,121217,,,D*67
$GNRMC,211937.00,A,3114.53790,N,12117.69351,E,0.013,,121217,,,D*63
$GNRMC,211938.00,A,3114.53789,N,12117.69349,E,0.015,,121217,,,D*6B
$GNRMC,211939.00,A,3114.53785,N,12117.69350,E,0.016,,121217,,,D*6D
$GNRMC,211940.00,A,3114.53783,N,12117.69349,E,0.024,,121217,,,D*6C
$GNRMC,211941.00,A,3114.53781,N,12117.69349,E,0.027,,121217,,,D*6C
$GNRMC,211942.00,A,3114.53779,N,12117.69348,E,0.010,,121217,,,D*6D
$GNRMC,211943.00,A,3114.53780,N,12117.69348,E,0.015,,121217,,,D*6F
$GNRMC,211944.00,A,3114.53782,N,12117.69345,E,0.020,,121217,,,D*61
$GNRMC,211945.00,A,3114.53784,N,12117.69342,E,0.015,,121217,,,D*67
$GNRMC,211946.00,A,3114.53786,N,12117.69340,E,0.024,,121217,,,D*66
$GNRMC,211947.00,A,3114.53788,N,12117.69339,E,0.017,,121217,,,D*67
$GNRMC,211948.00,A,3114.53789,N,12117.69338,E,0.008,,121217,,,D*66
$GNRMC,211949.00,A,3114.53790,N,12117.69338,E,0.017,,121217,,,D*61
$GNRMC,211950.00,A,3114.53790,N,12117.69339,E,0.007,,121217,,,D*69
$GNRMC,211951.00,A,3114.53789,N,12117.69340,E,0.010,,121217,,,D*68
$GNRMC,211952.00,A,3114.53790,N,12117.69341,E,0.005,,121217,,,D*66
$GNRMC,211953.00,A,3114.53790,N,12117.69344,E,0.009,,121217,,,D*6E
$GNRMC,211954.00,A,3114.53791,N,12117.69345,E,0.014,,121217,,,D*65
$GNRMC,211955.00,A,3114.53791,N,12117.69345,E,0.016,,121217,,,D*66
$GNRMC,211956.00,A,3114.53792,N,12117.69347,E,0.005,,121217,,,D*66
$GNRMC,211957.00,A,3114.53793,N,12117.69349,E,0.009,,121217,,,D*64
$GNRMC,211958.00,A,3114.53793,N,12117.69350,E,0.019,,121217,,,D*62
$GNRMC,211959.00,A,3114.53793,N,12117.69352,E,0.013,,121217,,,D*6B
$GNRMC,212000.00,A,3114.53794,N,12117.69354,E,0.008,,121217,,,D*66
$GNRMC,212001.00,A,3114.53794,N,12117.69355,E,0.010,,121217,,,D*6F
$GNRMC,212002.00,A,3114.53795,N,12117.69356,E,0.007,,121217,,,D*68
$GNRMC,212003.00,A,3114.53796,N,12117.69357,E,0.008,,121217,,,D*64
$GNRMC,212004.00,A,3114.53796,N,12117.69359,E,0.017,,121217,,,D*63
$GNRMC,212005.00,A,3114.53796,N,12117.69361,E,0.008,,121217,,,D*67
$GNRMC,212006.00,A,3114.53796,N,12117.69363,E,0.005,,121217,,,D*6B
$GNRMC,212007.00,A,3114.53797,N,12117.69365,E,0.011,,121217,,,D*68
$GNRMC,212008.00,A,3114.53798,N,12117.69368,E,0.009,,121217,,,D*6C
$GNRMC,212009.00,A,3114.53799,N,12117.69370,E,0.007,,121217,,,D*6B
$GNRMC,212010.00,A,3114.53798,N,12117.69374,E,0.013,,121217,,,D*63
$GNRMC,212011.00,A,3114.53799,N,12117.69377,E,0.001,,121217,,,D*63
$GNRMC,212012.00,A,3114.53799,N,12117.69378,E,0.006,,121217,,,D*68
$GNRMC,212013.00,A,3114.53799,N,12117.69379,E,0.012,,121217,,,D*6D
$GNRMC,212014.00,A,3114.53798,N,12117.69382,E,0.011,,121217,,,D*6C
$GNRMC,212015.00,A,3114.53796,N,12117.69383,E,0.014,,121217,,,D*67
$GNRMC,212016.00,A,3114.53795,N,12117.69385,E,0.007,,121217,,,D*63
$GNRMC,212017.00,A,3114.53794,N,12117.69388,E,0.013,,121217,,,D*6B
$GNRMC,212018.00,A,3114.53793,N,12117.69390,E,0.010,,121217,,,D*69
$GNRMC,212019.00,A,3114.53791,N,12117.69391,E,0.016,,121217,,,D*6D
$GNRMC,212020.00,A,3114.53789,N,12117.69394,E,0.009,,121217,,,D*65
$GNRMC,212021.00,A,3114.53786,N,12117.69396,E,0.012,,121217,,,D*63
$GNRMC,212022.00,A,3114.53784,N,12117.69399,E,0.016,,121217,,,D*69
$GNRMC,212023.00,A,3114.53782,N,12117.69402,E,0.007,,121217,,,D*6B
$GNRMC,212024.00,A,3114.53781,N,12117.69403,E,0.011,,121217,,,D*69
$GNRMC,212025.00,A,3114.53780,N,12117.69405,E,0.007,,121217,,,D*68
$GNRMC,212026.00,A,3114.53778,N,12117.69406,E,0.010,,121217,,,D*69
$GNRMC,212027.00,A,3114.53776,N,12117.69408,E,0.009,,121217,,,D*60
$GNRMC,212028.00,A,3114.53774,N,12117.69410,E,0.018,,121217,,,D*64
$GNRMC,212029.00,A,3114.53772,N,12117.69411,E,0.010,,121217,,,D*6A
$GNRMC,212030.00,A,3114.53769,N,12117.69413,E,0.011,,121217,,,D*6B
$GNRMC,212031.00,A,3114.53766,N,12117.69415,E,0.007,,121217,,,D*64
$GNRMC,212032.00,A,3114.53763,N,12117.69417,E,0.008,,121217,,,D*6F
$GNRMC,212033.00,A,3114.53760,N,12117.69418,E,0.014,,121217,,,D*6F
$GNRMC,212034.00,A,3114.53757,N,12117.69420,E,0.024,,121217,,,D*64
$GNRMC,212035.00,A,3114.53754,N,12117.69421,E,0.014,,121217,,,D*64
$GNRMC,212036.00,A,3114.53751,N,12117.69423,E,0.017,,121217,,,D*63
$GNRMC,212037.00,A,3114.53747,N,12117.69425,E,0.012,,121217,,,D*66
$GNRMC,212038.00,A,3114.53743,N,12117.69427,E,0.005,,121217,,,D*69
$GNRMC,212039.00,A,3114.53739,N,12117.69430,E,0.006,,121217,,,D*60
$GNRMC,212040.00,A,3114.53736,N,12117.69432,E,0.009,,121217,,,D*6C
$GNRMC,212041.00,A,3114.53735,N,12117.69433,E,0.010,,121217,,,D*67
$GNRMC,212042.00,A,3114.53734,N,12117.69434,E,0.019,,121217,,,D*6B
$GNRMC,212043.00,A,3114.53732,N,12117.69436,E,0.018,,121217,,,D*6F
$GNRMC,212044.00,A,3114.53733,N,12117.69436,E,0.006,,121217,,,D*66
$GNRMC,212045.00,A,3114.53734,N,12117.69436,E,0.016,,121217,,,D*61
$GNRMC,212046.00,A,3114.53734,N,12117.69437,E,0.013,,121217,,,D*66
$GNRMC,212047.00,A,3114.53734,N,12117.69438,E,0.010,,121217,,,D*6B
$GNRMC,212048.00,A,3114.53733,N,12117.69441,E,0.012,,121217,,,D*6F
$GNRMC,212049.00,A,3114.53733,N,12117.69442,E,0.009,,121217,,,D*67
$GNRMC,212050.00,A,3114.53733,N,12117.69444,E,0.004,,121217,,,D*64
$GNRMC,212051.00,A,3114.53732,N,12117.69445,E,0.007,,121217,,,D*66
$GNRMC,212052.00,A,3114.53732,N,12117.69446,E,0.006,,121217,,,D*67
$GNRMC,212053.00,A,3114.53731,N,12117.69448,E,0.005,,121217,,,D*68
$GNRMC,212054.00,A,3114.53730,N,12117.69450,E,0.007,,121217,,,D*65
$GNRMC,212055.00,A,3114.53728,N,12117.69452,E,0.009,,121217,,,D*61
$GNRMC,212056.00,A,3114.53726,N,12117.69455,E,0.015,,121217,,,D*66
$GNRMC,212057.00,A,3114.53723,N,12117.69458,E,0.007,,121217,,,D*6C
$GNRMC,212058.00,A,3114.53720,N,12117.69462,E,0.003,,121217,,,D*6D
$GNRMC,212059.00,A,3114.53716,N,12117.69465,E,0.009,,121217,,,D*64
$GNRMC,212100.00,A,3114.53713,N,12117.69468,E,0.012,,121217,,,D*6B
$GNRMC,212101.00,A,3114.53710,N,12117.69472,E,0.009,,121217,,,D*68
$GNRMC,212102.00,A,3114.53706,N,12117.69477,E,0.018,,121217,,,D*69
$GNRMC,212103.00,A,3114.53703,N,12117.69479,E,0.010,,121217,,,D*6B
$GNRMC,212104.00,A,3114.53700,N,12117.69481,E,0.006,,121217,,,D*6F
$GNRMC,212105.00,A,3114.53697,N,12117.69483,E,0.010,,121217,,,D*64
$GNRMC,212106.00,A,3114.53695,N,12117.69484,E,0.007,,121217,,,D*64
$GNRMC,212107.00,A,3114.53693,N,12117.69486,E,0.015,,121217,,,D*62
$GNRMC,212108.00,A,3114.53690,N,12117.69487,E,0.007,,121217,,,D*6C
$GNRMC,212109.00,A,3114.53687,N,12117.69489,E,0.008,,121217,,,D*6A
$GNRMC,212110.00,A,3114.53685,N,12117.69489,E,0.008,,121217,,,D*60
$GNRMC,212111.00,A,3114.53682,N,12117.69489,E,0.009,,121217,,,D*67
$GNRMC,212112.00,A,3114.53680,N,12117.69489,E,0.015,,121217,,,D*6B
$GNRMC,212113.00,A,3114.53678,N,12117.69490,E,0.008,,121217,,,D*69
$GNRMC,212114.00,A,3114.53676,N,12117.69491,E,0.008,,121217,,,D*61
$GNRMC,212115.00,A,3114.53674,N,12117.69492,E,0.009,,121217,,,D*60
$GNRMC,212116.00,A,3114.53673,N,12117.69493,E,0.010,,121217,,,D*6D
$GNRMC,212117.00,A,3114.53672,N,12117.69493,E,0.014,,121217,,,D*69
$GNRMC,212118.00,A,3114.53672,N,12117.69492,E,0.009,,121217,,,D*6B
$GNRMC,212119.00,A,3114.53673,N,12117.69491,E,0.008,,121217,,,D*69
$GNRMC,212120.00,A,3114.53673,N,12117.69491,E,0.009,,121217,,,D*62
$GNRMC,212121.00,A,3114.53673,N,12117.69491,E,0.010,,121217,,,D*6B
$GNRMC,212122.00,A,3114.53673,N,12117.69491,E,0.013,,121217,,,D*6B
$GNRMC,212123.00,A,3114.53673,N,12117.69491,E,0.009,,121217,,,D*61
$GNRMC,212124.00,A,3114.53673,N,12117.69491,E,0.007,,121217,,,D*68
$GNRMC,212125.00,A,3114.53670,N,12117.69491,E,0.016,,121217,,,D*6A
$GNRMC,212126.00,A,3114.53668,N,12117.69490,E,0.009,,121217,,,D*6F
$GNRMC,212127.00,A,3114.53667,N,12117.69490,E,0.006,,121217,,,D*6E
$GNRMC,212128.00,A,3114.53665,N,12117.69489,E,0.011,,121217,,,D*6D
$GNRMC,212129.00,A,3114.53663,N,12117.69489,E,0.010,,121217,,,D*6B
$GNRMC,212130.00,A,3114.53662,N,12117.69487,E,0.007,,121217,,,D*6A
$GNRMC,212131.00,A,3114.53662,N,12117.69484,E,0.007,,121217,,,D*68
$GNRMC,212132.00,A,3114.53663,N,12117.69481,E,0.007,,121217,,,D*6F
$GNRMC,212133.00,A,3114.53664,N,12117.69478,E,0.010,,121217,,,D*69
$GNRMC,212134.00,A,3114.53667,N,12117.69470,E,0.077,,121217,,,A*61
$GNRMC,212135.00,A,3114.53673,N,12117.69463,E,0.012,,121217,,,A*64
$GNRMC,212136.00,A,3114.53677,N,12117.69457,E,0.005,,121217,,,A*62
$GNRMC,212137.00,A,3114.53681,N,12117.69453,E,0.010,,121217,,,A*6A
$GNRMC,212138.00,A,3114.53685,N,12117.69450,E,0.006,,121217,,,A*65
$GNRMC,212139.00,A,3114.53687,N,12117.69447,E,0.007,,121217,,,A*61
$GNRMC,212140.00,A,3114.53690,N,12117.69445,E,0.008,,121217,,,A*64
$GNRMC,212141.00,A,3114.53693,N,12117.69444,E,0.006,,121217,,,A*69
$GNRMC,212142.00,A,3114.53694,N,12117.69444,E,0.008,,121217,,,A*63
$GNRMC,212143.00,A,3114.53694,N,12117.69444,E,0.008,,121217,,,A*62
$GNRMC,212144.00,A,3114.53694,N,12117.69443,E,0.005,,121217,,,A*6F
$GNRMC,212145.00,A,3114.53695,N,12117.69444,E,0.008,,121217,,,A*65
$GNRMC,212146.00,A,3114.53695,N,12117.69444,E,0.008,,121217,,,A*66
$GNRMC,212147.00,A,3114.53696,N,12117.69444,E,0.007,,121217,,,A*6B
$GNRMC,212148.00,A,3114.53696,N,12117.69444,E,0.001,,121217,,,A*62
$GNRMC,212149.00,A,3114.53695,N,12117.69444,E,0.008,,121217,,,A*69
$GNRMC,212150.00,A,3114.53694,N,12117.69445,E,0.007,,121217,,,A*6E
$GNRMC,212151.00,A,3114.53694,N,12117.69446,E,0.010,,121217,,,A*6A
$GNRMC,212152.00,A,3114.53694,N,12117.69448,E,0.010,,121217,,,A*67
$GNRMC,212153.00,A,3114.53695,N,12117.69449,E,0.010,,121217,,,A*66
$GNRMC,212154.00,A,3114.53696,N,12117.69451,E,0.009,,121217,,,A*63
$GNRMC,212155.00,A,3114.53698,N,12117.69451,E,0.014,,121217,,,A*60
$GNRMC,212156.00,A,3114.53700,N,12117.69452,E,0.012,,121217,,,A*66
$GNRMC,212157.00,A,3114.53700,N,12117.69453,E,0.007,,121217,,,A*62
$GNRMC,212158.00,A,3114.53702,N,12117.69453,E,0.003,,121217,,,A*6B
$GNRMC,212159.00,A,3114.53704,N,12117.69452,E,0.006,,121217,,,A*68
$GNRMC,212200.00,A,3114.53705,N,12117.69453,E,0.004,,121217,,,A*65
$GNRMC,212201.00,A,3114.53706,N,12117.69454,E,0.006,,121217,,,A*62
$GNRMC,212202.00,A,3114.53708,N,12117.69454,E,0.011,,121217,,,A*69
$GNRMC,212203.00,A,3114.53710,N,12117.69454,E,0.008,,121217,,,A*69
$GNRMC,212204.00,A,3114.53711,N,12117.69454,E,0.009,,121217,,,A*6E
$GNRMC,212205.00,A,3114.53713,N,12117.69453,E,0.009,,121217,,,A*6A
$GNRMC,212206.00,A,3114.53715,N,12117.69453,E,0.006,,121217,,,A*60
$GNRMC,212207.00,A,3114.53717,N,12117.69453,E,0.006,,121217,,,A*63
$GNRMC,212208.00,A,3114.53719,N,12117.69453,E,0.007,,121217,,,A*63
$GNRMC,212209.00,A,3114.53720,N,12117.69453,E,0.010,,121217,,,A*6E
$GNRMC,212210.00,A,3114.53722,N,12117.69453,E,0.006,,121217,,,A*63
$GNRMC,212211.00,A,3114.53724,N,12117.69452,E,0.007,,121217,,,A*64
$GNRMC,212212.00,A,3114.53725,N,12117.69452,E,0.018,,121217,,,A*68
$GNRMC,212213.00,A,3114.53727,N,12117.69452,E,0.009,,121217,,,A*6B
$GNRMC,212214.00,A,3114.53729,N,12117.69452,E,0.006,,121217,,,A*6D
$GNRMC,212215.00,A,3114.53730,N,12117.69452,E,0.009,,121217,,,A*6B
$GNRMC,212216.00,A,3114.53732,N,12117.69451,E,0.013,,121217,,,A*62
$GNRMC,212217.00,A,3114.53734,N,12117.69451,E,0.006,,121217,,,A*61
$GNRMC,212218.00,A,3114.53735,N,12117.69450,E,0.011,,121217,,,A*68
$GNRMC,212219.00,A,3114.53737,N,12117.69449,E,0.006,,121217,,,A*65
$GNRMC,212220.00,A,3114.53738,N,12117.69449,E,0.004,,121217,,,A*62
$GNRMC,212221.00,A,3114.53740,N,12117.69449,E,0.014,,121217,,,A*6D
$GNRMC,212222.00,A,3114.53741,N,12117.69448,E,0.009,,121217,,,A*62
$GNRMC,212223.00,A,3114.53743,N,12117.69449,E,0.003,,121217,,,A*6A
$GNRMC,212224.00,A,3114.53746,N,12117.69449,E,0.012,,121217,,,A*68
$GNRMC,212225.00,A,3114.53747,N,12117.69450,E,0.007,,121217,,,A*64
$GNRMC,212226.00,A,3114.53749,N,12117.69449,E,0.004,,121217,,,A*62
$GNRMC,212227.00,A,3114.53751,N,12117.69449,E,0.010,,121217,,,A*6F
$GNRMC,212228.00,A,3114.53752,N,12117.69450,E,0.012,,121217,,,A*69
$GNRMC,212229.00,A,3114.53754,N,12117.69451,E,0.005,,121217,,,A*69
$GNRMC,212230.00,A,3114.53756,N,12117.69451,E,0.012,,121217,,,A*65
$GNRMC,212231.00,A,3114.53757,N,12117.69452,E,0.009,,121217,,,A*6C
$GNRMC,212232.00,A,3114.53760,N,12117.69453,E,0.007,,121217,,,A*64
$GNRMC,212233.00,A,3114.53760,N,12117.69454,E,0.010,,121217,,,A*64
$GNRMC,212234.00,A,3114.53759,N,12117.69454,E,0.010,,121217,,,A*69
$GNRMC,212235.00,A,3114.53758,N,12117.69454,E,0.004,,121217,,,A*6C
$GNRMC,212236.00,A,3114.53756,N,12117.69453,E,0.009,,121217,,,A*6B
$GNRMC,212237.00,A,3114.53755,N,12117.69453,E,0.006,,121217,,,A*66
$GNRMC,212238.00,A,3114.53753,N,12117.69453,E,0.014,,121217,,,A*6C
$GNRMC,212239.00,A,3114.53754,N,12117.69452,E,0.011,,121217,,,A*6E
$GNRMC,212240.00,A,3114.53754,N,12117.69451,E,0.022,,121217,,,A*63
$GNRMC,212241.00,A,3114.53755,N,12117.69449,E,0.007,,121217,,,A*6D
$GNRMC,212242.00,A,3114.53755,N,12117.69448,E,0.011,,121217,,,A*68
$GNRMC,212243.00,A,3114.53755,N,12117.69447,E,0.011,,121217,,,A*66
$GNRMC,212244.00,A,3114.53755,N,12117.69446,E,0.015,,121217,,,A*64
$GNRMC,212245.00,A,3114.53755,N,12117.69445,E,0.011,,121217,,,A*62
$GNRMC,212246.00,A,3114.53755,N,12117.69444,E,0.013,,121217,,,A*62
$GNRMC,212247.00,A,3114.53756,N,12117.69442,E,0.005,,121217,,,A*61
$GNRMC,212248.00,A,3114.53757,N,12117.69440,E,0.010,,121217,,,A*69
$GNRMC,212249.00,A,3114.53759,N,12117.69438,E,0.005,,121217,,,A*6D
$GNRMC,212250.00,A,3114.53760,N,12117.69435,E,0.005,,121217,,,A*62
$GNRMC,212251.00,A,3114.53761,N,12117.69433,E,0.014,,121217,,,A*64
$GNRMC,212252.00,A,3114.53762,N,12117.69430,E,0.019,,121217,,,A*6A
$GNRMC,212253.00,A,3114.53764,N,12117.69426,E,0.008,,121217,,,A*6A
$GNRMC,212254.00,A,3114.53764,N,12117.69422,E,0.016,,121217,,,A*66
$GNRMC,212255.00,A,3114.53766,N,12117.69417,E,0.007,,121217,,,A*63
$GNRMC,212256.00,A,3114.53766,N,12117.69413,E,0.008,,121217,,,A*6B
$GNRMC,212257.00,A,3114.53766,N,12117.69410,E,0.014,,121217,,,A*64
$GNRMC,212258.00,A,3114.53766,N,12117.69406,E,0.014,,121217,,,A*6C
$GNRMC,212259.00,A,3114.53765,N,12117.69403,E,0.011,,121217,,,A*6E
$GNRMC,212300.00,A,3114.53765,N,12117.69400,E,0.009,,121217,,,A*69
$GNRMC,212301.00,A,3114.53764,N,12117.69398,E,0.013,,121217,,,A*64
$GNRMC,212302.00,A,3114.53763,N,12117.69395,E,0.015,,121217,,,A*6B
$GNRMC,212303.00,A,3114.53763,N,12117.69391,E,0.011,,121217,,,A*6A
$GNRMC,212304.00,A,3114.53762,N,12117.69388,E,0.004,,121217,,,A*60
$GNRMC,212305.00,A,3114.53761,N,12117.69385,E,0.012,,121217,,,A*68
$GNRMC,212306.00,A,3114.53759,N,12117.69381,E,0.009,,121217,,,A*6E
$GNRMC,212307.00,A,3114.53757,N,12117.69378,E,0.017,,121217,,,A*68
$GNRMC,212308.00,A,3114.53754,N,12117.69375,E,0.013,,121217,,,A*6D
$GNRMC,212309.00,A,3114.53753,N,12117.69372,E,0.011,,121217,,,A*6E
$GNRMC,212310.00,A,3114.53752,N,12117.69368,E,0.014,,121217,,,A*69
$GNRMC,212311.00,A,3114.53751,N,12117.69364,E,0.015,,121217,,,A*66
$GNRMC,212312.00,A,3114.53749,N,12117.69361,E,0.007,,121217,,,A*6A
$GNRMC,212313.00,A,3114.53747,N,12117.69359,E,0.014,,121217,,,A*6C
$GNRMC,212314.00,A,3114.53745,N,12117.69356,E,0.002,,121217,,,A*61
$GNRMC,212315.00,A,3114.53743,N,12117.69354,E,0.027,,121217,,,D*66
$GNRMC,212316.00,A,3114.53741,N,12117.69351,E,0.016,,121217,,,D*60
$GNRMC,212317.00,A,3114.53740,N,12117.69349,E,0.011,,121217,,,D*6E
$GNRMC,212318.00,A,3114.53739,N,12117.69349,E,0.008,,121217,,,D*67
$GNRMC,212319.00,A,3114.53738,N,12117.69348,E,0.009,,121217,,,D*67
$GNRMC,212320.00,A,3114.53737,N,12117.69347,E,0.010,,121217,,,D*65
$GNRMC,212321.00,A,3114.53736,N,12117.69346,E,0.015,,121217,,,D*61
$GNRMC,212322.00,A,3114.53734,N,12117.69345,E,0.014,,121217,,,D*62
$GNRMC,212323.00,A,3114.53732,N,12117.69344,E,0.011,,121217,,,D*61
$GNRMC,212324.00,A,3114.53731,N,12117.69343,E,0.011,,121217,,,D*62
$GNRMC,212325.00,A,3114.53729,N,12117.69343,E,0.015,,121217,,,D*6E
$GNRMC,212326.00,A,3114.53728,N,12117.69343,E,0.010,,121217,,,D*69
$GNRMC,212327.00,A,3114.53726,N,12117.69344,E,0.011,,121217,,,D*60
$GNRMC,212328.00,A,3114.53725,N,12117.69344,E,0.010,,121217,,,D*6D
$GNRMC,212329.00,A,3114.53724,N,12117.69344,E,0.009,,121217,,,D*65
$GNRMC,212330.00,A,3114.53722,N,12117.69345,E,0.004,,121217,,,D*67
$GNRMC,212331.00,A,3114.53721,N,12117.69345,E,0.007,,121217,,,D*66
$GNRMC,212332.00,A,3114.53720,N,12117.69346,E,0.018,,121217,,,D*69
$GNRMC,212333.00,A,3114.53718,N,12117.69347,E,0.010,,121217,,,D*6A
$GNRMC,212334.00,A,3114.53717,N,12117.69348,E,0.018,,121217,,,D*65
$GNRMC,212335.00,A,3114.53716,N,12117.69351,E,0.013,,121217,,,D*66
$GNRMC,212336.00,A,3114.53715,N,12117.69355,E,0.009,,121217,,,D*69
$GNRMC,212337.00,A,3114.53715,N,12117.69358,E,0.004,,121217,,,D*68
$GNRMC,212338.00,A,3114.53715,N,12117.69360,E,0.011,,121217,,,D*68
$GNRMC,212339.00,A,3114.53714,N,12117.69362,E,0.005,,121217,,,D*6F
$GNRMC,212340.00,A,3114.53713,N,12117.69364,E,0.009,,121217,,,D*6C
$GNRMC,212341.00,A,3114.53711,N,12117.69367,E,0.012,,121217,,,D*66
$GNRMC,212342.00,A,3114.53709,N,12117.69369,E,0.012,,121217,,,D*62
$GNRMC,212343.00,A,3114.53706,N,12117.69372,E,0.013,,121217,,,D*67
$GNRMC,212344.00,A,3114.53702,N,12117.69375,E,0.009,,121217,,,D*68
$GNRMC,212345.00,A,3114.53699,N,12117.69377,E,0.015,,121217,,,D*65
$GNRMC,212346.00,A,3114.53696,N,12117.69379,E,0.010,,121217,,,D*62
$GNRMC,212347.00,A,3114.53694,N,12117.69382,E,0.016,,121217,,,D*63
$GNRMC,212348.00,A,3114.53691,N,12117.69385,E,0.019,,121217,,,D*61
$GNRMC,212349.00,A,3114.53689,N,12117.69388,E,0.012,,121217,,,D*6F
$GNRMC,212350.00,A,3114.53686,N,12117.69391,E,0.007,,121217,,,D*64
$GNRMC,212351.00,A,3114.53685,N,12117.69394,E,0.003,,121217,,,D*67
$GNRMC,212352.00,A,3114.53684,N,12117.69397,E,0.014,,121217,,,D*60
$GNRMC,212353.00,A,3114.53682,N,12117.69400,E,0.013,,121217,,,D*69
$GNRMC,212354.00,A,3114.53681,N,12117.69404,E,0.006,,121217,,,D*6D
$GNRMC,212355.00,A,3114.53680,N,12117.69407,E,0.006,,121217,,,D*6E
$GNRMC,212356.00,A,3114.53680,N,12117.69411,E,0.007,,121217,,,D*6B
$GNRMC,212357.00,A,3114.53681,N,12117.69414,E,0.005,,121217,,,D*6C
$GNRMC,212358.00,A,3114.53683,N,12117.69416,E,0.009,,121217,,,D*6F
$GNRMC,212359.00,A,3114.53686,N,12117.69418,E,0.002,,121217,,,D*6E
$GNRMC,212400.00,A,3114.53690,N,12117.69421,E,0.007,,121217,,,D*6D
$GNRMC,212401.00,A,3114.53693,N,12117.69424,E,0.002,,121217,,,D*6F
$GNRMC,212402.00,A,3114.53697,N,12117.69426,E,0.011,,121217,,,D*68
$GNRMC,212403.00,A,3114.53700,N,12117.69429,E,0.004,,121217,,,D*6D
$GNRMC,212404.00,A,3114.53703,N,12117.69430,E,0.004,,121217,,,D*61
$GNRMC,212405.00,A,3114.53706,N,12117.69431,E,0.008,,121217,,,D*68
$GNRMC,212406.00,A,3114.53708,N,12117.69432,E,0.001,,121217,,,D*6F
$GNRMC,212407.00,A,3114.53709,N,12117.69433,E,0.006,,121217,,,D*69
$GNRMC,212408.00,A,3114.53711,N,12117.69434,E,0.008,,121217,,,D*66
$GNRMC,212409.00,A,3114.53712,N,12117.69434,E,0.010,,121217,,,D*6D
$GNRMC,212410.00,A,3114.53713,N,12117.69435,E,0.010,,121217,,,D*65
$GNRMC,212411.00,A,3114.53716,N,12117.69436,E,0.011,,121217,,,D*63
$GNRMC,212412.00,A,3114.53718,N,12117.69436,E,0.008,,121217,,,D*66
$GNRMC,212413.00,A,3114.53719,N,12117.69435,E,0.014,,121217,,,D*68
$GNRMC,212414.00,A,3114.53721,N,12117.69434,E,0.006,,121217,,,D*66
$GNRMC,212415.00,A,3114.53725,N,12117.69434,E,0.009,,121217,,,D*6C
$GNRMC,212416.00,A,3114.53728,N,12117.69434,E,0.004,,121217,,,D*6F
$GNRMC,212417.00,A,3114.53730,N,12117.69437,E,0.004,,121217,,,D*64
$GNRMC,212418.00,A,3114.53731,N,12117.69439,E,0.006,,121217,,,D*66
$GNRMC,212419.00,A,3114.53734,N,12117.69440,E,0.005,,121217,,,D*6F
$GNRMC,212420.00,A,3114.53737,N,12117.69441,E,0.003,,121217,,,D*61
$GNRMC,212421.00,A,3114.53739,N,12117.69441,E,0.006,,121217,,,D*6B
$GNRMC,212422.00,A,3114.53741,N,12117.69441,E,0.017,,121217,,,D*67
$GNRMC,212423.00,A,3114.53746,N,12117.69439,E,0.008,,121217,,,D*60
$GNRMC,212424.00,A,3114.53750,N,12117.69436,E,0.008,,121217,,,D*6F
$GNRMC,212425.00,A,3114.53754,N,12117.69434,E,0.007,,121217,,,D*67
$GNRMC,212426.00,A,3114.53759,N,12117.69431,E,0.005,,121217,,,D*6E
$GNRMC,212427.00,A,3114.53764,N,12117.69428,E,0.009,,121217,,,D*65
$GNRMC,212428.00,A,3114.53768,N,12117.69426,E,0.003,,121217,,,D*62
$GNRMC,212429.00,A,3114.53771,N,12117.69424,E,0.006,,121217,,,D*6C
$GNRMC,212430.00,A,3114.53774,N,12117.69421,E,0.010,,121217,,,D*63
$GNRMC,212431.00,A,3114.53777,N,12117.69420,E,0.008,,121217,,,D*69
$GNRMC,212432.00,A,3114.53780,N,12117.69418,E,0.012,,121217,,,D*62
$GNRMC,212433.00,A,3114.53781,N,12117.69416,E,0.017,,121217,,,D*69
$GNRMC,212434.00,A,3114.53779,N,12117.69415,E,0.015,,121217,,,D*68
$GNRMC,212435.00,A,3114.53777,N,12117.69414,E,0.013,,121217,,,D*60
$GNRMC,212436.00,A,3114.53775,N,12117.69412,E,0.011,,121217,,,D*65
$GNRMC,212437.00,A,3114.53772,N,12117.69410,E,0.019,,121217,,,D*69
$GNRMC,212438.00,A,3114.53770,N,12117.69410,E,0.023,,121217,,,D*6D
$GNRMC,212439.00,A,3114.53766,N,12117.69408,E,0.014,,121217,,,D*66
$GNRMC,212440.00,A,3114.53763,N,12117.69407,E,0.011,,121217,,,D*67
$GNRMC,212441.00,A,3114.53760,N,12117.69406,E,0.014,,121217,,,D*61
$GNRMC,212442.00,A,3114.53756,N,12117.69404,E,0.013,,121217,,,D*62
$GNRMC,212443.00,A,3114.53752,N,12117.69403,E,0.009,,121217,,,D*6B
$GNRMC,212444.00,A,3114.53745,N,12117.69401,E,0.007,,121217,,,D*66
$GNRMC,212445.00,A,3114.53740,N,12117.69400,E,0.015,,121217,,,D*60
$GNRMC,212446.00,A,3114.53735,N,12117.69396,E,0.017,,121217,,,D*6B
$GNRMC,212447.00,A,3114.53731,N,12117.69393,E,0.010,,121217,,,D*6C
$GNRMC,212448.00,A,3114.53727,N,12117.69389,E,0.009,,121217,,,D*67
$GNRMC,212449.00,A,3114.53722,N,12117.69387,E,0.009,,121217,,,D*6D
$GNRMC,212450.00,A,3114.53718,N,12117.69384,E,0.007,,121217,,,D*61
$GNRMC,212451.00,A,3114.53713,N,12117.69382,E,0.014,,121217,,,D*6F
$GNRMC,212452.00,A,3114.53709,N,12117.69380,E,0.018,,121217,,,D*69
$GNRMC,212453.00,A,3114.53705,N,12117.69379,E,0.011,,121217,,,D*6B
$GNRMC,212454.00,A,3114.53701,N,12117.69379,E,0.015,,121217,,,D*6C
$GNRMC,212455.00,A,3114.53696,N,12117.69378,E,0.015,,121217,,,D*63
$GNRMC,212456.00,A,3114.53694,N,12117.69375,E,0.005,,121217,,,D*6E
$GNRMC,212457.00,A,3114.53694,N,12117.69372,E,0.009,,121217,,,D*64
$GNRMC,212458.00,A,3114.53693,N,12117.69369,E,0.007,,121217,,,D*68
$GNRMC,212459.00,A,3114.53690,N,12117.69366,E,0.004,,121217,,,D*66
$GNRMC,212500.00,A,3114.53688,N,12117.69363,E,0.008,,121217,,,D*6B
$GNRMC,212501.00,A,3114.53687,N,12117.69361,E,0.004,,121217,,,D*6B
$GNRMC,212502.00,A,3114.53686,N,12117.69359,E,0.013,,121217,,,D*64
$GNRMC,212503.00,A,3114.53685,N,12117.69358,E,0.000,,121217,,,D*65
$GNRMC,212504.00,A,3114.53685,N,12117.69356,E,0.006,,121217,,,D*6A
$GNRMC,212505.00,A,3114.53685,N,12117.69355,E,0.007,,121217,,,D*69
$GNRMC,212506.00,A,3114.53684,N,12117.69354,E,0.005,,121217,,,D*68
$GNRMC,212507.00,A,3114.53684,N,12117.69352,E,0.003,,121217,,,D*69
$GNRMC,212508.00,A,3114.53684,N,12117.69351,E,0.005,,121217,,,D*63
$GNRMC,212509.00,A,3114.53684,N,12117.69349,E,0.009,,121217,,,D*67
$GNRMC,212510.00,A,3114.53684,N,12117.69348,E,0.007,,121217,,,D*60
$GNRMC,212511.00,A,3114.53684,N,12117.69345,E,0.011,,121217,,,D*6B
$GNRMC,212512.00,A,3114.53684,N,12117.69343,E,0.011,,121217,,,D*6E
$GNRMC,212513.00,A,3114.53685,N,12117.69340,E,0.008,,121217,,,D*65
$GNRMC,212514.00,A,3114.53687,N,12117.69338,E,0.006,,121217,,,D*61
$GNRMC,212515.00,A,3114.53688,N,12117.69336,E,0.007,,121217,,,D*60
$GNRMC,212516.00,A,3114.53689,N,12117.69334,E,0.011,,121217,,,D*67
$GNRMC,212517.00,A,3114.53689,N,12117.69332,E,0.007,,121217,,,D*67
$GNRMC,212518.00,A,3114.53691,N,12117.69329,E,0.012,,121217,,,D*6F
$GNRMC,212519.00,A,3114.53692,N,12117.69328,E,0.004,,121217,,,D*6B
$GNRMC,212520.00,A,3114.53693,N,12117.69326,E,0.004,,121217,,,D*6E
$GNRMC,212521.00,A,3114.53694,N,12117.69325,E,0.002,,121217,,,D*6D
