$GNRMC,211505.00,A,3114.53588,N,12117.69269,E,0.003,,141217,,,A*6D
$GNRMC,211506.00,A,3114.53590,N,12117.69268,E,0.013,,141217,,,A*67
$GNRMC,211507.00,A,3114.53592,N,12117.69268,E,0.014,,141217,,,A*63
$GNRMC,211508.00,A,3114.53593,N,12117.69267,E,0.009,,141217,,,A*6E
$GNRMC,211509.00,A,3114.53593,N,12117.69268,E,0.014,,141217,,,A*6C
$GNRMC,211510.00,A,3114.53593,N,12117.69267,E,0.011,,141217,,,A*6E
$GNRMC,211511.00,A,3114.53593,N,12117.69266,E,0.011,,141217,,,A*6E
$GNRMC,211512.00,A,3114.53592,N,12117.69266,E,0.012,,141217,,,A*6F
$GNRMC,211513.00,A,3114.53594,N,12117.69264,E,0.007,,141217,,,A*6E
$GNRMC,211514.00,A,3114.53595,N,12117.69262,E,0.007,,141217,,,A*6E
$GNRMC,211515.00,A,3114.53596,N,12117.69260,E,0.007,,141217,,,A*6E
$GNRMC,211516.00,A,3114.53597,N,12117.69258,E,0.016,,141217,,,A*67
$GNRMC,211517.00,A,3114.53597,N,12117.69256,E,0.024,,141217,,,A*69
$GNRMC,211518.00,A,3114.53599,N,12117.69254,E,0.012,,141217,,,A*6F
$GNRMC,211519.00,A,3114.53600,N,12117.69252,E,0.010,,141217,,,A*69
$GNRMC,211520.00,A,3114.53601,N,12117.69249,E,0.013,,141217,,,A*6B
$GNRMC,211521.00,A,3114.53602,N,12117.69247,E,0.006,,141217,,,A*63
$GNRMC,211522.00,A,3114.53602,N,12117.69245,E,0.012,,141217,,,A*67
$GNRMC,211523.00,A,3114.53603,N,12117.69243,E,0.011,,141217,,,A*62
$GNRMC,211524.00,A,3114.53603,N,12117.69241,E,0.011,,141217,,,A*67
$GNRMC,211525.00,A,3114.53603,N,12117.69240,E,0.002,,141217,,,A*65
$GNRMC,211526.00,A,3114.53600,N,12117.69239,E,0.017,,141217,,,A*6F
$GNRMC,211527.00,A,3114.53599,N,12117.69239,E,0.018,,141217,,,A*62
$GNRMC,211528.00,A,3114.53597,N,12117.69237,E,0.026,,141217,,,A*60
$GNRMC,211529.00,A,3114.53596,N,12117.69235,E,0.012,,141217,,,A*65
$GNRMC,211530.00,A,3114.53595,N,12117.69232,E,0.017,,141217,,,A*6C
$GNRMC,211531.00,A,3114.53596,N,12117.69228,E,0.010,,141217,,,A*62
$GNRMC,211532.00,A,3114.53596,N,12117.69225,E,0.006,,141217,,,A*6B
$GNRMC,211533.00,A,3114.53597,N,12117.69222,E,0.016,,141217,,,A*6D
$GNRMC,211534.00,A,3114.53598,N,12117.69218,E,0.043,,141217,,,D*69
$GNRMC,211535.00,A,3114.53598,N,12117.69215,E,0.015,,141217,,,D*66
$GNRMC,211536.00,A,3114.53598,N,12117.69212,E,0.015,,141217,,,D*62
$GNRMC,211537.00,A,3114.53598,N,12117.69208,E,0.042,,141217,,,D*6A
$GNRMC,211538.00,A,3114.53597,N,12117.69205,E,0.028,,141217,,,D*6B
$GNRMC,211539.00,A,3114.53597,N,12117.69203,E,0.017,,141217,,,D*60
$GNRMC,211540.00,A,3114.53596,N,12117.69201,E,0.035,,141217,,,A*68
$GNRMC,211541.00,A,3114.53595,N,12117.69200,E,0.013,,141217,,,A*6F
$GNRMC,211542.00,A,3114.53594,N,12117.69200,E,0.010,,141217,,,A*6E
$GNRMC,211543.00,A,3114.53594,N,12117.69199,E,0.013,,141217,,,A*6F
$GNRMC,211544.00,A,3114.53593,N,12117.69198,E,0.007,,141217,,,A*6B
$GNRMC,211545.00,A,3114.53592,N,12117.69197,E,0.012,,141217,,,A*60
$GNRMC,211546.00,A,3114.53591,N,12117.69195,E,0.021,,141217,,,A*62
$GNRMC,211547.00,A,3114.53590,N,12117.69194,E,0.021,,141217,,,A*63
$GNRMC,211548.00,A,3114.53590,N,12117.69192,E,0.030,,141217,,,A*6A
$GNRMC,211549.00,A,3114.53590,N,12117.69190,E,0.012,,141217,,,A*69
$GNRMC,211550.00,A,3114.53590,N,12117.69189,E,0.008,,141217,,,A*62
$GNRMC,211551.00,A,3114.53590,N,12117.69187,E,0.019,,141217,,,A*6D
$GNRMC,211552.00,A,3114.53590,N,12117.69185,E,0.019,,141217,,,A*6C
$GNRMC,211553.00,A,3114.53590,N,12117.69183,E,0.013,,141217,,,A*61
$GNRMC,211554.00,A,3114.53591,N,12117.69182,E,0.009,,141217,,,A*6D
$GNRMC,211555.00,A,3114.53591,N,12117.69182,E,0.001,,141217,,,A*64
$GNRMC,211556.00,A,3114.53593,N,12117.69179,E,0.005,,141217,,,A*65
$GNRMC,211557.00,A,3114.53595,N,12117.69179,E,0.014,,141217,,,A*62
$GNRMC,211558.00,A,3114.53597,N,12117.69177,E,0.022,,141217,,,A*64
$GNRMC,211559.00,A,3114.53600,N,12117.69176,E,0.009,,141217,,,A*60
$GNRMC,211600.00,A,3114.53602,N,12117.69175,E,0.007,,141217,,,A*60
$GNRMC,211601.00,A,3114.53604,N,12117.69174,E,0.010,,141217,,,A*60
$GNRMC,211602.00,A,3114.53604,N,12117.69173,E,0.010,,141217,,,A*64
$GNRMC,211603.00,A,3114.53604,N,12117.69173,E,0.010,,141217,,,A*65
$GNRMC,211604.00,A,3114.53605,N,12117.69173,E,0.010,,141217,,,A*63
$GNRMC,211605.00,A,3114.53605,N,12117.69173,E,0.010,,141217,,,A*62
$GNRMC,211606.00,A,3114.53605,N,12117.69173,E,0.020,,141217,,,A*62
$GNRMC,211607.00,A,3114.53604,N,12117.69174,E,0.023,,141217,,,A*66
$GNRMC,211608.00,A,3114.53604,N,12117.69175,E,0.025,,141217,,,A*6E
$GNRMC,211609.00,A,3114.53604,N,12117.69175,E,0.010,,141217,,,A*69
$GNRMC,211610.00,A,3114.53604,N,12117.69176,E,0.016,,141217,,,A*64
$GNRMC,211611.00,A,3114.53604,N,12117.69176,E,0.013,,141217,,,A*60
$GNRMC,211612.00,A,3114.53605,N,12117.69175,E,0.006,,141217,,,A*65
$GNRMC,211613.00,A,3114.53605,N,12117.69174,E,0.011,,141217,,,A*63
$GNRMC,211614.00,A,3114.53605,N,12117.69172,E,0.010,,141217,,,A*63
$GNRMC,211615.00,A,3114.53606,N,12117.69171,E,0.009,,141217,,,A*6A
$GNRMC,211616.00,A,3114.53606,N,12117.69169,E,0.015,,141217,,,A*6D
$GNRMC,211617.00,A,3114.53605,N,12117.69168,E,0.012,,141217,,,A*69
$GNRMC,211618.00,A,3114.53605,N,12117.69167,E,0.024,,141217,,,A*6C
$GNRMC,211619.00,A,3114.53605,N,12117.69166,E,0.014,,141217,,,A*6F
$GNRMC,211620.00,A,3114.53605,N,12117.69165,E,0.012,,141217,,,A*60
$GNRMC,211621.00,A,3114.53605,N,12117.69164,E,0.016,,141217,,,A*64
$GNRMC,211622.00,A,3114.53605,N,12117.69163,E,0.014,,141217,,,A*62
$GNRMC,211623.00,A,3114.53606,N,12117.69161,E,0.013,,141217,,,A*65
$GNRMC,211624.00,A,3114.53607,N,12117.69160,E,0.011,,141217,,,A*60
$GNRMC,211625.00,A,3114.53608,N,12117.69158,E,0.006,,141217,,,A*63
$GNRMC,211626.00,A,3114.53609,N,12117.69157,E,0.013,,141217,,,A*6A
$GNRMC,211627.00,A,3114.53610,N,12117.69156,E,0.026,,141217,,,A*64
$GNRMC,211628.00,A,3114.53612,N,12117.69155,E,0.017,,141217,,,A*68
$GNRMC,211629.00,A,3114.53613,N,12117.69155,E,0.011,,141217,,,A*6E
$GNRMC,211630.00,A,3114.53613,N,12117.69155,E,0.009,,141217,,,A*6F
$GNRMC,211631.00,A,3114.53613,N,12117.69155,E,0.006,,141217,,,A*61
$GNRMC,211632.00,A,3114.53615,N,12117.69155,E,0.003,,141217,,,A*61
$GNRMC,211633.00,A,3114.53616,N,12117.69154,E,0.006,,141217,,,A*67
$GNRMC,211634.00,A,3114.53618,N,12117.69154,E,0.007,,141217,,,A*6F
$GNRMC,211635.00,A,3114.53620,N,12117.69154,E,0.011,,141217,,,A*62
$GNRMC,211636.00,A,3114.53622,N,12117.69154,E,0.005,,141217,,,A*66
$GNRMC,211637.00,A,3114.53624,N,12117.69154,E,0.013,,141217,,,A*66
$GNRMC,211638.00,A,3114.53626,N,12117.69154,E,0.021,,141217,,,A*6A
$GNRMC,211639.00,A,3114.53628,N,12117.69154,E,0.014,,141217,,,A*63
$GNRMC,211640.00,A,3114.53630,N,12117.69154,E,0.021,,141217,,,A*62
$GNRMC,211641.00,A,3114.53631,N,12117.69155,E,0.008,,141217,,,A*68
$GNRMC,211642.00,A,3114.53633,N,12117.69157,E,0.005,,141217,,,A*66
$GNRMC,211643.00,A,3114.53635,N,12117.69158,E,0.006,,141217,,,A*6D
$GNRMC,211644.00,A,3114.53636,N,12117.69159,E,0.008,,141217,,,A*66
$GNRMC,211645.00,A,3114.53638,N,12117.69161,E,0.007,,141217,,,A*6D
$GNRMC,211646.00,A,3114.53639,N,12117.69162,E,0.010,,141217,,,A*6A
$GNRMC,211647.00,A,3114.53640,N,12117.69164,E,0.012,,141217,,,A*61
$GNRMC,211648.00,A,3114.53641,N,12117.69165,E,0.013,,141217,,,A*6F
$GNRMC,211649.00,A,3114.53641,N,12117.69166,E,0.008,,141217,,,A*67
$GNRMC,211650.00,A,3114.53640,N,12117.69168,E,0.004,,141217,,,A*6C
$GNRMC,211651.00,A,3114.53638,N,12117.69172,E,0.017,,141217,,,A*6B
$GNRMC,211652.00,A,3114.53636,N,12117.69174,E,0.004,,141217,,,A*62
$GNRMC,211653.00,A,3114.53635,N,12117.69177,E,0.005,,141217,,,A*62
$GNRMC,211654.00,A,3114.53635,N,12117.69179,E,0.019,,141217,,,A*66
$GNRMC,211655.00,A,3114.53636,N,12117.69180,E,0.015,,141217,,,A*6E
$GNRMC,211656.00,A,3114.53636,N,12117.69181,E,0.010,,141217,,,A*69
$GNRMC,211657.00,A,3114.53635,N,12117.69182,E,0.020,,141217,,,A*6B
$GNRMC,211658.00,A,3114.53635,N,12117.69183,E,0.011,,141217,,,A*67
$GNRMC,211659.00,A,3114.53634,N,12117.69183,E,0.014,,141217,,,A*62
$GNRMC,211700.00,A,3114.53633,N,12117.69184,E,0.007,,141217,,,A*6D
$GNRMC,211701.00,A,3114.53632,N,12117.69185,E,0.006,,141217,,,A*6D
$GNRMC,211702.00,A,3114.53632,N,12117.69186,E,0.002,,141217,,,A*69
$GNRMC,211703.00,A,3114.53631,N,12117.69187,E,0.008,,141217,,,A*60
$GNRMC,211704.00,A,3114.53631,N,12117.69188,E,0.004,,141217,,,A*64
$GNRMC,211705.00,A,3114.53631,N,12117.69189,E,0.017,,141217,,,D*63
$GNRMC,211706.00,A,3114.53631,N,12117.69189,E,0.014,,141217,,,D*63
$GNRMC,211707.00,A,3114.53630,N,12117.69190,E,0.007,,141217,,,D*69
$GNRMC,211708.00,A,3114.53629,N,12117.69191,E,0.010,,141217,,,D*69
$GNRMC,211709.00,A,3114.53630,N,12117.69191,E,0.009,,141217,,,D*68
$GNRMC,211710.00,A,3114.53630,N,12117.69191,E,0.008,,141217,,,D*61
$GNRMC,211711.00,A,3114.53631,N,12117.69191,E,0.009,,141217,,,D*60
$GNRMC,211712.00,A,3114.53631,N,12117.69192,E,0.010,,141217,,,A*6D
$GNRMC,211713.00,A,3114.53631,N,12117.69193,E,0.002,,141217,,,A*6E
$GNRMC,211714.00,A,3114.53631,N,12117.69195,E,0.005,,141217,,,A*68
$GNRMC,211715.00,A,3114.53632,N,12117.69196,E,0.009,,141217,,,A*65
$GNRMC,211716.00,A,3114.53632,N,12117.69198,E,0.011,,141217,,,A*61
$GNRMC,211717.00,A,3114.53632,N,12117.69200,E,0.005,,141217,,,A*67
$GNRMC,211718.00,A,3114.53632,N,12117.69202,E,0.005,,141217,,,A*6A
$GNRMC,211719.00,A,3114.53633,N,12117.69204,E,0.005,,141217,,,A*6C
$GNRMC,211720.00,A,3114.53632,N,12117.69206,E,0.011,,141217,,,A*60
$GNRMC,211721.00,A,3114.53633,N,12117.69207,E,0.009,,141217,,,A*68
$GNRMC,211722.00,A,3114.53634,N,12117.69208,E,0.004,,141217,,,A*6E
$GNRMC,211723.00,A,3114.53635,N,12117.69208,E,0.016,,141217,,,A*6D
$GNRMC,211724.00,A,3114.53637,N,12117.69208,E,0.015,,141217,,,A*6B
$GNRMC,211725.00,A,3114.53638,N,12117.69208,E,0.007,,141217,,,A*66
$GNRMC,211726.00,A,3114.53639,N,12117.69208,E,0.017,,141217,,,A*65
$GNRMC,211727.00,A,3114.53640,N,12117.69208,E,0.009,,141217,,,A*65
$GNRMC,211728.00,A,3114.53641,N,12117.69207,E,0.017,,141217,,,A*6B
$GNRMC,211729.00,A,3114.53642,N,12117.69207,E,0.017,,141217,,,A*69
$GNRMC,211730.00,A,3114.53644,N,12117.69205,E,0.004,,141217,,,A*67
$GNRMC,211731.00,A,3114.53645,N,12117.69203,E,0.011,,141217,,,A*65
$GNRMC,211732.00,A,3114.53646,N,12117.69202,E,0.016,,141217,,,A*63
$GNRMC,211733.00,A,3114.53647,N,12117.69199,E,0.011,,141217,,,A*65
$GNRMC,211734.00,A,3114.53649,N,12117.69195,E,0.018,,141217,,,A*69
$GNRMC,211735.00,A,3114.53651,N,12117.69192,E,0.009,,141217,,,A*66
$GNRMC,211736.00,A,3114.53653,N,12117.69190,E,0.013,,141217,,,A*6E
$GNRMC,211737.00,A,3114.53655,N,12117.69187,E,0.008,,141217,,,A*65
$GNRMC,211738.00,A,3114.53656,N,12117.69185,E,0.011,,141217,,,A*63
$GNRMC,211739.00,A,3114.53656,N,12117.69183,E,0.003,,141217,,,A*67
$GNRMC,211740.00,A,3114.53656,N,12117.69182,E,0.002,,141217,,,A*69
$GNRMC,211741.00,A,3114.53657,N,12117.69180,E,0.006,,141217,,,A*6F
$GNRMC,211742.00,A,3114.53658,N,12117.69177,E,0.005,,141217,,,A*68
$GNRMC,211743.00,A,3114.53658,N,12117.69175,E,0.011,,141217,,,A*6E
$GNRMC,211744.00,A,3114.53657,N,12117.69173,E,0.006,,141217,,,A*66
$GNRMC,211745.00,A,3114.53656,N,12117.69171,E,0.014,,141217,,,A*67
$GNRMC,211746.00,A,3114.53655,N,12117.69169,E,0.011,,141217,,,A*6B
$GNRMC,211747.00,A,3114.53654,N,12117.69167,E,0.005,,141217,,,A*60
$GNRMC,211748.00,A,3114.53652,N,12117.69166,E,0.011,,141217,,,A*6D
$GNRMC,211749.00,A,3114.53650,N,12117.69164,E,0.007,,141217,,,A*6B
$GNRMC,211750.00,A,3114.53649,N,12117.69162,E,0.006,,141217,,,A*6C
$GNRMC,211751.00,A,3114.53648,N,12117.69160,E,0.008,,141217,,,A*60
$GNRMC,211752.00,A,3114.53647,N,12117.69158,E,0.008,,141217,,,A*67
$GNRMC,211753.00,A,3114.53645,N,12117.69156,E,0.014,,141217,,,A*67
$GNRMC,211754.00,A,3114.53644,N,12117.69155,E,0.011,,141217,,,D*62
$GNRMC,211755.00,A,3114.53644,N,12117.69153,E,0.008,,141217,,,D*6D
$GNRMC,211756.00,A,3114.53643,N,12117.69153,E,0.017,,141217,,,D*67
$GNRMC,211757.00,A,3114.53642,N,12117.69152,E,0.010,,141217,,,D*61
$GNRMC,211758.00,A,3114.53641,N,12117.69150,E,0.014,,141217,,,D*6B
$GNRMC,211759.00,A,3114.53640,N,12117.69150,E,0.009,,141217,,,D*67
$GNRMC,211800.00,A,3114.53638,N,12117.69149,E,0.011,,141217,,,D*6A
$GNRMC,211801.00,A,3114.53636,N,12117.69149,E,0.013,,141217,,,D*67
$GNRMC,211802.00,A,3114.53634,N,12117.69149,E,0.012,,141217,,,D*67
$GNRMC,211803.00,A,3114.53632,N,12117.69150,E,0.008,,141217,,,D*63
$GNRMC,211804.00,A,3114.53631,N,12117.69150,E,0.005,,141217,,,D*6A
$GNRMC,211805.00,A,3114.53629,N,12117.69151,E,0.011,,141217,,,D*66
$GNRMC,211806.00,A,3114.53628,N,12117.69152,E,0.017,,141217,,,D*61
$GNRMC,211807.00,A,3114.53627,N,12117.69153,E,0.005,,141217,,,D*6D
$GNRMC,211808.00,A,3114.53626,N,12117.69155,E,0.010,,141217,,,D*61
$GNRMC,211809.00,A,3114.53625,N,12117.69158,E,0.004,,141217,,,D*6B
$GNRMC,211810.00,A,3114.53624,N,12117.69162,E,0.016,,141217,,,D*68
$GNRMC,211811.00,A,3114.53625,N,12117.69165,E,0.015,,141217,,,D*6C
$GNRMC,211812.00,A,3114.53624,N,12117.69168,E,0.005,,141217,,,D*62
$GNRMC,211813.00,A,3114.53624,N,12117.69171,E,0.011,,141217,,,D*6E
$GNRMC,211814.00,A,3114.53624,N,12117.69174,E,0.004,,141217,,,D*68
$GNRMC,211815.00,A,3114.53622,N,12117.69178,E,0.016,,141217,,,D*60
$GNRMC,211816.00,A,3114.53620,N,12117.69181,E,0.029,,141217,,,D*6B
$GNRMC,211817.00,A,3114.53617,N,12117.69184,E,0.012,,141217,,,D*63
$GNRMC,211818.00,A,3114.53614,N,12117.69186,E,0.005,,141217,,,D*6B
$GNRMC,211819.00,A,3114.53612,N,12117.69189,E,0.005,,141217,,,D*63
$GNRMC,211820.00,A,3114.53609,N,12117.69191,E,0.006,,141217,,,D*69
$GNRMC,211821.00,A,3114.53606,N,12117.69192,E,0.013,,141217,,,D*60
$GNRMC,211822.00,A,3114.53603,N,12117.69193,E,0.013,,141217,,,D*67
$GNRMC,211823.00,A,3114.53599,N,12117.69195,E,0.024,,141217,,,D*64
$GNRMC,211824.00,A,3114.53595,N,12117.69196,E,0.015,,141217,,,D*6E
$GNRMC,211825.00,A,3114.53592,N,12117.69197,E,0.017,,141217,,,D*6B
$GNRMC,211826.00,A,3114.53588,N,12117.69199,E,0.026,,141217,,,D*6F
$GNRMC,211827.00,A,3114.53583,N,12117.69201,E,0.009,,141217,,,D*6A
$GNRMC,211828.00,A,3114.53579,N,12117.69204,E,0.013,,141217,,,D*6E
$GNRMC,211829.00,A,3114.53576,N,12117.69206,E,0.006,,141217,,,D*66
$GNRMC,211830.00,A,3114.53572,N,12117.69209,E,0.007,,141217,,,D*64
$GNRMC,211831.00,A,3114.53568,N,12117.69212,E,0.005,,141217,,,D*66
$GNRMC,211832.00,A,3114.53564,N,12117.69215,E,0.004,,141217,,,D*6F
$GNRMC,211833.00,A,3114.53561,N,12117.69218,E,0.020,,141217,,,D*60
$GNRMC,211834.00,A,3114.53557,N,12117.69221,E,0.017,,141217,,,D*6C
$GNRMC,211835.00,A,3114.53554,N,12117.69223,E,0.009,,141217,,,D*63
$GNRMC,211836.00,A,3114.53550,N,12117.69225,E,0.014,,141217,,,D*6E
$GNRMC,211837.00,A,3114.53547,N,12117.69227,E,0.014,,141217,,,D*6B
$GNRMC,211838.00,A,3114.53545,N,12117.69229,E,0.007,,141217,,,D*6A
$GNRMC,211839.00,A,3114.53544,N,12117.69230,E,0.007,,141217,,,D*62
$GNRMC,211840.00,A,3114.53543,N,12117.69231,E,0.002,,141217,,,D*6F
$GNRMC,211841.00,A,3114.53542,N,12117.69233,E,0.010,,141217,,,D*6E
$GNRMC,211842.00,A,3114.53541,N,12117.69234,E,0.003,,141217,,,D*6B
$GNRMC,211843.00,A,3114.53541,N,12117.69235,E,0.013,,141217,,,D*6A
$GNRMC,211844.00,A,3114.53540,N,12117.69236,E,0.018,,141217,,,D*64
$GNRMC,211845.00,A,3114.53539,N,12117.69237,E,0.011,,141217,,,D*63
$GNRMC,211846.00,A,3114.53540,N,12117.69238,E,0.015,,141217,,,D*65
$GNRMC,211847.00,A,3114.53541,N,12117.69238,E,0.007,,141217,,,D*66
$GNRMC,211848.00,A,3114.53543,N,12117.69237,E,0.016,,141217,,,D*64
$GNRMC,211849.00,A,3114.53546,N,12117.69236,E,0.016,,141217,,,D*61
$GNRMC,211850.00,A,3114.53548,N,12117.69237,E,0.004,,141217,,,D*65
$GNRMC,211851.00,A,3114.53550,N,12117.69238,E,0.011,,141217,,,D*66
$GNRMC,211852.00,A,3114.53552,N,12117.69241,E,0.006,,141217,,,D*6F
$GNRMC,211853.00,A,3114.53554,N,12117.69243,E,0.010,,141217,,,D*6D
$GNRMC,211854.00,A,3114.53557,N,12117.69245,E,0.005,,141217,,,D*6B
$GNRMC,211855.00,A,3114.53561,N,12117.69246,E,0.014,,141217,,,D*6C
$GNRMC,211856.00,A,3114.53564,N,12117.69248,E,0.022,,141217,,,D*61
$GNRMC,211857.00,A,3114.53565,N,12117.69251,E,0.005,,141217,,,D*6C
$GNRMC,211858.00,A,3114.53566,N,12117.69253,E,0.005,,141217,,,D*62
$GNRMC,211859.00,A,3114.53567,N,12117.69255,E,0.009,,141217,,,D*68
$GNRMC,211900.00,A,3114.53567,N,12117.69258,E,0.011,,141217,,,D*61
$GNRMC,211901.00,A,3114.53568,N,12117.69260,E,0.019,,141217,,,D*6C
$GNRMC,211902.00,A,3114.53567,N,12117.69262,E,0.010,,141217,,,D*6B
$GNRMC,211903.00,A,3114.53569,N,12117.69264,E,0.007,,141217,,,D*64
$GNRMC,211904.00,A,3114.53570,N,12117.69265,E,0.006,,141217,,,D*6B
$GNRMC,211905.00,A,3114.53571,N,12117.69266,E,0.008,,141217,,,D*66
$GNRMC,211906.00,A,3114.53573,N,12117.69268,E,0.016,,141217,,,D*66
$GNRMC,211907.00,A,3114.53574,N,12117.69269,E,0.004,,141217,,,D*62
$GNRMC,211908.00,A,3114.53575,N,12117.69271,E,0.009,,141217,,,D*68
$GNRMC,211909.00,A,3114.53576,N,12117.69272,E,0.004,,141217,,,D*64
$GNRMC,211910.00,A,3114.53577,N,12117.69273,E,0.002,,141217,,,D*6A
$GNRMC,211911.00,A,3114.53578,N,12117.69275,E,0.002,,141217,,,D*62
$GNRMC,211912.00,A,3114.53579,N,12117.69275,E,0.006,,141217,,,D*64
$GNRMC,211913.00,A,3114.53581,N,12117.69277,E,0.012,,141217,,,D*65
$GNRMC,211914.00,A,3114.53582,N,12117.69278,E,0.009,,141217,,,D*64
$GNRMC,211915.00,A,3114.53583,N,12117.69279,E,0.010,,141217,,,D*6D
$GNRMC,211916.00,A,3114.53585,N,12117.69280,E,0.006,,141217,,,D*69
$GNRMC,211917.00,A,3114.53586,N,12117.69281,E,0.006,,141217,,,D*6A
$GNRMC,211918.00,A,3114.53587,N,12117.69282,E,0.012,,141217,,,D*62
$GNRMC,211919.00,A,3114.53587,N,12117.69282,E,0.004,,141217,,,D*64
$GNRMC,211920.00,A,3114.53586,N,12117.69284,E,0.004,,141217,,,D*69
$GNRMC,211921.00,A,3114.53585,N,12117.69286,E,0.007,,141217,,,D*6A
$GNRMC,211922.00,A,3114.53584,N,12117.69287,E,0.005,,141217,,,D*6B
$GNRMC,211923.00,A,3114.53583,N,12117.69289,E,0.011,,141217,,,D*66
$GNRMC,211924.00,A,3114.53582,N,12117.69291,E,0.002,,141217,,,D*6B
$GNRMC,211925.00,A,3114.53581,N,12117.69293,E,0.001,,141217,,,D*68
$GNRMC,211926.00,A,3114.53582,N,12117.69295,E,0.012,,141217,,,D*6C
$GNRMC,211927.00,A,3114.53583,N,12117.69296,E,0.006,,141217,,,D*6A
$GNRMC,211928.00,A,3114.53584,N,12117.69298,E,0.009,,141217,,,D*63
$GNRMC,211929.00,A,3114.53584,N,12117.69299,E,0.009,,141217,,,D*63
$GNRMC,211930.00,A,3114.53584,N,12117.69301,E,0.013,,141217,,,D*60
$GNRMC,211931.00,A,3114.53583,N,12117.69303,E,0.010,,141217,,,D*67
$GNRMC,211932.00,A,3114.53583,N,12117.69305,E,0.007,,141217,,,D*64
$GNRMC,211933.00,A,3114.53582,N,12117.69307,E,0.009,,141217,,,D*68
$GNRMC,211934.00,A,3114.53583,N,12117.69309,E,0.006,,141217,,,D*6F
$GNRMC,211935.00,A,3114.53583,N,12117.69311,E,0.004,,141217,,,D*65
$GNRMC,211936.00,A,3114.53584,N,12117.69313,E,0.005,,141217,,,D*62
$GNRMC,211937.00,A,3114.53586,N,12117.69314,E,0.009,,141217,,,D*6A
$GNRMC,211938.00,A,3114.53589,N,12117.69315,E,0.011,,141217,,,D*62
$GNRMC,211939.00,A,3114.53591,N,12117.69316,E,0.010,,141217,,,D*68
$GNRMC,211940.00,A,3114.53594,N,12117.69315,E,0.014,,141217,,,D*64
$GNRMC,211941.00,A,3114.53597,N,12117.69315,E,0.005,,141217,,,D*66
$GNRMC,211942.00,A,3114.53600,N,12117.69315,E,0.005,,141217,,,D*68
$GNRMC,211943.00,A,3114.53603,N,12117.69313,E,0.010,,141217,,,D*68
$GNRMC,211944.00,A,3114.53605,N,12117.69311,E,0.007,,141217,,,D*6D
$GNRMC,211945.00,A,3114.53606,N,12117.69308,E,0.007,,141217,,,D*67
$GNRMC,211946.00,A,3114.53607,N,12117.69304,E,0.007,,141217,,,D*69
$GNRMC,211947.00,A,3114.53607,N,12117.69300,E,0.014,,141217,,,D*6E
$GNRMC,211948.00,A,3114.53607,N,12117.69297,E,0.016,,141217,,,D*6C
$GNRMC,211949.00,A,3114.53608,N,12117.69294,E,0.018,,141217,,,D*6F
$GNRMC,211950.00,A,3114.53607,N,12117.69291,E,0.012,,141217,,,D*67
$GNRMC,211951.00,A,3114.53607,N,12117.69289,E,0.008,,141217,,,D*64
$GNRMC,211952.00,A,3114.53607,N,12117.69286,E,0.007,,141217,,,D*67
$GNRMC,211953.00,A,3114.53607,N,12117.69283,E,0.009,,141217,,,D*6D
$GNRMC,211954.00,A,3114.53606,N,12117.69281,E,0.007,,141217,,,D*67
$GNRMC,211955.00,A,3114.53607,N,12117.69278,E,0.006,,141217,,,D*60
$GNRMC,211956.00,A,3114.53608,N,12117.69275,E,0.008,,141217,,,D*6F
$GNRMC,211957.00,A,3114.53609,N,12117.69272,E,0.006,,141217,,,D*66
$GNRMC,211958.00,A,3114.53609,N,12117.69269,E,0.015,,141217,,,D*61
$GNRMC,211959.00,A,3114.53609,N,12117.69267,E,0.011,,141217,,,D*6A
$GNRMC,212000.00,A,3114.53609,N,12117.69265,E,0.003,,141217,,,D*6D
$GNRMC,212001.00,A,3114.53608,N,12117.69263,E,0.005,,141217,,,D*6D
$GNRMC,212002.00,A,3114.53608,N,12117.69261,E,0.007,,141217,,,D*6E
$GNRMC,212003.00,A,3114.53607,N,12117.69260,E,0.003,,141217,,,D*65
$GNRMC,212004.00,A,3114.53607,N,12117.69259,E,0.008,,141217,,,D*63
$GNRMC,212005.00,A,3114.53607,N,12117.69258,E,0.010,,141217,,,D*6A
$GNRMC,212006.00,A,3114.53606,N,12117.69257,E,0.007,,141217,,,D*61
$GNRMC,212007.00,A,3114.53606,N,12117.69256,E,0.016,,141217,,,D*61
$GNRMC,212008.00,A,3114.53606,N,12117.69255,E,0.016,,141217,,,D*6D
$GNRMC,212009.00,A,3114.53605,N,12117.69255,E,0.016,,141217,,,D*6F
$GNRMC,212010.00,A,3114.53605,N,12117.69254,E,0.002,,141217,,,D*63
$GNRMC,212011.00,A,3114.53605,N,12117.69253,E,0.008,,141217,,,D*6F
$GNRMC,212012.00,A,3114.53605,N,12117.69252,E,0.007,,141217,,,D*62
$GNRMC,212013.00,A,3114.53604,N,12117.69252,E,0.008,,141217,,,D*6D
$GNRMC,212014.00,A,3114.53604,N,12117.69251,E,0.013,,141217,,,D*63
$GNRMC,212015.00,A,3114.53603,N,12117.69249,E,0.009,,141217,,,D*67
$GNRMC,212016.00,A,3114.53603,N,12117.69248,E,0.010,,141217,,,D*6D
$GNRMC,212017.00,A,3114.53601,N,12117.69248,E,0.008,,141217,,,D*67
$GNRMC,212018.00,A,3114.53598,N,12117.69248,E,0.011,,141217,,,D*63
$GNRMC,212019.00,A,3114.53594,N,12117.69248,E,0.008,,141217,,,D*66
$GNRMC,212020.00,A,3114.53592,N,12117.69248,E,0.009,,141217,,,D*6B
$GNRMC,212021.00,A,3114.53589,N,12117.69248,E,0.008,,141217,,,D*61
$GNRMC,212022.00,A,3114.53585,N,12117.69248,E,0.003,,141217,,,D*65
$GNRMC,212023.00,A,3114.53583,N,12117.69249,E,0.006,,141217,,,D*66
$GNRMC,212024.00,A,3114.53583,N,12117.69249,E,0.013,,141217,,,D*65
$GNRMC,212025.00,A,3114.53581,N,12117.69250,E,0.015,,141217,,,D*68
$GNRMC,212026.00,A,3114.53581,N,12117.69250,E,0.008,,141217,,,D*67
$GNRMC,212027.00,A,3114.53580,N,12117.69248,E,0.005,,141217,,,D*63
$GNRMC,212028.00,A,3114.53581,N,12117.69247,E,0.012,,141217,,,D*64
$GNRMC,212029.00,A,3114.53582,N,12117.69245,E,0.011,,141217,,,D*67
$GNRMC,212030.00,A,3114.53583,N,12117.69245,E,0.003,,141217,,,D*6D
$GNRMC,212031.00,A,3114.53585,N,12117.69243,E,0.009,,141217,,,D*66
$GNRMC,212032.00,A,3114.53586,N,12117.69240,E,0.011,,141217,,,D*6C
$GNRMC,212033.00,A,3114.53586,N,12117.69238,E,0.003,,141217,,,D*61
$GNRMC,212034.00,A,3114.53587,N,12117.69236,E,0.008,,141217,,,D*62
$GNRMC,212035.00,A,3114.53588,N,12117.69234,E,0.013,,141217,,,D*64
$GNRMC,212036.00,A,3114.53589,N,12117.69232,E,0.015,,141217,,,D*66
$GNRMC,212037.00,A,3114.53591,N,12117.69231,E,0.006,,141217,,,D*6F
$GNRMC,212038.00,A,3114.53594,N,12117.69229,E,0.012,,141217,,,D*69
$GNRMC,212039.00,A,3114.53596,N,12117.69228,E,0.011,,141217,,,D*68
$GNRMC,212040.00,A,3114.53599,N,12117.69227,E,0.008,,141217,,,D*6E
$GNRMC,212041.00,A,3114.53601,N,12117.69226,E,0.010,,141217,,,D*65
$GNRMC,212042.00,A,3114.53604,N,12117.69224,E,0.008,,141217,,,D*68
$GNRMC,212043.00,A,3114.53606,N,12117.69224,E,0.004,,141217,,,D*67
$GNRMC,212044.00,A,3114.53608,N,12117.69223,E,0.014,,141217,,,D*68
$GNRMC,212045.00,A,3114.53609,N,12117.69223,E,0.004,,141217,,,D*69
$GNRMC,212046.00,A,3114.53610,N,12117.69223,E,0.017,,141217,,,D*60
$GNRMC,212047.00,A,3114.53612,N,12117.69223,E,0.006,,141217,,,D*63
$GNRMC,212048.00,A,3114.53615,N,12117.69222,E,0.011,,141217,,,D*6C
$GNRMC,212049.00,A,3114.53617,N,12117.69221,E,0.004,,141217,,,D*68
$GNRMC,212050.00,A,3114.53619,N,12117.69221,E,0.002,,141217,,,D*68
$GNRMC,212051.00,A,3114.53622,N,12117.69221,E,0.015,,141217,,,D*67
$GNRMC,212052.00,A,3114.53623,N,12117.69220,E,0.009,,141217,,,D*69
$GNRMC,212053.00,A,3114.53624,N,12117.69219,E,0.007,,141217,,,D*6B
$GNRMC,212054.00,A,3114.53625,N,12117.69219,E,0.011,,141217,,,D*6A
$GNRMC,212055.00,A,3114.53626,N,12117.69219,E,0.009,,141217,,,D*61
$GNRMC,212056.00,A,3114.53628,N,12117.69220,E,0.005,,141217,,,D*6A
$GNRMC,212057.00,A,3114.53629,N,12117.69222,E,0.012,,141217,,,D*6E
$GNRMC,212058.00,A,3114.53629,N,12117.69223,E,0.017,,141217,,,D*65
$GNRMC,212059.00,A,3114.53630,N,12117.69225,E,0.014,,141217,,,D*69
$GNRMC,212100.00,A,3114.53631,N,12117.69227,E,0.008,,141217,,,D*6A
$GNRMC,212101.00,A,3114.53632,N,12117.69228,E,0.006,,141217,,,D*69
$GNRMC,212102.00,A,3114.53633,N,12117.69229,E,0.009,,141217,,,D*65
$GNRMC,212103.00,A,3114.53635,N,12117.69232,E,0.004,,141217,,,D*65
$GNRMC,212104.00,A,3114.53638,N,12117.69233,E,0.008,,141217,,,D*62
$GNRMC,212105.00,A,3114.53641,N,12117.69234,E,0.006,,141217,,,D*64
$GNRMC,212106.00,A,3114.53645,N,12117.69235,E,0.005,,141217,,,D*61
$GNRMC,212107.00,A,3114.53649,N,12117.69235,E,0.002,,141217,,,D*6B
$GNRMC,212108.00,A,3114.53653,N,12117.69235,E,0.010,,141217,,,D*6C
$GNRMC,212109.00,A,3114.53658,N,12117.69235,E,0.024,,141217,,,D*61
$GNRMC,212110.00,A,3114.53662,N,12117.69235,E,0.014,,141217,,,D*63
$GNRMC,212111.00,A,3114.53665,N,12117.69235,E,0.003,,141217,,,D*63
$GNRMC,212112.00,A,3114.53668,N,12117.69235,E,0.007,,141217,,,D*69
$GNRMC,212113.00,A,3114.53670,N,12117.69237,E,0.018,,141217,,,D*6D
$GNRMC,212114.00,A,3114.53671,N,12117.69237,E,0.010,,141217,,,D*63
$GNRMC,212115.00,A,3114.53673,N,12117.69238,E,0.006,,141217,,,D*68
$GNRMC,212116.00,A,3114.53675,N,12117.69239,E,0.003,,141217,,,D*69
$GNRMC,212117.00,A,3114.53677,N,12117.69240,E,0.008,,141217,,,D*6F
$GNRMC,212118.00,A,3114.53678,N,12117.69241,E,0.007,,141217,,,D*61
$GNRMC,212119.00,A,3114.53679,N,12117.69243,E,0.004,,141217,,,D*60
$GNRMC,212120.00,A,3114.53679,N,12117.69245,E,0.012,,141217,,,D*6B
$GNRMC,212121.00,A,3114.53679,N,12117.69247,E,0.007,,141217,,,D*6C
$GNRMC,212122.00,A,3114.53680,N,12117.69249,E,0.001,,141217,,,D*61
$GNRMC,212123.00,A,3114.53680,N,12117.69250,E,0.003,,141217,,,D*6A
$GNRMC,212124.00,A,3114.53681,N,12117.69252,E,0.009,,141217,,,D*64
$GNRMC,212125.00,A,3114.53681,N,12117.69252,E,0.012,,141217,,,D*6F
$GNRMC,212126.00,A,3114.53681,N,12117.69253,E,0.013,,141217,,,D*6C
$GNRMC,212127.00,A,3114.53682,N,12117.69254,E,0.005,,141217,,,D*6E
$GNRMC,212128.00,A,3114.53681,N,12117.69254,E,0.007,,141217,,,D*60
$GNRMC,212129.00,A,3114.53680,N,12117.69254,E,0.006,,141217,,,D*61
$GNRMC,212130.00,A,3114.53680,N,12117.69253,E,0.018,,141217,,,D*61
$GNRMC,212131.00,A,3114.53680,N,12117.69251,E,0.015,,141217,,,D*6F
$GNRMC,212132.00,A,3114.53681,N,12117.69249,E,0.012,,141217,,,D*63
$GNRMC,212133.00,A,3114.53681,N,12117.69247,E,0.010,,141217,,,D*6E
$GNRMC,212134.00,A,3114.53683,N,12117.69245,E,0.006,,141217,,,D*6E
$GNRMC,212135.00,A,3114.53684,N,12117.69242,E,0.013,,141217,,,D*6B
$GNRMC,212136.00,A,3114.53684,N,12117.69240,E,0.006,,141217,,,D*6E
$GNRMC,212137.00,A,3114.53685,N,12117.69240,E,0.013,,141217,,,D*6A
$GNRMC,212138.00,A,3114.53684,N,12117.69240,E,0.014,,141217,,,D*63
$GNRMC,212139.00,A,3114.53683,N,12117.69239,E,0.016,,141217,,,D*69
$GNRMC,212140.00,A,3114.53683,N,12117.69239,E,0.012,,141217,,,D*63
$GNRMC,212141.00,A,3114.53682,N,12117.69238,E,0.002,,141217,,,D*63
$GNRMC,212142.00,A,3114.53682,N,12117.69238,E,0.006,,141217,,,D*64
$GNRMC,212143.00,A,3114.53681,N,12117.69238,E,0.015,,141217,,,D*64
$GNRMC,212144.00,A,3114.53679,N,12117.69238,E,0.007,,141217,,,D*67
$GNRMC,212145.00,A,3114.53678,N,12117.69237,E,0.012,,141217,,,D*6C
$GNRMC,212146.00,A,3114.53676,N,12117.69236,E,0.013,,141217,,,D*61
$GNRMC,212147.00,A,3114.53675,N,12117.69235,E,0.008,,141217,,,D*6A
$GNRMC,212148.00,A,3114.53674,N,12117.69235,E,0.004,,141217,,,D*68
$GNRMC,212149.00,A,3114.53672,N,12117.69233,E,0.009,,141217,,,D*64
$GNRMC,212150.00,A,3114.53671,N,12117.69231,E,0.017,,141217,,,D*62
$GNRMC,212151.00,A,3114.53670,N,12117.69228,E,0.008,,141217,,,D*64
$GNRMC,212152.00,A,3114.53668,N,12117.69227,E,0.007,,141217,,,D*6E
$GNRMC,212153.00,A,3114.53666,N,12117.69225,E,0.009,,141217,,,D*6D
$GNRMC,212154.00,A,3114.53663,N,12117.69223,E,0.009,,141217,,,D*69
$GNRMC,212155.00,A,3114.53661,N,12117.69221,E,0.010,,141217,,,D*60
$GNRMC,212156.00,A,3114.53658,N,12117.69218,E,0.007,,141217,,,D*65
$GNRMC,212157.00,A,3114.53656,N,12117.69215,E,0.008,,141217,,,D*68
$GNRMC,212158.00,A,3114.53654,N,12117.69212,E,0.012,,141217,,,D*69
$GNRMC,212159.00,A,3114.53652,N,12117.69208,E,0.011,,141217,,,D*66
$GNRMC,212200.00,A,3114.53650,N,12117.69204,E,0.010,,141217,,,D*66
$GNRMC,212201.00,A,3114.53648,N,12117.69200,E,0.010,,141217,,,D*6A
$GNRMC,212202.00,A,3114.53645,N,12117.69196,E,0.006,,141217,,,D*6F
$GNRMC,212203.00,A,3114.53643,N,12117.69193,E,0.015,,141217,,,D*6F
$GNRMC,212204.00,A,3114.53641,N,12117.69190,E,0.019,,141217,,,D*65
$GNRMC,212205.00,A,3114.53638,N,12117.69187,E,0.017,,141217,,,D*62
$GNRMC,212206.00,A,3114.53636,N,12117.69184,E,0.012,,141217,,,D*69
$GNRMC,212207.00,A,3114.53634,N,12117.69181,E,0.003,,141217,,,D*6F
$GNRMC,212208.00,A,3114.53632,N,12117.69179,E,0.011,,141217,,,D*62
$GNRMC,212209.00,A,3114.53629,N,12117.69177,E,0.007,,141217,,,D*60
$GNRMC,212210.00,A,3114.53627,N,12117.69175,E,0.010,,141217,,,D*62
$GNRMC,212211.00,A,3114.53625,N,12117.69173,E,0.012,,141217,,,D*65
$GNRMC,212212.00,A,3114.53623,N,12117.69171,E,0.009,,141217,,,D*68
$GNRMC,212213.00,A,3114.53622,N,12117.69168,E,0.006,,141217,,,D*6F
$GNRMC,212214.00,A,3114.53622,N,12117.69166,E,0.005,,141217,,,D*65
$GNRMC,212215.00,A,3114.53621,N,12117.69164,E,0.003,,141217,,,D*63
$GNRMC,212216.00,A,3114.53620,N,12117.69163,E,0.008,,141217,,,D*6D
$GNRMC,212217.00,A,3114.53619,N,12117.69162,E,0.004,,141217,,,D*6B
$GNRMC,212218.00,A,3114.53617,N,12117.69161,E,0.013,,141217,,,D*6F
$GNRMC,212219.00,A,3114.53616,N,12117.69160,E,0.010,,141217,,,D*6D
$GNRMC,212220.00,A,3114.53615,N,12117.69158,E,0.008,,141217,,,D*66
$GNRMC,212221.00,A,3114.53615,N,12117.69156,E,0.012,,141217,,,D*62
$GNRMC,212222.00,A,3114.53614,N,12117.69155,E,0.010,,141217,,,D*61
$GNRMC,212223.00,A,3114.53615,N,12117.69153,E,0.004,,141217,,,D*62
$GNRMC,212224.00,A,3114.53615,N,12117.69151,E,0.006,,141217,,,D*65
$GNRMC,212225.00,A,3114.53616,N,12117.69149,E,0.009,,141217,,,D*61
$GNRMC,212226.00,A,3114.53617,N,12117.69147,E,0.008,,141217,,,D*6C
$GNRMC,212227.00,A,3114.53618,N,12117.69145,E,0.008,,141217,,,D*60
$GNRMC,212228.00,A,3114.53618,N,12117.69143,E,0.008,,141217,,,D*69
$GNRMC,212229.00,A,3114.53618,N,12117.69141,E,0.009,,141217,,,D*6B
$GNRMC,212230.00,A,3114.53618,N,12117.69139,E,0.008,,141217,,,D*6D
$GNRMC,212231.00,A,3114.53617,N,12117.69138,E,0.007,,141217,,,D*6D
$GNRMC,212232.00,A,3114.53618,N,12117.69138,E,0.006,,141217,,,D*60
$GNRMC,212233.00,A,3114.53618,N,12117.69138,E,0.003,,141217,,,D*64
$GNRMC,212234.00,A,3114.53618,N,12117.69138,E,0.003,,141217,,,D*63
$GNRMC,212235.00,A,3114.53619,N,12117.69138,E,0.008,,141217,,,D*68
$GNRMC,212236.00,A,3114.53619,N,12117.69138,E,0.010,,141217,,,D*62
$GNRMC,212237.00,A,3114.53619,N,12117.69139,E,0.005,,141217,,,D*66
$GNRMC,212238.00,A,3114.53619,N,12117.69140,E,0.005,,141217,,,D*67
$GNRMC,212239.00,A,3114.53619,N,12117.69140,E,0.005,,141217,,,D*66
$GNRMC,212240.00,A,3114.53619,N,12117.69141,E,0.003,,141217,,,D*6F
$GNRMC,212241.00,A,3114.53618,N,12117.69142,E,0.005,,141217,,,D*6A
$GNRMC,212242.00,A,3114.53617,N,12117.69143,E,0.007,,141217,,,D*65
$GNRMC,212243.00,A,3114.53617,N,12117.69144,E,0.013,,141217,,,D*66
$GNRMC,212244.00,A,3114.53616,N,12117.69146,E,0.002,,141217,,,D*62
$GNRMC,212245.00,A,3114.53615,N,12117.69147,E,0.009,,141217,,,D*6A
$GNRMC,212246.00,A,3114.53614,N,12117.69149,E,0.006,,141217,,,D*69
$GNRMC,212247.00,A,3114.53615,N,12117.69151,E,0.007,,141217,,,D*61
$GNRMC,212248.00,A,3114.53615,N,12117.69153,E,0.011,,141217,,,D*6B
$GNRMC,212249.00,A,3114.53616,N,12117.69156,E,0.006,,141217,,,D*6A
$GNRMC,212250.00,A,3114.53617,N,12117.69158,E,0.011,,141217,,,D*6B
$GNRMC,212251.00,A,3114.53618,N,12117.69160,E,0.003,,141217,,,D*6D
$GNRMC,212252.00,A,3114.53619,N,12117.69162,E,0.008,,141217,,,D*66
$GNRMC,212253.00,A,3114.53620,N,12117.69164,E,0.007,,141217,,,D*64
$GNRMC,212254.00,A,3114.53620,N,12117.69164,E,0.007,,141217,,,D*63
$GNRMC,212255.00,A,3114.53619,N,12117.69165,E,0.013,,141217,,,D*6C
$GNRMC,212256.00,A,3114.53619,N,12117.69166,E,0.011,,141217,,,D*6E
$GNRMC,212257.00,A,3114.53619,N,12117.69167,E,0.010,,141217,,,D*6F
$GNRMC,212258.00,A,3114.53619,N,12117.69168,E,0.007,,141217,,,D*69
$GNRMC,212259.00,A,3114.53619,N,12117.69170,E,0.007,,141217,,,D*61
$GNRMC,212300.00,A,3114.53620,N,12117.69171,E,0.007,,141217,,,D*67
$GNRMC,212301.00,A,3114.53621,N,12117.69171,E,0.008,,141217,,,D*68
$GNRMC,212302.00,A,3114.53622,N,12117.69172,E,0.001,,141217,,,D*62
$GNRMC,212303.00,A,3114.53622,N,12117.69172,E,0.006,,141217,,,D*64
$GNRMC,212304.00,A,3114.53623,N,12117.69171,E,0.005,,141217,,,D*62
$GNRMC,212305.00,A,3114.53624,N,12117.69169,E,0.014,,141217,,,D*6D
$GNRMC,212306.00,A,3114.53624,N,12117.69167,E,0.013,,141217,,,D*67
$GNRMC,212307.00,A,3114.53624,N,12117.69164,E,0.013,,141217,,,D*65
$GNRMC,212308.00,A,3114.53624,N,12117.69161,E,0.016,,141217,,,D*6A
$GNRMC,212309.00,A,3114.53624,N,12117.69158,E,0.008,,141217,,,D*6E
$GNRMC,212310.00,A,3114.53624,N,12117.69155,E,0.003,,141217,,,D*60
$GNRMC,212311.00,A,3114.53623,N,12117.69153,E,0.008,,141217,,,D*6B
$GNRMC,212312.00,A,3114.53623,N,12117.69150,E,0.014,,141217,,,D*66
$GNRMC,212313.00,A,3114.53622,N,12117.69147,E,0.010,,141217,,,D*64
$GNRMC,212314.00,A,3114.53621,N,12117.69144,E,0.013,,141217,,,D*60
$GNRMC,212315.00,A,3114.53620,N,12117.69142,E,0.015,,141217,,,D*60
$GNRMC,212316.00,A,3114.53619,N,12117.69139,E,0.016,,141217,,,D*66
$GNRMC,212317.00,A,3114.53617,N,12117.69138,E,0.007,,141217,,,D*68
$GNRMC,212318.00,A,3114.53614,N,12117.69137,E,0.010,,141217,,,D*6D
$GNRMC,212319.00,A,3114.53612,N,12117.69137,E,0.018,,141217,,,D*62
$GNRMC,212320.00,A,3114.53608,N,12117.69137,E,0.010,,141217,,,D*6B
$GNRMC,212321.00,A,3114.53605,N,12117.69139,E,0.010,,141217,,,D*69
$GNRMC,212322.00,A,3114.53601,N,12117.69140,E,0.016,,141217,,,D*66
$GNRMC,212323.00,A,3114.53597,N,12117.69141,E,0.004,,141217,,,D*69
$GNRMC,212324.00,A,3114.53593,N,12117.69141,E,0.014,,141217,,,D*6B
$GNRMC,212325.00,A,3114.53589,N,12117.69142,E,0.018,,141217,,,D*6E
$GNRMC,212326.00,A,3114.53586,N,12117.69142,E,0.024,,141217,,,D*6D
$GNRMC,212327.00,A,3114.53583,N,12117.69141,E,0.027,,141217,,,D*69
$GNRMC,212328.00,A,3114.53580,N,12117.69141,E,0.019,,141217,,,D*68
$GNRMC,212329.00,A,3114.53577,N,12117.69141,E,0.003,,141217,,,D*6A
$GNRMC,212330.00,A,3114.53573,N,12117.69141,E,0.011,,141217,,,D*65
$GNRMC,212331.00,A,3114.53569,N,12117.69140,E,0.014,,141217,,,D*6B
$GNRMC,212332.00,A,3114.53566,N,12117.69140,E,0.009,,141217,,,D*6B
$GNRMC,212333.00,A,3114.53565,N,12117.69140,E,0.024,,141217,,,D*66
$GNRMC,212334.00,A,3114.53563,N,12117.69140,E,0.005,,141217,,,D*64
$GNRMC,212335.00,A,3114.53560,N,12117.69140,E,0.020,,141217,,,D*61
$GNRMC,212336.00,A,3114.53558,N,12117.69140,E,0.014,,141217,,,D*6E
$GNRMC,212337.00,A,3114.53555,N,12117.69140,E,0.000,,141217,,,D*67
$GNRMC,212338.00,A,3114.53552,N,12117.69139,E,0.027,,141217,,,D*64
$GNRMC,212339.00,A,3114.53549,N,12117.69138,E,0.014,,141217,,,D*6E
$GNRMC,212340.00,A,3114.53547,N,12117.69138,E,0.013,,141217,,,D*69
$GNRMC,212341.00,A,3114.53545,N,12117.69137,E,0.022,,141217,,,D*67
$GNRMC,212342.00,A,3114.53542,N,12117.69136,E,0.008,,141217,,,D*6A
$GNRMC,212343.00,A,3114.53540,N,12117.69136,E,0.010,,141217,,,D*60
$GNRMC,212344.00,A,3114.53538,N,12117.69136,E,0.011,,141217,,,D*69
$GNRMC,212345.00,A,3114.53536,N,12117.69135,E,0.010,,141217,,,D*64
$GNRMC,212346.00,A,3114.53533,N,12117.69134,E,0.011,,141217,,,D*62
$GNRMC,212347.00,A,3114.53530,N,12117.69134,E,0.006,,141217,,,D*66
$GNRMC,212348.00,A,3114.53527,N,12117.69134,E,0.006,,141217,,,D*6F
$GNRMC,212349.00,A,3114.53525,N,12117.69133,E,0.008,,141217,,,D*65
$GNRMC,212350.00,A,3114.53523,N,12117.69132,E,0.015,,141217,,,D*66
$GNRMC,212351.00,A,3114.53522,N,12117.69131,E,0.010,,141217,,,D*60
$GNRMC,212352.00,A,3114.53520,N,12117.69129,E,0.006,,141217,,,D*6F
$GNRMC,212353.00,A,3114.53518,N,12117.69127,E,0.009,,141217,,,D*64
$GNRMC,212354.00,A,3114.53517,N,12117.69126,E,0.003,,141217,,,D*67
$GNRMC,212355.00,A,3114.53515,N,12117.69124,E,0.012,,141217,,,D*66
$GNRMC,212356.00,A,3114.53514,N,12117.69122,E,0.003,,141217,,,D*62
$GNRMC,212357.00,A,3114.53512,N,12117.69120,E,0.003,,141217,,,D*67
$GNRMC,212358.00,A,3114.53511,N,12117.69118,E,0.011,,141217,,,D*63
$GNRMC,212359.00,A,3114.53508,N,12117.69116,E,0.012,,141217,,,D*67
$GNRMC,212400.00,A,3114.53506,N,12117.69115,E,0.012,,141217,,,D*61
$GNRMC,212401.00,A,3114.53503,N,12117.69113,E,0.017,,141217,,,D*66
$GNRMC,212402.00,A,3114.53500,N,12117.69111,E,0.012,,141217,,,D*61
$GNRMC,212403.00,A,3114.53496,N,12117.69109,E,0.005,,141217,,,D*61
$GNRMC,212404.00,A,3114.53493,N,12117.69107,E,0.017,,141217,,,D*6E
$GNRMC,212405.00,A,3114.53489,N,12117.69106,E,0.005,,141217,,,D*66
$GNRMC,212406.00,A,3114.53487,N,12117.69105,E,0.011,,141217,,,D*6D
$GNRMC,212407.00,A,3114.53484,N,12117.69105,E,0.005,,141217,,,D*6A
$GNRMC,212408.00,A,3114.53482,N,12117.69104,E,0.008,,141217,,,D*6F
$GNRMC,212409.00,A,3114.53480,N,12117.69104,E,0.010,,141217,,,D*65
$GNRMC,212410.00,A,3114.53477,N,12117.69103,E,0.015,,141217,,,D*67
$GNRMC,212411.00,A,3114.53474,N,12117.69102,E,0.002,,141217,,,D*62
$GNRMC,212412.00,A,3114.53472,N,12117.69101,E,0.004,,141217,,,D*62
$GNRMC,212413.00,A,3114.53470,N,12117.69100,E,0.010,,141217,,,D*65
$GNRMC,212414.00,A,3114.53468,N,12117.69100,E,0.008,,141217,,,D*62
$GNRMC,212415.00,A,3114.53467,N,12117.69099,E,0.008,,141217,,,D*6D
$GNRMC,212416.00,A,3114.53464,N,12117.69099,E,0.003,,141217,,,D*66
$GNRMC,212417.00,A,3114.53462,N,12117.69098,E,0.007,,141217,,,D*64
$GNRMC,212418.00,A,3114.53461,N,12117.69097,E,0.010,,141217,,,D*61
$GNRMC,212419.00,A,3114.53460,N,12117.69096,E,0.017,,141217,,,D*67
$GNRMC,212420.00,A,3114.53458,N,12117.69095,E,0.009,,141217,,,D*6A
$GNRMC,212421.00,A,3114.53457,N,12117.69095,E,0.007,,141217,,,D*6A
$GNRMC,212422.00,A,3114.53455,N,12117.69094,E,0.006,,141217,,,D*6B
$GNRMC,212423.00,A,3114.53454,N,12117.69094,E,0.008,,141217,,,D*65
$GNRMC,212424.00,A,3114.53453,N,12117.69093,E,0.010,,141217,,,D*6B
$GNRMC,212425.00,A,3114.53452,N,12117.69092,E,0.007,,141217,,,D*6C
$GNRMC,212426.00,A,3114.53451,N,12117.69092,E,0.020,,141217,,,D*69
$GNRMC,212427.00,A,3114.53450,N,12117.69092,E,0.004,,141217,,,D*6F
$GNRMC,212428.00,A,3114.53449,N,12117.69092,E,0.010,,141217,,,D*6D
$GNRMC,212429.00,A,3114.53447,N,12117.69092,E,0.006,,141217,,,D*65
$GNRMC,212430.00,A,3114.53444,N,12117.69092,E,0.002,,141217,,,D*6A
$GNRMC,212431.00,A,3114.53442,N,12117.69092,E,0.009,,141217,,,D*66
$GNRMC,212432.00,A,3114.53441,N,12117.69092,E,0.015,,141217,,,D*6B
$GNRMC,212433.00,A,3114.53439,N,12117.69092,E,0.006,,141217,,,D*67
$GNRMC,212434.00,A,3114.53437,N,12117.69093,E,0.019,,141217,,,D*61
$GNRMC,212435.00,A,3114.53435,N,12117.69093,E,0.006,,141217,,,D*6C
$GNRMC,212436.00,A,3114.53434,N,12117.69092,E,0.007,,141217,,,D*6E
$GNRMC,212437.00,A,3114.53433,N,12117.69091,E,0.006,,141217,,,D*6A
$GNRMC,212438.00,A,3114.53432,N,12117.69090,E,0.002,,141217,,,D*61
$GNRMC,212439.00,A,3114.53431,N,12117.69088,E,0.015,,141217,,,D*6C
$GNRMC,212440.00,A,3114.53430,N,12117.69085,E,0.013,,141217,,,D*68
$GNRMC,212441.00,A,3114.53430,N,12117.69083,E,0.008,,141217,,,D*65
$GNRMC,212442.00,A,3114.53430,N,12117.69081,E,0.007,,141217,,,D*6B
$GNRMC,212443.00,A,3114.53431,N,12117.69079,E,0.006,,141217,,,D*6D
$GNRMC,212444.00,A,3114.53431,N,12117.69077,E,0.011,,141217,,,D*62
$GNRMC,212445.00,A,3114.53432,N,12117.69075,E,0.016,,141217,,,D*65
$GNRMC,212446.00,A,3114.53432,N,12117.69074,E,0.015,,141217,,,D*64
$GNRMC,212447.00,A,3114.53433,N,12117.69072,E,0.011,,141217,,,D*66
$GNRMC,212448.00,A,3114.53432,N,12117.69071,E,0.003,,141217,,,D*68
$GNRMC,212449.00,A,3114.53432,N,12117.69069,E,0.006,,141217,,,D*65
$GNRMC,212450.00,A,3114.53432,N,12117.69066,E,0.004,,141217,,,D*60
$GNRMC,212451.00,A,3114.53432,N,12117.69064,E,0.007,,141217,,,D*60
$GNRMC,212452.00,A,3114.53431,N,12117.69063,E,0.006,,141217,,,D*66
$GNRMC,212453.00,A,3114.53431,N,12117.69061,E,0.017,,141217,,,D*65
$GNRMC,212454.00,A,3114.53430,N,12117.69059,E,0.007,,141217,,,D*69
$GNRMC,212455.00,A,3114.53430,N,12117.69058,E,0.011,,141217,,,D*6E
$GNRMC,212456.00,A,3114.53429,N,12117.69057,E,0.011,,141217,,,D*6A
$GNRMC,212457.00,A,3114.53428,N,12117.69056,E,0.007,,141217,,,D*6C
$GNRMC,212458.00,A,3114.53426,N,12117.69055,E,0.012,,141217,,,D*6A
$GNRMC,212459.00,A,3114.53425,N,12117.69053,E,0.016,,141217,,,D*6A
$GNRMC,212500.00,A,3114.53424,N,12117.69052,E,0.010,,141217,,,D*61
$GNRMC,212501.00,A,3114.53422,N,12117.69049,E,0.012,,141217,,,D*6E
$GNRMC,212502.00,A,3114.53420,N,12117.69047,E,0.007,,141217,,,D*65
$GNRMC,212503.00,A,3114.53419,N,12117.69045,E,0.014,,141217,,,D*6E
$GNRMC,212504.00,A,3114.53418,N,12117.69043,E,0.004,,141217,,,D*6F
$GNRMC,212505.00,A,3114.53416,N,12117.69041,E,0.005,,141217,,,D*63
$GNRMC,212506.00,A,3114.53416,N,12117.69040,E,0.007,,141217,,,D*63
$GNRMC,212507.00,A,3114.53416,N,12117.69040,E,0.009,,141217,,,D*6C
$GNRMC,212508.00,A,3114.53414,N,12117.69038,E,0.016,,141217,,,D*60
$GNRMC,212509.00,A,3114.53413,N,12117.69038,E,0.004,,141217,,,D*65
$GNRMC,212510.00,A,3114.53413,N,12117.69038,E,0.003,,141217,,,D*6A
$GNRMC,212511.00,A,3114.53414,N,12117.69038,E,0.008,,141217,,,D*67
$GNRMC,212512.00,A,3114.53414,N,12117.69038,E,0.008,,141217,,,D*64
$GNRMC,212513.00,A,3114.53413,N,12117.69038,E,0.016,,141217,,,D*6D
$GNRMC,212514.00,A,3114.53413,N,12117.69039,E,0.008,,141217,,,D*64
$GNRMC,212515.00,A,3114.53413,N,12117.69041,E,0.005,,141217,,,D*67
$GNRMC,212516.00,A,3114.53412,N,12117.69042,E,0.010,,141217,,,D*62
$GNRMC,212517.00,A,3114.53412,N,12117.69042,E,0.007,,141217,,,D*65
$GNRMC,212518.00,A,3114.53412,N,12117.69043,E,0.008,,141217,,,D*64
$GNRMC,212519.00,A,3114.53411,N,12117.69044,E,0.007,,141217,,,D*6E
$GNRMC,212520.00,A,3114.53411,N,12117.69044,E,0.004,,141217,,,D*67
$GNRMC,212521.00,A,3114.53410,N,12117.69043,E,0.007,,141217,,,D*63
$GNRMC,212522.00,A,3114.53409,N,12117.69043,E,0.006,,141217,,,D*69
$GNRMC,212523.00,A,3114.53409,N,12117.69044,E,0.003,,141217,,,D*6A
$GNRMC,212524.00,A,3114.53409,N,12117.69044,E,0.008,,141217,,,D*66
$GNRMC,212525.00,A,3114.53409,N,12117.69044,E,0.007,,141217,,,D*68
$GNRMC,212526.00,A,3114.53410,N,12117.69043,E,0.010,,141217,,,D*62
$GNRMC,212527.00,A,3114.53410,N,12117.69042,E,0.006,,141217,,,D*65
$GNRMC,212528.00,A,3114.53411,N,12117.69042,E,0.019,,141217,,,D*65
$GNRMC,212529.00,A,3114.53413,N,12117.69041,E,0.015,,141217,,,D*69
$GNRMC,212530.00,A,3114.53414,N,12117.69041,E,0.005,,141217,,,D*67
$GNRMC,212531.00,A,3114.53415,N,12117.69041,E,0.004,,141217,,,D*66
$GNRMC,212532.00,A,3114.53416,N,12117.69041,E,0.010,,141217,,,D*63
$GNRMC,212533.00,A,3114.53417,N,12117.69040,E,0.014,,141217,,,D*66
$GNRMC,212534.00,A,3114.53419,N,12117.69038,E,0.011,,141217,,,D*65
$GNRMC,212535.00,A,3114.53420,N,12117.69036,E,0.008,,141217,,,D*68
$GNRMC,212536.00,A,3114.53421,N,12117.69034,E,0.009,,141217,,,D*69
$GNRMC,212537.00,A,3114.53422,N,12117.69032,E,0.007,,141217,,,D*63
$GNRMC,212538.00,A,3114.53423,N,12117.69031,E,0.008,,141217,,,D*61
$GNRMC,212539.00,A,3114.53425,N,12117.69030,E,0.008,,141217,,,D*67
$GNRMC,212540.00,A,3114.53426,N,12117.69029,E,0.005,,141217,,,D*6F
$GNRMC,212541.00,A,3114.53426,N,12117.69029,E,0.015,,141217,,,D*6F
$GNRMC,212542.00,A,3114.53426,N,12117.69028,E,0.006,,141217,,,D*6F
$GNRMC,212543.00,A,3114.53426,N,12117.69027,E,0.011,,141217,,,D*67
$GNRMC,212544.00,A,3114.53427,N,12117.69027,E,0.005,,141217,,,D*64
$GNRMC,212545.00,A,3114.53428,N,12117.69026,E,0.026,,141217,,,D*6A
$GNRMC,212546.00,A,3114.53429,N,12117.69025,E,0.016,,141217,,,D*68
$GNRMC,212547.00,A,3114.53431,N,12117.69024,E,0.015,,141217,,,D*62
$GNRMC,212548.00,A,3114.53433,N,12117.69023,E,0.007,,141217,,,D*6B
$GNRMC,212549.00,A,3114.53434,N,12117.69023,E,0.010,,141217,,,D*6B
$GNRMC,212550.00,A,3114.53434,N,12117.69022,E,0.012,,141217,,,D*60
$GNRMC,212551.00,A,3114.53434,N,12117.69023,E,0.012,,141217,,,D*60
$GNRMC,212552.00,A,3114.53434,N,12117.69025,E,0.009,,141217,,,D*6F
$GNRMC,212553.00,A,3114.53434,N,12117.69027,E,0.011,,141217,,,D*65
$GNRMC,212554.00,A,3114.53434,N,12117.69028,E,0.008,,141217,,,D*65
$GNRMC,212555.00,A,3114.53434,N,12117.69030,E,0.016,,141217,,,D*62
$GNRMC,212556.00,A,3114.53434,N,12117.69032,E,0.005,,141217,,,D*61
$GNRMC,212557.00,A,3114.53435,N,12117.69034,E,0.011,,141217,,,D*62
$GNRMC,212558.00,A,3114.53435,N,12117.69036,E,0.005,,141217,,,D*6A
$GNRMC,212559.00,A,3114.53436,N,12117.69037,E,0.006,,141217,,,D*6A
$GNRMC,212600.00,A,3114.53436,N,12117.69039,E,0.009,,141217,,,D*64
$GNRMC,212601.00,A,3114.53436,N,12117.69040,E,0.007,,141217,,,D*65
$GNRMC,212602.00,A,3114.53436,N,12117.69040,E,0.009,,141217,,,D*68
$GNRMC,212603.00,A,3114.53436,N,12117.69042,E,0.029,,141217,,,D*69
$GNRMC,212604.00,A,3114.53437,N,12117.69042,E,0.012,,141217,,,D*67
$GNRMC,212605.00,A,3114.53438,N,12117.69044,E,0.008,,141217,,,D*64
$GNRMC,212606.00,A,3114.53440,N,12117.69044,E,0.010,,141217,,,D*61
$GNRMC,212607.00,A,3114.53442,N,12117.69045,E,0.009,,141217,,,D*6B
$GNRMC,212608.00,A,3114.53443,N,12117.69045,E,0.003,,141217,,,D*6F
$GNRMC,212609.00,A,3114.53445,N,12117.69045,E,0.010,,141217,,,D*6A
$GNRMC,212610.00,A,3114.53446,N,12117.69046,E,0.003,,141217,,,D*60
$GNRMC,212611.00,A,3114.53447,N,12117.69047,E,0.003,,141217,,,D*61
$GNRMC,212612.00,A,3114.53448,N,12117.69048,E,0.010,,141217,,,D*60
$GNRMC,212613.00,A,3114.53448,N,12117.69049,E,0.008,,141217,,,D*69
$GNRMC,212614.00,A,3114.53449,N,12117.69050,E,0.002,,141217,,,D*6D
$GNRMC,212615.00,A,3114.53449,N,12117.69051,E,0.011,,141217,,,D*6F
$GNRMC,212616.00,A,3114.53450,N,12117.69051,E,0.006,,141217,,,D*62
$GNRMC,212617.00,A,3114.53450,N,12117.69052,E,0.008,,141217,,,D*6E
$GNRMC,212618.00,A,3114.53451,N,12117.69053,E,0.004,,141217,,,D*6D
$GNRMC,212619.00,A,3114.53451,N,12117.69054,E,0.004,,141217,,,D*6B
$GNRMC,212620.00,A,3114.53452,N,12117.69055,E,0.005,,141217,,,D*62
$GNRMC,212621.00,A,3114.53453,N,12117.69057,E,0.012,,141217,,,D*66
$GNRMC,212622.00,A,3114.53454,N,12117.69059,E,0.005,,141217,,,D*6A
$GNRMC,212623.00,A,3114.53455,N,12117.69061,E,0.004,,141217,,,D*60
$GNRMC,212624.00,A,3114.53456,N,12117.69063,E,0.020,,141217,,,D*60
$GNRMC,212625.00,A,3114.53457,N,12117.69066,E,0.006,,141217,,,D*61
$GNRMC,212626.00,A,3114.53458,N,12117.69069,E,0.010,,141217,,,D*65
$GNRMC,212627.00,A,3114.53459,N,12117.69071,E,0.005,,141217,,,D*68
$GNRMC,212628.00,A,3114.53460,N,12117.69074,E,0.004,,141217,,,D*69
$GNRMC,212629.00,A,3114.53462,N,12117.69076,E,0.006,,141217,,,D*6A
$GNRMC,212630.00,A,3114.53464,N,12117.69079,E,0.009,,141217,,,D*64
$GNRMC,212631.00,A,3114.53465,N,12117.69081,E,0.017,,141217,,,D*6C
$GNRMC,212632.00,A,3114.53468,N,12117.69082,E,0.014,,141217,,,D*62
$GNRMC,212633.00,A,3114.53470,N,12117.69084,E,0.008,,141217,,,D*61
$GNRMC,212634.00,A,3114.53473,N,12117.69086,E,0.013,,141217,,,D*6D
$GNRMC,212635.00,A,3114.53475,N,12117.69089,E,0.006,,141217,,,D*61
$GNRMC,212636.00,A,3114.53477,N,12117.69091,E,0.008,,141217,,,D*67
$GNRMC,212637.00,A,3114.53480,N,12117.69092,E,0.005,,141217,,,D*60
$GNRMC,212638.00,A,3114.53482,N,12117.69094,E,0.012,,141217,,,D*6D
$GNRMC,212639.00,A,3114.53484,N,12117.69095,E,0.016,,141217,,,D*6F
$GNRMC,212640.00,A,3114.53487,N,12117.69097,E,0.004,,141217,,,D*63
$GNRMC,212641.00,A,3114.53489,N,12117.69098,E,0.003,,141217,,,D*64
$GNRMC,212642.00,A,3114.53492,N,12117.69099,E,0.009,,141217,,,D*66
$GNRMC,212643.00,A,3114.53494,N,12117.69101,E,0.012,,141217,,,D*6B
$GNRMC,212644.00,A,3114.53497,N,12117.69103,E,0.006,,141217,,,D*68
$GNRMC,212645.00,A,3114.53499,N,12117.69105,E,0.010,,141217,,,D*66
$GNRMC,212646.00,A,3114.53501,N,12117.69108,E,0.012,,141217,,,D*6A
$GNRMC,212647.00,A,3114.53503,N,12117.69111,E,0.013,,141217,,,D*60
$GNRMC,212648.00,A,3114.53506,N,12117.69115,E,0.008,,141217,,,D*64
$GNRMC,212649.00,A,3114.53508,N,12117.69118,E,0.010,,141217,,,D*6F
$GNRMC,212650.00,A,3114.53510,N,12117.69120,E,0.008,,141217,,,D*6C
$GNRMC,212651.00,A,3114.53513,N,12117.69122,E,0.023,,141217,,,D*65
$GNRMC,212652.00,A,3114.53516,N,12117.69125,E,0.005,,141217,,,D*60
$GNRMC,212653.00,A,3114.53518,N,12117.69127,E,0.002,,141217,,,D*6A
$GNRMC,212654.00,A,3114.53520,N,12117.69129,E,0.009,,141217,,,D*63
$GNRMC,212655.00,A,3114.53523,N,12117.69131,E,0.013,,141217,,,D*63
$GNRMC,212656.00,A,3114.53525,N,12117.69133,E,0.009,,141217,,,D*6F
$GNRMC,212657.00,A,3114.53528,N,12117.69134,E,0.005,,141217,,,D*68
$GNRMC,212658.00,A,3114.53530,N,12117.69135,E,0.010,,141217,,,D*6B
$GNRMC,212659.00,A,3114.53532,N,12117.69136,E,0.007,,141217,,,D*6D
$GNRMC,212700.00,A,3114.53533,N,12117.69138,E,0.010,,141217,,,D*69
$GNRMC,212701.00,A,3114.53536,N,12117.69138,E,0.011,,141217,,,D*6C
$GNRMC,212702.00,A,3114.53538,N,12117.69139,E,0.013,,141217,,,D*62
$GNRMC,212703.00,A,3114.53541,N,12117.69140,E,0.004,,141217,,,D*65
$GNRMC,212704.00,A,3114.53543,N,12117.69140,E,0.009,,141217,,,D*6D
$GNRMC,212705.00,A,3114.53546,N,12117.69140,E,0.012,,141217,,,D*63
$GNRMC,212706.00,A,3114.53548,N,12117.69140,E,0.004,,141217,,,D*69
$GNRMC,212707.00,A,3114.53550,N,12117.69139,E,0.006,,141217,,,D*6D
$GNRMC,212708.00,A,3114.53553,N,12117.69138,E,0.009,,141217,,,D*6F
$GNRMC,212709.00,A,3114.53555,N,12117.69136,E,0.005,,141217,,,D*6A
$GNRMC,212710.00,A,3114.53557,N,12117.69135,E,0.008,,141217,,,D*6E
$GNRMC,212711.00,A,3114.53559,N,12117.69134,E,0.003,,141217,,,D*6B
$GNRMC,212712.00,A,3114.53561,N,12117.69134,E,0.009,,141217,,,D*69
$GNRMC,212713.00,A,3114.53563,N,12117.69134,E,0.004,,141217,,,D*67
$GNRMC,212714.00,A,3114.53565,N,12117.69134,E,0.002,,141217,,,D*60
$GNRMC,212715.00,A,3114.53567,N,12117.69134,E,0.008,,141217,,,D*69
$GNRMC,212716.00,A,3114.53568,N,12117.69134,E,0.010,,141217,,,D*6C
$GNRMC,212717.00,A,3114.53569,N,12117.69134,E,0.015,,141217,,,D*69
$GNRMC,212718.00,A,3114.53571,N,12117.69134,E,0.013,,141217,,,D*69
$GNRMC,212719.00,A,3114.53573,N,12117.69133,E,0.009,,141217,,,D*66
$GNRMC,212720.00,A,3114.53574,N,12117.69133,E,0.007,,141217,,,D*65
$GNRMC,212721.00,A,3114.53575,N,12117.69133,E,0.008,,141217,,,D*6A
$GNRMC,212722.00,A,3114.53576,N,12117.69134,E,0.005,,141217,,,D*60
$GNRMC,212723.00,A,3114.53578,N,12117.69134,E,0.009,,141217,,,D*63
$GNRMC,212724.00,A,3114.53581,N,12117.69133,E,0.006,,141217,,,D*6A
$GNRMC,212725.00,A,3114.53583,N,12117.69132,E,0.003,,141217,,,D*6D
$GNRMC,212726.00,A,3114.53586,N,12117.69130,E,0.005,,141217,,,D*6F
$GNRMC,212727.00,A,3114.53589,N,12117.69129,E,0.008,,141217,,,D*64
$GNRMC,212728.00,A,3114.53591,N,12117.69126,E,0.017,,141217,,,D*63
$GNRMC,212729.00,A,3114.53593,N,12117.69124,E,0.007,,141217,,,D*63
$GNRMC,212730.00,A,3114.53595,N,12117.69121,E,0.007,,141217,,,D*68
$GNRMC,212731.00,A,3114.53597,N,12117.69118,E,0.009,,141217,,,D*6F
$GNRMC,212732.00,A,3114.53598,N,12117.69116,E,0.009,,141217,,,D*6D
$GNRMC,212733.00,A,3114.53599,N,12117.69114,E,0.006,,141217,,,D*60
$GNRMC,212734.00,A,3114.53600,N,12117.69111,E,0.007,,141217,,,D*60
$GNRMC,212735.00,A,3114.53600,N,12117.69110,E,0.012,,141217,,,D*64
$GNRMC,212736.00,A,3114.53600,N,12117.69107,E,0.010,,141217,,,D*63
$GNRMC,212737.00,A,3114.53600,N,12117.69105,E,0.011,,141217,,,D*61
$GNRMC,212738.00,A,3114.53600,N,12117.69104,E,0.009,,141217,,,D*66
$GNRMC,212739.00,A,3114.53600,N,12117.69102,E,0.010,,141217,,,D*69
$GNRMC,212740.00,A,3114.53600,N,12117.69102,E,0.009,,141217,,,D*6F
$GNRMC,212741.00,A,3114.53600,N,12117.69101,E,0.013,,141217,,,D*66
$GNRMC,212742.00,A,3114.53600,N,12117.69101,E,0.006,,141217,,,D*61
$GNRMC,212743.00,A,3114.53600,N,12117.69101,E,0.008,,141217,,,D*6E
$GNRMC,212744.00,A,3114.53600,N,12117.69101,E,0.005,,141217,,,D*64
$GNRMC,212745.00,A,3114.53600,N,12117.69101,E,0.017,,141217,,,D*66
$GNRMC,212746.00,A,3114.53602,N,12117.69102,E,0.007,,141217,,,D*65
$GNRMC,212747.00,A,3114.53603,N,12117.69102,E,0.016,,141217,,,D*65
$GNRMC,212748.00,A,3114.53603,N,12117.69103,E,0.014,,141217,,,D*69
$GNRMC,212749.00,A,3114.53604,N,12117.69105,E,0.011,,141217,,,D*6C
$GNRMC,212750.00,A,3114.53603,N,12117.69106,E,0.010,,141217,,,D*61
$GNRMC,212751.00,A,3114.53604,N,12117.69108,E,0.003,,141217,,,D*6B
$GNRMC,212752.00,A,3114.53604,N,12117.69110,E,0.003,,141217,,,D*61
$GNRMC,212753.00,A,3114.53605,N,12117.69111,E,0.009,,141217,,,D*6A
$GNRMC,212754.00,A,3114.53606,N,12117.69111,E,0.012,,141217,,,D*64
$GNRMC,212755.00,A,3114.53606,N,12117.69113,E,0.004,,141217,,,D*60
$GNRMC,212756.00,A,3114.53606,N,12117.69114,E,0.002,,141217,,,D*62
$GNRMC,212757.00,A,3114.53606,N,12117.69115,E,0.016,,141217,,,D*67
$GNRMC,212758.00,A,3114.53606,N,12117.69117,E,0.009,,141217,,,D*64
$GNRMC,212759.00,A,3114.53605,N,12117.69118,E,0.012,,141217,,,D*63
$GNRMC,212800.00,A,3114.53605,N,12117.69120,E,0.016,,141217,,,D*6F
$GNRMC,212801.00,A,3114.53604,N,12117.69121,E,0.010,,141217,,,D*68
$GNRMC,212802.00,A,3114.53603,N,12117.69122,E,0.010,,141217,,,D*6F
$GNRMC,212803.00,A,3114.53601,N,12117.69124,E,0.014,,141217,,,D*6E
$GNRMC,212804.00,A,3114.53600,N,12117.69126,E,0.007,,141217,,,D*68
$GNRMC,212805.00,A,3114.53598,N,12117.69127,E,0.011,,141217,,,D*6D
$GNRMC,212806.00,A,3114.53596,N,12117.69129,E,0.015,,141217,,,D*6A
$GNRMC,212807.00,A,3114.53595,N,12117.69130,E,0.016,,141217,,,D*63
$GNRMC,212808.00,A,3114.53594,N,12117.69131,E,0.013,,141217,,,D*69
$GNRMC,212809.00,A,3114.53593,N,12117.69133,E,0.009,,141217,,,D*66
$GNRMC,212810.00,A,3114.53591,N,12117.69134,E,0.015,,141217,,,D*66
$GNRMC,212811.00,A,3114.53589,N,12117.69134,E,0.008,,141217,,,D*62
$GNRMC,212812.00,A,3114.53587,N,12117.69135,E,0.015,,141217,,,D*62
$GNRMC,212813.00,A,3114.53585,N,12117.69135,E,0.013,,141217,,,D*67
$GNRMC,212814.00,A,3114.53584,N,12117.69135,E,0.008,,141217,,,D*6B
$GNRMC,212815.00,A,3114.53582,N,12117.69136,E,0.014,,141217,,,D*62
$GNRMC,212816.00,A,3114.53581,N,12117.69136,E,0.010,,141217,,,D*66
$GNRMC,212817.00,A,3114.53580,N,12117.69136,E,0.008,,141217,,,D*6F
$GNRMC,212818.00,A,3114.53579,N,12117.69135,E,0.009,,141217,,,D*64
$GNRMC,212819.00,A,3114.53578,N,12117.69134,E,0.017,,141217,,,D*6A
$GNRMC,212820.00,A,3114.53578,N,12117.69133,E,0.019,,141217,,,D*69
$GNRMC,212821.00,A,3114.53577,N,12117.69132,E,0.012,,141217,,,D*6D
$GNRMC,212822.00,A,3114.53577,N,12117.69131,E,0.010,,141217,,,D*6F
$GNRMC,212823.00,A,3114.53576,N,12117.69130,E,0.014,,141217,,,D*6A
$GNRMC,212824.00,A,3114.53575,N,12117.69128,E,0.010,,141217,,,D*63
$GNRMC,212825.00,A,3114.53574,N,12117.69125,E,0.014,,141217,,,D*6A
$GNRMC,212826.00,A,3114.53572,N,12117.69122,E,0.013,,141217,,,D*6F
$GNRMC,212827.00,A,3114.53571,N,12117.69119,E,0.012,,141217,,,D*64
$GNRMC,212828.00,A,3114.53568,N,12117.69115,E,0.007,,141217,,,D*6B
$GNRMC,212829.00,A,3114.53566,N,12117.69111,E,0.015,,141217,,,D*63
$GNRMC,212830.00,A,3114.53563,N,12117.69107,E,0.010,,141217,,,D*6C
$GNRMC,212831.00,A,3114.53558,N,12117.69102,E,0.012,,141217,,,D*62
$GNRMC,212832.00,A,3114.53558,N,12117.69100,E,0.010,,141217,,,D*61
$GNRMC,212833.00,A,3114.53556,N,12117.69097,E,0.010,,141217,,,D*61
$GNRMC,212834.00,A,3114.53554,N,12117.69093,E,0.016,,141217,,,D*66
$GNRMC,212835.00,A,3114.53552,N,12117.69088,E,0.016,,141217,,,D*6B
$GNRMC,212836.00,A,3114.53551,N,12117.69085,E,0.013,,141217,,,D*63
$GNRMC,212837.00,A,3114.53546,N,12117.69080,E,0.017,,141217,,,D*65
$GNRMC,212838.00,A,3114.53542,N,12117.69074,E,0.012,,141217,,,D*60
$GNRMC,212839.00,A,3114.53539,N,12117.69069,E,0.013,,141217,,,D*60
$GNRMC,212840.00,A,3114.53536,N,12117.69065,E,0.009,,141217,,,D*66
$GNRMC,212841.00,A,3114.53533,N,12117.69062,E,0.005,,141217,,,D*69
$GNRMC,212842.00,A,3114.53530,N,12117.69059,E,0.009,,141217,,,D*6D
$GNRMC,212843.00,A,3114.53528,N,12117.69057,E,0.013,,141217,,,D*60
$GNRMC,212844.00,A,3114.53524,N,12117.69056,E,0.008,,141217,,,D*60
$GNRMC,212845.00,A,3114.53521,N,12117.69055,E,0.007,,141217,,,D*68
$GNRMC,212846.00,A,3114.53519,N,12117.69055,E,0.006,,141217,,,D*61
$GNRMC,212847.00,A,3114.53517,N,12117.69056,E,0.014,,141217,,,D*6E
$GNRMC,212848.00,A,3114.53516,N,12117.69057,E,0.010,,141217,,,D*65
$GNRMC,212849.00,A,3114.53514,N,12117.69058,E,0.005,,141217,,,D*6D
$GNRMC,212850.00,A,3114.53512,N,12117.69059,E,0.010,,141217,,,D*66
$GNRMC,212851.00,A,3114.53511,N,12117.69060,E,0.010,,141217,,,D*6E
$GNRMC,212852.00,A,3114.53509,N,12117.69061,E,0.007,,141217,,,D*63
$GNRMC,212853.00,A,3114.53508,N,12117.69062,E,0.007,,141217,,,D*60
$GNRMC,212854.00,A,3114.53507,N,12117.69063,E,0.011,,141217,,,D*6E
$GNRMC,212855.00,A,3114.53507,N,12117.69063,E,0.011,,141217,,,D*6F
$GNRMC,212856.00,A,3114.53506,N,12117.69064,E,0.005,,141217,,,D*6F
$GNRMC,212857.00,A,3114.53504,N,12117.69066,E,0.010,,141217,,,D*6A
$GNRMC,212858.00,A,3114.53503,N,12117.69067,E,0.008,,141217,,,D*6A
$GNRMC,212859.00,A,3114.53503,N,12117.69067,E,0.007,,141217,,,D*64
$GNRMC,212900.00,A,3114.53502,N,12117.69068,E,0.011,,141217,,,D*60
$GNRMC,212901.00,A,3114.53501,N,12117.69069,E,0.006,,141217,,,D*65
$GNRMC,212902.00,A,3114.53501,N,12117.69070,E,0.010,,141217,,,D*69
$GNRMC,212903.00,A,3114.53501,N,12117.69071,E,0.002,,141217,,,D*6A
$GNRMC,212904.00,A,3114.53502,N,12117.69072,E,0.005,,141217,,,D*6A
$GNRMC,212905.00,A,3114.53503,N,12117.69072,E,0.007,,141217,,,D*68
$GNRMC,212906.00,A,3114.53504,N,12117.69072,E,0.013,,141217,,,D*69
$GNRMC,212907.00,A,3114.53505,N,12117.69072,E,0.013,,141217,,,D*69
$GNRMC,212908.00,A,3114.53507,N,12117.69072,E,0.009,,141217,,,D*6F
$GNRMC,212909.00,A,3114.53509,N,12117.69071,E,0.010,,141217,,,D*6B
$GNRMC,212910.00,A,3114.53512,N,12117.69070,E,0.009,,141217,,,D*60
$GNRMC,212911.00,A,3114.53514,N,12117.69068,E,0.010,,141217,,,D*66
$GNRMC,212912.00,A,3114.53517,N,12117.69067,E,0.008,,141217,,,D*60
$GNRMC,212913.00,A,3114.53520,N,12117.69066,E,0.014,,141217,,,D*69
$GNRMC,212914.00,A,3114.53523,N,12117.69065,E,0.010,,141217,,,D*6A
$GNRMC,212915.00,A,3114.53526,N,12117.69063,E,0.004,,141217,,,D*6D
$GNRMC,212916.00,A,3114.53529,N,12117.69060,E,0.008,,141217,,,D*6E
$GNRMC,212917.00,A,3114.53532,N,12117.69056,E,0.011,,141217,,,D*68
$GNRMC,212918.00,A,3114.53535,N,12117.69053,E,0.015,,141217,,,D*61
$GNRMC,212919.00,A,3114.53538,N,12117.69050,E,0.005,,141217,,,D*6F
$GNRMC,212920.00,A,3114.53541,N,12117.69046,E,0.010,,141217,,,D*68
$GNRMC,212921.00,A,3114.53544,N,12117.69043,E,0.006,,141217,,,D*6E
$GNRMC,212922.00,A,3114.53547,N,12117.69041,E,0.007,,141217,,,D*6D
$GNRMC,212923.00,A,3114.53550,N,12117.69038,E,0.010,,141217,,,D*62
$GNRMC,212924.00,A,3114.53551,N,12117.69037,E,0.012,,141217,,,D*69
$GNRMC,212925.00,A,3114.53552,N,12117.69036,E,0.015,,141217,,,D*6D
$GNRMC,212926.00,A,3114.53553,N,12117.69037,E,0.004,,141217,,,D*6E
$GNRMC,212927.00,A,3114.53554,N,12117.69037,E,0.015,,141217,,,D*68
$GNRMC,212928.00,A,3114.53556,N,12117.69038,E,0.009,,141217,,,D*67
$GNRMC,212929.00,A,3114.53558,N,12117.69038,E,0.018,,141217,,,D*68
$GNRMC,212930.00,A,3114.53560,N,12117.69037,E,0.009,,141217,,,D*64
$GNRMC,212931.00,A,3114.53563,N,12117.69037,E,0.008,,141217,,,D*67
$GNRMC,212932.00,A,3114.53565,N,12117.69035,E,0.011,,141217,,,D*68
$GNRMC,212933.00,A,3114.53566,N,12117.69035,E,0.004,,141217,,,D*6E
$GNRMC,212934.00,A,3114.53567,N,12117.69038,E,0.009,,141217,,,D*68
$GNRMC,212935.00,A,3114.53568,N,12117.69039,E,0.009,,141217,,,D*67
$GNRMC,212936.00,A,3114.53568,N,12117.69041,E,0.013,,141217,,,D*60
$GNRMC,212937.00,A,3114.53568,N,12117.69042,E,0.015,,141217,,,D*64
$GNRMC,212938.00,A,3114.53567,N,12117.69044,E,0.010,,141217,,,D*67
$GNRMC,212939.00,A,3114.53567,N,12117.69045,E,0.016,,141217,,,D*61
$GNRMC,212940.00,A,3114.53566,N,12117.69046,E,0.006,,141217,,,D*6C
$GNRMC,212941.00,A,3114.53565,N,12117.69047,E,0.006,,141217,,,D*6F
$GNRMC,212942.00,A,3114.53564,N,12117.69049,E,0.005,,141217,,,D*60
$GNRMC,212943.00,A,3114.53563,N,12117.69050,E,0.012,,141217,,,D*68
$GNRMC,212944.00,A,3114.53563,N,12117.69051,E,0.007,,141217,,,D*6A
$GNRMC,212945.00,A,3114.53562,N,12117.69053,E,0.008,,141217,,,D*67
$GNRMC,212946.00,A,3114.53562,N,12117.69054,E,0.015,,141217,,,D*6F
