$GNRMC,211312.00,A,3114.53193,N,12117.68648,E,0.004,,071217,,,A*60
$GNRMC,211313.00,A,3114.53210,N,12117.68643,E,0.008,,071217,,,A*6E
$GNRMC,211314.00,A,3114.53222,N,12117.68640,E,0.004,,071217,,,A*67
$GNRMC,211315.00,A,3114.53231,N,12117.68640,E,0.008,,071217,,,A*68
$GNRMC,211316.00,A,3114.53235,N,12117.68641,E,0.021,,071217,,,A*65
$GNRMC,211317.00,A,3114.53241,N,12117.68642,E,0.012,,071217,,,A*64
$GNRMC,211318.00,A,3114.53246,N,12117.68644,E,0.009,,071217,,,A*60
$GNRMC,211319.00,A,3114.53251,N,12117.68645,E,0.007,,071217,,,A*68
$GNRMC,211320.00,A,3114.53257,N,12117.68644,E,0.008,,071217,,,A*6A
$GNRMC,211321.00,A,3114.53259,N,12117.68644,E,0.004,,071217,,,A*69
$GNRMC,211322.00,A,3114.53260,N,12117.68644,E,0.005,,071217,,,A*61
$GNRMC,211323.00,A,3114.53260,N,12117.68644,E,0.007,,071217,,,A*62
$GNRMC,211324.00,A,3114.53261,N,12117.68642,E,0.014,,071217,,,A*60
$GNRMC,211325.00,A,3114.53261,N,12117.68641,E,0.006,,071217,,,A*61
$GNRMC,211326.00,A,3114.53262,N,12117.68640,E,0.008,,071217,,,A*6E
$GNRMC,211327.00,A,3114.53262,N,12117.68639,E,0.007,,071217,,,A*6E
$GNRMC,211328.00,A,3114.53261,N,12117.68640,E,0.015,,071217,,,A*6F
$GNRMC,211329.00,A,3114.53261,N,12117.68640,E,0.005,,071217,,,A*6F
$GNRMC,211330.00,A,3114.53262,N,12117.68639,E,0.005,,071217,,,A*6A
$GNRMC,211331.00,A,3114.53263,N,12117.68638,E,0.006,,071217,,,A*68
$GNRMC,211332.00,A,3114.53262,N,12117.68637,E,0.012,,071217,,,A*60
$GNRMC,211333.00,A,3114.53262,N,12117.68636,E,0.008,,071217,,,A*6B
$GNRMC,211334.00,A,3114.53262,N,12117.68634,E,0.010,,071217,,,A*67
$GNRMC,211335.00,A,3114.53262,N,12117.68633,E,0.011,,071217,,,A*60
$GNRMC,211336.00,A,3114.53264,N,12117.68631,E,0.019,,071217,,,A*6F
$GNRMC,211337.00,A,3114.53266,N,12117.68630,E,0.007,,071217,,,A*62
$GNRMC,211338.00,A,3114.53267,N,12117.68628,E,0.006,,071217,,,A*64
$GNRMC,211339.00,A,3114.53268,N,12117.68628,E,0.015,,071217,,,A*68
$GNRMC,211340.00,A,3114.53270,N,12117.68628,E,0.006,,071217,,,A*6D
$GNRMC,211341.00,A,3114.53272,N,12117.68627,E,0.008,,071217,,,A*6F
$GNRMC,211342.00,A,3114.53277,N,12117.68626,E,0.009,,071217,,,A*69
$GNRMC,211343.00,A,3114.53283,N,12117.68623,E,0.017,,071217,,,A*69
$GNRMC,211344.00,A,3114.53288,N,12117.68621,E,0.019,,071217,,,A*69
$GNRMC,211345.00,A,3114.53297,N,12117.68618,E,0.011,,071217,,,A*64
$GNRMC,211346.00,A,3114.53301,N,12117.68615,E,0.015,,071217,,,A*60
$GNRMC,211347.00,A,3114.53305,N,12117.68612,E,0.006,,071217,,,A*60
$GNRMC,211348.00,A,3114.53309,N,12117.68609,E,0.016,,071217,,,A*68
$GNRMC,211349.00,A,3114.53311,N,12117.68607,E,0.008,,071217,,,A*61
$GNRMC,211350.00,A,3114.53311,N,12117.68605,E,0.009,,071217,,,A*6A
$GNRMC,211351.00,A,3114.53310,N,12117.68604,E,0.006,,071217,,,A*64
$GNRMC,211352.00,A,3114.53310,N,12117.68603,E,0.005,,071217,,,A*63
$GNRMC,211353.00,A,3114.53309,N,12117.68602,E,0.006,,071217,,,A*68
$GNRMC,211354.00,A,3114.53312,N,12117.68600,E,0.013,,071217,,,A*63
$GNRMC,211355.00,A,3114.53313,N,12117.68597,E,0.015,,071217,,,A*68
$GNRMC,211356.00,A,3114.53317,N,12117.68594,E,0.006,,071217,,,A*6E
$GNRMC,211357.00,A,3114.53322,N,12117.68588,E,0.020,,071217,,,A*60
$GNRMC,211358.00,A,3114.53331,N,12117.68580,E,0.012,,071217,,,A*64
$GNRMC,211359.00,A,3114.53334,N,12117.68574,E,0.009,,071217,,,A*61
$GNRMC,211400.00,A,3114.53337,N,12117.68568,E,0.005,,071217,,,A*68
$GNRMC,211401.00,A,3114.53338,N,12117.68562,E,0.012,,071217,,,A*6A
$GNRMC,211402.00,A,3114.53340,N,12117.68556,E,0.014,,071217,,,A*67
$GNRMC,211403.00,A,3114.53342,N,12117.68550,E,0.019,,071217,,,A*6F
$GNRMC,211404.00,A,3114.53343,N,12117.68545,E,0.020,,071217,,,A*67
$GNRMC,211405.00,A,3114.53344,N,12117.68540,E,0.009,,071217,,,A*6F
$GNRMC,211406.00,A,3114.53344,N,12117.68537,E,0.008,,071217,,,A*6D
$GNRMC,211407.00,A,3114.53344,N,12117.68534,E,0.008,,071217,,,A*6F
$GNRMC,211408.00,A,3114.53346,N,12117.68531,E,0.006,,071217,,,A*69
$GNRMC,211409.00,A,3114.53346,N,12117.68529,E,0.005,,071217,,,A*62
$GNRMC,211410.00,A,3114.53348,N,12117.68528,E,0.013,,071217,,,A*62
$GNRMC,211411.00,A,3114.53350,N,12117.68528,E,0.004,,071217,,,A*6C
$GNRMC,211412.00,A,3114.53351,N,12117.68526,E,0.018,,071217,,,A*6D
$GNRMC,211413.00,A,3114.53352,N,12117.68525,E,0.007,,071217,,,A*62
$GNRMC,211414.00,A,3114.53353,N,12117.68524,E,0.013,,071217,,,A*60
$GNRMC,211415.00,A,3114.53354,N,12117.68522,E,0.011,,071217,,,A*62
$GNRMC,211416.00,A,3114.53356,N,12117.68520,E,0.004,,071217,,,A*65
$GNRMC,211417.00,A,3114.53360,N,12117.68518,E,0.005,,071217,,,A*6B
$GNRMC,211418.00,A,3114.53366,N,12117.68515,E,0.006,,071217,,,A*6C
$GNRMC,211419.00,A,3114.53371,N,12117.68513,E,0.012,,071217,,,A*68
$GNRMC,211420.00,A,3114.53374,N,12117.68511,E,0.009,,071217,,,A*6F
$GNRMC,211421.00,A,3114.53375,N,12117.68510,E,0.007,,071217,,,A*60
$GNRMC,211422.00,A,3114.53375,N,12117.68509,E,0.009,,071217,,,A*65
$GNRMC,211423.00,A,3114.53375,N,12117.68509,E,0.007,,071217,,,A*6A
$GNRMC,211424.00,A,3114.53374,N,12117.68509,E,0.005,,071217,,,A*6E
$GNRMC,211425.00,A,3114.53372,N,12117.68510,E,0.012,,071217,,,A*67
$GNRMC,211426.00,A,3114.53371,N,12117.68510,E,0.009,,071217,,,A*6D
$GNRMC,211427.00,A,3114.53370,N,12117.68510,E,0.008,,071217,,,A*6C
$GNRMC,211428.00,A,3114.53370,N,12117.68510,E,0.009,,071217,,,A*62
$GNRMC,211429.00,A,3114.53370,N,12117.68510,E,0.009,,071217,,,A*63
$GNRMC,211430.00,A,3114.53370,N,12117.68511,E,0.001,,071217,,,A*62
$GNRMC,211431.00,A,3114.53370,N,12117.68511,E,0.006,,071217,,,A*64
$GNRMC,211432.00,A,3114.53371,N,12117.68512,E,0.009,,071217,,,A*6A
$GNRMC,211433.00,A,3114.53372,N,12117.68512,E,0.008,,071217,,,A*69
$GNRMC,211434.00,A,3114.53373,N,12117.68513,E,0.013,,071217,,,A*64
$GNRMC,211435.00,A,3114.53373,N,12117.68513,E,0.016,,071217,,,A*60
$GNRMC,211436.00,A,3114.53372,N,12117.68514,E,0.014,,071217,,,A*67
$GNRMC,211437.00,A,3114.53372,N,12117.68514,E,0.012,,071217,,,A*60
$GNRMC,211438.00,A,3114.53375,N,12117.68514,E,0.004,,071217,,,A*6F
$GNRMC,211439.00,A,3114.53381,N,12117.68513,E,0.010,,071217,,,A*67
$GNRMC,211440.00,A,3114.53383,N,12117.68514,E,0.008,,071217,,,A*65
$GNRMC,211441.00,A,3114.53386,N,12117.68514,E,0.008,,071217,,,A*61
$GNRMC,211442.00,A,3114.53388,N,12117.68514,E,0.001,,071217,,,A*65
$GNRMC,211443.00,A,3114.53389,N,12117.68514,E,0.009,,071217,,,A*6D
$GNRMC,211444.00,A,3114.53390,N,12117.68513,E,0.020,,071217,,,A*6E
$GNRMC,211445.00,A,3114.53392,N,12117.68512,E,0.014,,071217,,,A*6B
$GNRMC,211446.00,A,3114.53392,N,12117.68512,E,0.006,,071217,,,A*6B
$GNRMC,211447.00,A,3114.53392,N,12117.68513,E,0.007,,071217,,,A*6A
$GNRMC,211448.00,A,3114.53392,N,12117.68514,E,0.008,,071217,,,A*6D
$GNRMC,211449.00,A,3114.53392,N,12117.68515,E,0.006,,071217,,,A*63
$GNRMC,211450.00,A,3114.53391,N,12117.68518,E,0.012,,071217,,,A*60
$GNRMC,211451.00,A,3114.53392,N,12117.68519,E,0.006,,071217,,,A*66
$GNRMC,211452.00,A,3114.53391,N,12117.68522,E,0.009,,071217,,,A*61
$GNRMC,211453.00,A,3114.53391,N,12117.68524,E,0.008,,071217,,,A*67
$GNRMC,211454.00,A,3114.53390,N,12117.68526,E,0.013,,071217,,,A*69
$GNRMC,211455.00,A,3114.53388,N,12117.68527,E,0.010,,071217,,,A*63
$GNRMC,211456.00,A,3114.53386,N,12117.68530,E,0.012,,071217,,,A*6A
$GNRMC,211457.00,A,3114.53383,N,12117.68531,E,0.011,,071217,,,A*6C
$GNRMC,211458.00,A,3114.53381,N,12117.68532,E,0.002,,071217,,,A*60
$GNRMC,211459.00,A,3114.53380,N,12117.68532,E,0.002,,071217,,,A*60
$GNRMC,211500.00,A,3114.53378,N,12117.68533,E,0.007,,071217,,,A*6E
$GNRMC,211501.00,A,3114.53376,N,12117.68533,E,0.016,,071217,,,A*61
$GNRMC,211502.00,A,3114.53375,N,12117.68533,E,0.002,,071217,,,A*64
$GNRMC,211503.00,A,3114.53374,N,12117.68533,E,0.005,,071217,,,A*63
$GNRMC,211504.00,A,3114.53371,N,12117.68533,E,0.013,,071217,,,A*66
$GNRMC,211505.00,A,3114.53369,N,12117.68534,E,0.014,,071217,,,A*6E
$GNRMC,211506.00,A,3114.53366,N,12117.68534,E,0.009,,071217,,,A*6E
$GNRMC,211507.00,A,3114.53363,N,12117.68534,E,0.019,,071217,,,A*6B
$GNRMC,211508.00,A,3114.53360,N,12117.68534,E,0.012,,071217,,,A*6C
$GNRMC,211509.00,A,3114.53357,N,12117.68534,E,0.012,,071217,,,A*69
$GNRMC,211510.00,A,3114.53354,N,12117.68535,E,0.010,,071217,,,A*61
$GNRMC,211511.00,A,3114.53351,N,12117.68535,E,0.017,,071217,,,A*62
$GNRMC,211512.00,A,3114.53348,N,12117.68535,E,0.006,,071217,,,A*69
$GNRMC,211513.00,A,3114.53344,N,12117.68535,E,0.008,,071217,,,A*6A
$GNRMC,211514.00,A,3114.53342,N,12117.68535,E,0.010,,071217,,,A*62
$GNRMC,211515.00,A,3114.53340,N,12117.68536,E,0.008,,071217,,,A*6B
$GNRMC,211516.00,A,3114.53338,N,12117.68536,E,0.007,,071217,,,A*68
$GNRMC,211517.00,A,3114.53336,N,12117.68536,E,0.004,,071217,,,A*64
$GNRMC,211518.00,A,3114.53333,N,12117.68536,E,0.008,,071217,,,A*62
$GNRMC,211519.00,A,3114.53332,N,12117.68536,E,0.007,,071217,,,A*6D
$GNRMC,211520.00,A,3114.53331,N,12117.68536,E,0.033,,071217,,,D*66
$GNRMC,211521.00,A,3114.53330,N,12117.68534,E,0.023,,071217,,,D*65
$GNRMC,211522.00,A,3114.53329,N,12117.68533,E,0.002,,071217,,,D*6A
$GNRMC,211523.00,A,3114.53328,N,12117.68532,E,0.008,,071217,,,D*61
$GNRMC,211524.00,A,3114.53327,N,12117.68530,E,0.005,,071217,,,D*66
$GNRMC,211525.00,A,3114.53326,N,12117.68528,E,0.022,,071217,,,D*6A
$GNRMC,211526.00,A,3114.53325,N,12117.68526,E,0.012,,071217,,,D*67
$GNRMC,211527.00,A,3114.53324,N,12117.68524,E,0.012,,071217,,,D*65
$GNRMC,211528.00,A,3114.53322,N,12117.68522,E,0.007,,071217,,,D*6E
$GNRMC,211529.00,A,3114.53320,N,12117.68520,E,0.010,,071217,,,D*69
$GNRMC,211530.00,A,3114.53319,N,12117.68518,E,0.009,,071217,,,D*68
$GNRMC,211531.00,A,3114.53317,N,12117.68515,E,0.012,,071217,,,D*60
$GNRMC,211532.00,A,3114.53315,N,12117.68513,E,0.009,,071217,,,D*6D
$GNRMC,211533.00,A,3114.53313,N,12117.68511,E,0.005,,071217,,,D*64
$GNRMC,211534.00,A,3114.53311,N,12117.68508,E,0.028,,071217,,,D*66
$GNRMC,211535.00,A,3114.53309,N,12117.68505,E,0.015,,071217,,,D*6D
$GNRMC,211536.00,A,3114.53307,N,12117.68501,E,0.009,,071217,,,D*69
$GNRMC,211537.00,A,3114.53306,N,12117.68497,E,0.015,,071217,,,D*6A
$GNRMC,211538.00,A,3114.53305,N,12117.68493,E,0.007,,071217,,,D*61
$GNRMC,211539.00,A,3114.53307,N,12117.68489,E,0.021,,071217,,,D*6D
$GNRMC,211540.00,A,3114.53310,N,12117.68485,E,0.018,,071217,,,D*63
$GNRMC,211541.00,A,3114.53311,N,12117.68481,E,0.009,,071217,,,D*67
$GNRMC,211542.00,A,3114.53314,N,12117.68478,E,0.008,,071217,,,D*66
$GNRMC,211543.00,A,3114.53317,N,12117.68474,E,0.019,,071217,,,D*68
$GNRMC,211544.00,A,3114.53321,N,12117.68471,E,0.014,,071217,,,D*62
$GNRMC,211545.00,A,3114.53325,N,12117.68467,E,0.012,,071217,,,D*66
$GNRMC,211546.00,A,3114.53329,N,12117.68463,E,0.010,,071217,,,D*6F
$GNRMC,211547.00,A,3114.53333,N,12117.68459,E,0.013,,071217,,,D*6F
$GNRMC,211548.00,A,3114.53337,N,12117.68456,E,0.010,,071217,,,D*68
$GNRMC,211549.00,A,3114.53339,N,12117.68454,E,0.014,,071217,,,D*61
$GNRMC,211550.00,A,3114.53342,N,12117.68452,E,0.008,,071217,,,D*6E
$GNRMC,211551.00,A,3114.53341,N,12117.68450,E,0.006,,071217,,,D*60
$GNRMC,211552.00,A,3114.53339,N,12117.68449,E,0.008,,071217,,,D*6A
$GNRMC,211553.00,A,3114.53338,N,12117.68447,E,0.009,,071217,,,D*65
$GNRMC,211554.00,A,3114.53336,N,12117.68446,E,0.011,,071217,,,D*64
$GNRMC,211555.00,A,3114.53332,N,12117.68446,E,0.015,,071217,,,D*65
$GNRMC,211556.00,A,3114.53330,N,12117.68446,E,0.003,,071217,,,D*63
$GNRMC,211557.00,A,3114.53328,N,12117.68447,E,0.001,,071217,,,D*68
$GNRMC,211558.00,A,3114.53327,N,12117.68448,E,0.001,,071217,,,D*67
$GNRMC,211559.00,A,3114.53326,N,12117.68449,E,0.014,,071217,,,D*62
$GNRMC,211600.00,A,3114.53326,N,12117.68450,E,0.009,,071217,,,D*69
$GNRMC,211601.00,A,3114.53327,N,12117.68449,E,0.006,,071217,,,D*6E
$GNRMC,211602.00,A,3114.53328,N,12117.68449,E,0.007,,071217,,,D*63
$GNRMC,211603.00,A,3114.53329,N,12117.68449,E,0.005,,071217,,,D*61
$GNRMC,211604.00,A,3114.53330,N,12117.68449,E,0.011,,071217,,,D*6B
$GNRMC,211605.00,A,3114.53332,N,12117.68450,E,0.008,,071217,,,D*68
$GNRMC,211606.00,A,3114.53332,N,12117.68451,E,0.011,,071217,,,D*62
$GNRMC,211607.00,A,3114.53328,N,12117.68456,E,0.010,,071217,,,D*6E
$GNRMC,211608.00,A,3114.53326,N,12117.68460,E,0.010,,071217,,,D*6A
$GNRMC,211609.00,A,3114.53324,N,12117.68465,E,0.001,,071217,,,D*6C
$GNRMC,211610.00,A,3114.53321,N,12117.68471,E,0.009,,071217,,,D*6C
$GNRMC,211611.00,A,3114.53319,N,12117.68476,E,0.006,,071217,,,D*6E
$GNRMC,211612.00,A,3114.53316,N,12117.68482,E,0.006,,071217,,,D*69
$GNRMC,211613.00,A,3114.53314,N,12117.68486,E,0.008,,071217,,,D*60
$GNRMC,211614.00,A,3114.53312,N,12117.68489,E,0.006,,071217,,,D*60
$GNRMC,211615.00,A,3114.53309,N,12117.68491,E,0.009,,071217,,,D*6D
$GNRMC,211616.00,A,3114.53307,N,12117.68493,E,0.010,,071217,,,D*6A
$GNRMC,211617.00,A,3114.53303,N,12117.68495,E,0.010,,071217,,,D*69
$GNRMC,211618.00,A,3114.53299,N,12117.68497,E,0.008,,071217,,,D*6F
$GNRMC,211619.00,A,3114.53296,N,12117.68499,E,0.006,,071217,,,D*61
$GNRMC,211620.00,A,3114.53294,N,12117.68504,E,0.030,,071217,,,D*69
$GNRMC,211621.00,A,3114.53292,N,12117.68508,E,0.008,,071217,,,D*69
$GNRMC,211622.00,A,3114.53291,N,12117.68512,E,0.009,,071217,,,D*63
$GNRMC,211623.00,A,3114.53289,N,12117.68517,E,0.009,,071217,,,D*6E
$GNRMC,211624.00,A,3114.53288,N,12117.68520,E,0.007,,071217,,,D*62
$GNRMC,211625.00,A,3114.53288,N,12117.68523,E,0.007,,071217,,,D*60
$GNRMC,211626.00,A,3114.53287,N,12117.68526,E,0.010,,071217,,,D*6F
$GNRMC,211627.00,A,3114.53285,N,12117.68529,E,0.009,,071217,,,D*6B
$GNRMC,211628.00,A,3114.53284,N,12117.68532,E,0.011,,071217,,,D*66
$GNRMC,211629.00,A,3114.53283,N,12117.68535,E,0.007,,071217,,,D*60
$GNRMC,211630.00,A,3114.53281,N,12117.68540,E,0.008,,071217,,,D*67
$GNRMC,211631.00,A,3114.53279,N,12117.68545,E,0.014,,071217,,,D*69
$GNRMC,211632.00,A,3114.53276,N,12117.68548,E,0.002,,071217,,,D*6F
$GNRMC,211633.00,A,3114.53275,N,12117.68550,E,0.008,,071217,,,D*6E
$GNRMC,211634.00,A,3114.53274,N,12117.68550,E,0.007,,071217,,,D*67
$GNRMC,211635.00,A,3114.53273,N,12117.68551,E,0.009,,071217,,,D*6E
$GNRMC,211636.00,A,3114.53272,N,12117.68552,E,0.006,,071217,,,D*60
$GNRMC,211637.00,A,3114.53269,N,12117.68555,E,0.007,,071217,,,D*6D
$GNRMC,211638.00,A,3114.53268,N,12117.68556,E,0.007,,071217,,,D*60
$GNRMC,211639.00,A,3114.53267,N,12117.68555,E,0.005,,071217,,,D*6F
$GNRMC,211640.00,A,3114.53265,N,12117.68554,E,0.001,,071217,,,D*66
$GNRMC,211641.00,A,3114.53265,N,12117.68554,E,0.005,,071217,,,D*63
$GNRMC,211642.00,A,3114.53265,N,12117.68552,E,0.004,,071217,,,D*67
$GNRMC,211643.00,A,3114.53265,N,12117.68550,E,0.009,,071217,,,D*69
$GNRMC,211644.00,A,3114.53266,N,12117.68549,E,0.008,,071217,,,D*64
$GNRMC,211645.00,A,3114.53266,N,12117.68546,E,0.011,,071217,,,D*62
$GNRMC,211646.00,A,3114.53269,N,12117.68542,E,0.016,,071217,,,D*6D
$GNRMC,211647.00,A,3114.53270,N,12117.68539,E,0.010,,071217,,,D*6E
$GNRMC,211648.00,A,3114.53270,N,12117.68536,E,0.004,,071217,,,D*6B
$GNRMC,211649.00,A,3114.53271,N,12117.68533,E,0.002,,071217,,,D*68
$GNRMC,211650.00,A,3114.53271,N,12117.68531,E,0.007,,071217,,,D*67
$GNRMC,211651.00,A,3114.53271,N,12117.68528,E,0.015,,071217,,,D*6D
$GNRMC,211652.00,A,3114.53271,N,12117.68525,E,0.014,,071217,,,D*62
$GNRMC,211653.00,A,3114.53271,N,12117.68522,E,0.003,,071217,,,D*62
$GNRMC,211654.00,A,3114.53270,N,12117.68519,E,0.009,,071217,,,D*66
$GNRMC,211655.00,A,3114.53269,N,12117.68518,E,0.008,,071217,,,D*6F
$GNRMC,211656.00,A,3114.53268,N,12117.68517,E,0.010,,071217,,,D*6B
$GNRMC,211657.00,A,3114.53265,N,12117.68517,E,0.010,,071217,,,D*67
$GNRMC,211658.00,A,3114.53262,N,12117.68516,E,0.011,,071217,,,D*6F
$GNRMC,211659.00,A,3114.53260,N,12117.68515,E,0.009,,071217,,,D*66
$GNRMC,211700.00,A,3114.53259,N,12117.68514,E,0.011,,071217,,,D*69
$GNRMC,211701.00,A,3114.53258,N,12117.68514,E,0.001,,071217,,,D*68
$GNRMC,211702.00,A,3114.53259,N,12117.68513,E,0.002,,071217,,,D*6E
$GNRMC,211703.00,A,3114.53260,N,12117.68511,E,0.004,,071217,,,D*61
$GNRMC,211704.00,A,3114.53262,N,12117.68510,E,0.005,,071217,,,D*64
$GNRMC,211705.00,A,3114.53263,N,12117.68509,E,0.013,,071217,,,D*6B
$GNRMC,211706.00,A,3114.53263,N,12117.68509,E,0.013,,071217,,,D*68
$GNRMC,211707.00,A,3114.53260,N,12117.68511,E,0.004,,071217,,,D*65
$GNRMC,211708.00,A,3114.53256,N,12117.68513,E,0.006,,071217,,,D*6F
$GNRMC,211709.00,A,3114.53253,N,12117.68514,E,0.004,,071217,,,D*6E
$GNRMC,211710.00,A,3114.53250,N,12117.68515,E,0.009,,071217,,,D*69
$GNRMC,211711.00,A,3114.53246,N,12117.68515,E,0.010,,071217,,,D*67
$GNRMC,211712.00,A,3114.53245,N,12117.68515,E,0.004,,071217,,,D*62
$GNRMC,211713.00,A,3114.53244,N,12117.68515,E,0.006,,071217,,,D*60
$GNRMC,211714.00,A,3114.53245,N,12117.68514,E,0.013,,071217,,,D*63
$GNRMC,211715.00,A,3114.53246,N,12117.68513,E,0.008,,071217,,,D*6C
$GNRMC,211716.00,A,3114.53247,N,12117.68512,E,0.002,,071217,,,D*65
$GNRMC,211717.00,A,3114.53249,N,12117.68511,E,0.006,,071217,,,D*6D
$GNRMC,211718.00,A,3114.53249,N,12117.68509,E,0.012,,071217,,,D*6E
$GNRMC,211719.00,A,3114.53251,N,12117.68506,E,0.005,,071217,,,D*6F
$GNRMC,211720.00,A,3114.53255,N,12117.68502,E,0.018,,071217,,,D*69
$GNRMC,211721.00,A,3114.53258,N,12117.68497,E,0.017,,071217,,,D*67
$GNRMC,211722.00,A,3114.53264,N,12117.68492,E,0.024,,071217,,,D*6E
$GNRMC,211723.00,A,3114.53267,N,12117.68488,E,0.014,,071217,,,D*64
$GNRMC,211724.00,A,3114.53272,N,12117.68485,E,0.012,,071217,,,D*6C
$GNRMC,211725.00,A,3114.53274,N,12117.68483,E,0.008,,071217,,,D*66
$GNRMC,211726.00,A,3114.53277,N,12117.68481,E,0.015,,071217,,,D*68
$GNRMC,211727.00,A,3114.53281,N,12117.68479,E,0.009,,071217,,,D*6A
$GNRMC,211728.00,A,3114.53286,N,12117.68477,E,0.006,,071217,,,D*63
$GNRMC,211729.00,A,3114.53289,N,12117.68475,E,0.009,,071217,,,D*60
$GNRMC,211730.00,A,3114.53292,N,12117.68476,E,0.003,,071217,,,D*6B
$GNRMC,211731.00,A,3114.53295,N,12117.68477,E,0.008,,071217,,,D*67
$GNRMC,211732.00,A,3114.53301,N,12117.68476,E,0.010,,071217,,,D*60
$GNRMC,211733.00,A,3114.53308,N,12117.68475,E,0.014,,071217,,,D*6F
$GNRMC,211734.00,A,3114.53315,N,12117.68475,E,0.015,,071217,,,D*65
$GNRMC,211735.00,A,3114.53322,N,12117.68476,E,0.014,,071217,,,D*62
$GNRMC,211736.00,A,3114.53329,N,12117.68477,E,0.004,,071217,,,D*6A
$GNRMC,211737.00,A,3114.53335,N,12117.68477,E,0.006,,071217,,,D*64
$GNRMC,211738.00,A,3114.53342,N,12117.68477,E,0.017,,071217,,,D*6B
$GNRMC,211739.00,A,3114.53348,N,12117.68477,E,0.007,,071217,,,D*61
$GNRMC,211740.00,A,3114.53353,N,12117.68479,E,0.002,,071217,,,D*6E
$GNRMC,211741.00,A,3114.53357,N,12117.68480,E,0.011,,071217,,,D*6F
$GNRMC,211742.00,A,3114.53362,N,12117.68482,E,0.015,,071217,,,D*6C
$GNRMC,211743.00,A,3114.53366,N,12117.68483,E,0.005,,071217,,,D*69
$GNRMC,211744.00,A,3114.53370,N,12117.68486,E,0.004,,071217,,,D*6D
$GNRMC,211745.00,A,3114.53370,N,12117.68489,E,0.002,,071217,,,D*65
$GNRMC,211746.00,A,3114.53369,N,12117.68492,E,0.005,,071217,,,D*63
$GNRMC,211747.00,A,3114.53369,N,12117.68495,E,0.006,,071217,,,D*66
$GNRMC,211748.00,A,3114.53369,N,12117.68497,E,0.004,,071217,,,D*69
$GNRMC,211749.00,A,3114.53369,N,12117.68499,E,0.006,,071217,,,D*64
$GNRMC,211750.00,A,3114.53369,N,12117.68501,E,0.008,,071217,,,D*62
$GNRMC,211751.00,A,3114.53370,N,12117.68503,E,0.001,,071217,,,D*60
$GNRMC,211752.00,A,3114.53372,N,12117.68505,E,0.009,,071217,,,D*6F
$GNRMC,211753.00,A,3114.53374,N,12117.68505,E,0.007,,071217,,,D*66
$GNRMC,211754.00,A,3114.53375,N,12117.68506,E,0.002,,071217,,,D*66
$GNRMC,211755.00,A,3114.53376,N,12117.68507,E,0.010,,071217,,,D*66
$GNRMC,211756.00,A,3114.53378,N,12117.68508,E,0.021,,071217,,,D*66
$GNRMC,211757.00,A,3114.53378,N,12117.68508,E,0.009,,071217,,,D*6D
$GNRMC,211758.00,A,3114.53375,N,12117.68511,E,0.005,,071217,,,D*6B
$GNRMC,211759.00,A,3114.53373,N,12117.68513,E,0.005,,071217,,,D*6E
$GNRMC,211800.00,A,3114.53370,N,12117.68516,E,0.009,,071217,,,D*67
$GNRMC,211801.00,A,3114.53368,N,12117.68518,E,0.008,,071217,,,D*60
$GNRMC,211802.00,A,3114.53365,N,12117.68520,E,0.003,,071217,,,D*6E
$GNRMC,211803.00,A,3114.53362,N,12117.68522,E,0.003,,071217,,,D*6A
$GNRMC,211804.00,A,3114.53360,N,12117.68524,E,0.003,,071217,,,D*69
$GNRMC,211805.00,A,3114.53357,N,12117.68526,E,0.008,,071217,,,D*65
$GNRMC,211806.00,A,3114.53354,N,12117.68528,E,0.009,,071217,,,D*6A
$GNRMC,211807.00,A,3114.53351,N,12117.68530,E,0.002,,071217,,,D*6C
$GNRMC,211808.00,A,3114.53349,N,12117.68531,E,0.006,,071217,,,D*6F
$GNRMC,211809.00,A,3114.53345,N,12117.68534,E,0.005,,071217,,,D*64
$GNRMC,211810.00,A,3114.53342,N,12117.68535,E,0.009,,071217,,,D*66
$GNRMC,211811.00,A,3114.53338,N,12117.68537,E,0.005,,071217,,,D*64
$GNRMC,211812.00,A,3114.53335,N,12117.68539,E,0.004,,071217,,,D*65
$GNRMC,211813.00,A,3114.53332,N,12117.68541,E,0.009,,071217,,,D*61
$GNRMC,211814.00,A,3114.53329,N,12117.68543,E,0.009,,071217,,,D*6E
$GNRMC,211815.00,A,3114.53327,N,12117.68544,E,0.010,,071217,,,D*6E
$GNRMC,211816.00,A,3114.53324,N,12117.68545,E,0.014,,071217,,,D*6B
$GNRMC,211817.00,A,3114.53322,N,12117.68546,E,0.008,,071217,,,D*62
$GNRMC,211818.00,A,3114.53319,N,12117.68548,E,0.008,,071217,,,D*6B
$GNRMC,211819.00,A,3114.53316,N,12117.68549,E,0.005,,071217,,,D*69
$GNRMC,211820.00,A,3114.53313,N,12117.68550,E,0.000,,071217,,,D*6B
$GNRMC,211821.00,A,3114.53310,N,12117.68551,E,0.006,,071217,,,D*6E
$GNRMC,211822.00,A,3114.53306,N,12117.68552,E,0.007,,071217,,,D*68
$GNRMC,211823.00,A,3114.53303,N,12117.68552,E,0.005,,071217,,,D*6E
$GNRMC,211824.00,A,3114.53300,N,12117.68552,E,0.010,,071217,,,D*6E
$GNRMC,211825.00,A,3114.53297,N,12117.68551,E,0.011,,071217,,,D*62
$GNRMC,211826.00,A,3114.53295,N,12117.68549,E,0.011,,071217,,,D*6A
$GNRMC,211827.00,A,3114.53294,N,12117.68548,E,0.008,,071217,,,D*63
$GNRMC,211828.00,A,3114.53292,N,12117.68546,E,0.006,,071217,,,D*6A
$GNRMC,211829.00,A,3114.53290,N,12117.68543,E,0.012,,071217,,,D*69
$GNRMC,211830.00,A,3114.53288,N,12117.68540,E,0.014,,071217,,,D*6D
$GNRMC,211831.00,A,3114.53286,N,12117.68537,E,0.007,,071217,,,D*60
$GNRMC,211832.00,A,3114.53283,N,12117.68534,E,0.008,,071217,,,D*6A
$GNRMC,211833.00,A,3114.53281,N,12117.68531,E,0.008,,071217,,,D*6C
$GNRMC,211834.00,A,3114.53278,N,12117.68528,E,0.011,,071217,,,D*6D
$GNRMC,211835.00,A,3114.53276,N,12117.68526,E,0.013,,071217,,,D*6E
$GNRMC,211836.00,A,3114.53273,N,12117.68524,E,0.010,,071217,,,D*69
$GNRMC,211837.00,A,3114.53271,N,12117.68522,E,0.011,,071217,,,D*6D
$GNRMC,211838.00,A,3114.53268,N,12117.68520,E,0.006,,071217,,,D*6E
$GNRMC,211839.00,A,3114.53265,N,12117.68518,E,0.006,,071217,,,D*69
$GNRMC,211840.00,A,3114.53262,N,12117.68516,E,0.010,,071217,,,D*69
$GNRMC,211841.00,A,3114.53260,N,12117.68514,E,0.007,,071217,,,D*6E
$GNRMC,211842.00,A,3114.53257,N,12117.68512,E,0.012,,071217,,,D*6B
$GNRMC,211843.00,A,3114.53254,N,12117.68509,E,0.007,,071217,,,D*67
$GNRMC,211844.00,A,3114.53252,N,12117.68507,E,0.005,,071217,,,D*6A
$GNRMC,211845.00,A,3114.53250,N,12117.68506,E,0.008,,071217,,,D*65
$GNRMC,211846.00,A,3114.53248,N,12117.68504,E,0.006,,071217,,,D*63
$GNRMC,211847.00,A,3114.53246,N,12117.68503,E,0.005,,071217,,,D*68
$GNRMC,211848.00,A,3114.53244,N,12117.68502,E,0.009,,071217,,,D*68
$GNRMC,211849.00,A,3114.53242,N,12117.68501,E,0.004,,071217,,,D*61
$GNRMC,211850.00,A,3114.53239,N,12117.68500,E,0.009,,071217,,,D*69
$GNRMC,211851.00,A,3114.53237,N,12117.68500,E,0.003,,071217,,,D*6C
$GNRMC,211852.00,A,3114.53235,N,12117.68500,E,0.013,,071217,,,D*6C
$GNRMC,211853.00,A,3114.53232,N,12117.68500,E,0.006,,071217,,,D*6E
$GNRMC,211854.00,A,3114.53230,N,12117.68500,E,0.006,,071217,,,D*6B
$GNRMC,211855.00,A,3114.53228,N,12117.68500,E,0.007,,071217,,,D*62
$GNRMC,211856.00,A,3114.53226,N,12117.68500,E,0.012,,071217,,,D*6B
$GNRMC,211857.00,A,3114.53226,N,12117.68500,E,0.009,,071217,,,D*60
$GNRMC,211858.00,A,3114.53226,N,12117.68500,E,0.004,,071217,,,D*62
$GNRMC,211859.00,A,3114.53226,N,12117.68500,E,0.010,,071217,,,D*66
$GNRMC,211900.00,A,3114.53226,N,12117.68501,E,0.003,,071217,,,D*68
$GNRMC,211901.00,A,3114.53226,N,12117.68501,E,0.010,,071217,,,D*6B
$GNRMC,211902.00,A,3114.53226,N,12117.68502,E,0.003,,071217,,,D*69
$GNRMC,211903.00,A,3114.53226,N,12117.68503,E,0.006,,071217,,,D*6C
$GNRMC,211904.00,A,3114.53226,N,12117.68504,E,0.006,,071217,,,D*6C
$GNRMC,211905.00,A,3114.53227,N,12117.68505,E,0.005,,071217,,,D*6E
$GNRMC,211906.00,A,3114.53227,N,12117.68506,E,0.005,,071217,,,D*6E
$GNRMC,211907.00,A,3114.53228,N,12117.68507,E,0.001,,071217,,,D*65
$GNRMC,211908.00,A,3114.53228,N,12117.68508,E,0.005,,071217,,,D*61
$GNRMC,211909.00,A,3114.53229,N,12117.68509,E,0.011,,071217,,,D*65
$GNRMC,211910.00,A,3114.53230,N,12117.68510,E,0.009,,071217,,,D*64
$GNRMC,211911.00,A,3114.53231,N,12117.68511,E,0.008,,071217,,,D*64
$GNRMC,211912.00,A,3114.53232,N,12117.68511,E,0.010,,071217,,,D*6D
$GNRMC,211913.00,A,3114.53234,N,12117.68510,E,0.004,,071217,,,D*6E
$GNRMC,211914.00,A,3114.53235,N,12117.68511,E,0.001,,071217,,,D*6C
$GNRMC,211915.00,A,3114.53236,N,12117.68511,E,0.008,,071217,,,D*67
$GNRMC,211916.00,A,3114.53237,N,12117.68512,E,0.009,,071217,,,D*67
$GNRMC,211917.00,A,3114.53239,N,12117.68513,E,0.017,,071217,,,D*66
$GNRMC,211918.00,A,3114.53240,N,12117.68514,E,0.016,,071217,,,D*61
$GNRMC,211919.00,A,3114.53242,N,12117.68515,E,0.004,,071217,,,D*60
$GNRMC,211920.00,A,3114.53243,N,12117.68516,E,0.003,,071217,,,D*6F
$GNRMC,211921.00,A,3114.53244,N,12117.68518,E,0.011,,071217,,,D*64
$GNRMC,211922.00,A,3114.53244,N,12117.68519,E,0.013,,071217,,,D*64
$GNRMC,211923.00,A,3114.53246,N,12117.68520,E,0.004,,071217,,,D*6B
$GNRMC,211924.00,A,3114.53247,N,12117.68521,E,0.007,,071217,,,D*6F
$GNRMC,211925.00,A,3114.53247,N,12117.68522,E,0.004,,071217,,,D*6E
$GNRMC,211926.00,A,3114.53248,N,12117.68524,E,0.008,,071217,,,D*68
$GNRMC,211927.00,A,3114.53249,N,12117.68525,E,0.001,,071217,,,D*60
$GNRMC,211928.00,A,3114.53250,N,12117.68526,E,0.005,,071217,,,D*60
$GNRMC,211929.00,A,3114.53250,N,12117.68527,E,0.014,,071217,,,D*60
$GNRMC,211930.00,A,3114.53251,N,12117.68528,E,0.008,,071217,,,D*6B
$GNRMC,211931.00,A,3114.53251,N,12117.68528,E,0.010,,071217,,,D*63
$GNRMC,211932.00,A,3114.53253,N,12117.68528,E,0.003,,071217,,,D*60
$GNRMC,211933.00,A,3114.53254,N,12117.68529,E,0.002,,071217,,,D*66
$GNRMC,211934.00,A,3114.53256,N,12117.68529,E,0.007,,071217,,,D*66
$GNRMC,211935.00,A,3114.53258,N,12117.68529,E,0.002,,071217,,,D*6C
$GNRMC,211936.00,A,3114.53260,N,12117.68529,E,0.011,,071217,,,D*66
$GNRMC,211937.00,A,3114.53262,N,12117.68530,E,0.004,,071217,,,D*69
$GNRMC,211938.00,A,3114.53264,N,12117.68530,E,0.014,,071217,,,D*61
$GNRMC,211939.00,A,3114.53265,N,12117.68531,E,0.008,,071217,,,D*6D
$GNRMC,211940.00,A,3114.53266,N,12117.68531,E,0.008,,071217,,,D*60
$GNRMC,211941.00,A,3114.53267,N,12117.68532,E,0.009,,071217,,,D*62
$GNRMC,211942.00,A,3114.53266,N,12117.68533,E,0.008,,071217,,,D*60
$GNRMC,211943.00,A,3114.53266,N,12117.68534,E,0.007,,071217,,,D*69
$GNRMC,211944.00,A,3114.53266,N,12117.68534,E,0.003,,071217,,,D*6A
$GNRMC,211945.00,A,3114.53267,N,12117.68535,E,0.004,,071217,,,D*6C
$GNRMC,211946.00,A,3114.53267,N,12117.68536,E,0.006,,071217,,,D*6E
$GNRMC,211947.00,A,3114.53267,N,12117.68537,E,0.008,,071217,,,D*60
$GNRMC,211948.00,A,3114.53267,N,12117.68537,E,0.005,,071217,,,D*62
$GNRMC,211949.00,A,3114.53268,N,12117.68538,E,0.005,,071217,,,D*63
$GNRMC,211950.00,A,3114.53269,N,12117.68539,E,0.004,,071217,,,D*6A
$GNRMC,211951.00,A,3114.53270,N,12117.68539,E,0.003,,071217,,,D*64
$GNRMC,211952.00,A,3114.53271,N,12117.68539,E,0.006,,071217,,,D*63
$GNRMC,211953.00,A,3114.53272,N,12117.68539,E,0.006,,071217,,,D*61
$GNRMC,211954.00,A,3114.53273,N,12117.68540,E,0.007,,071217,,,D*68
$GNRMC,211955.00,A,3114.53274,N,12117.68540,E,0.009,,071217,,,D*60
$GNRMC,211956.00,A,3114.53276,N,12117.68540,E,0.009,,071217,,,D*61
$GNRMC,211957.00,A,3114.53277,N,12117.68541,E,0.003,,071217,,,D*6A
$GNRMC,211958.00,A,3114.53278,N,12117.68541,E,0.006,,071217,,,D*6F
$GNRMC,211959.00,A,3114.53279,N,12117.68541,E,0.002,,071217,,,D*6B
$GNRMC,212000.00,A,3114.53280,N,12117.68541,E,0.004,,071217,,,D*6D
$GNRMC,212001.00,A,3114.53282,N,12117.68540,E,0.015,,071217,,,D*6F
$GNRMC,212002.00,A,3114.53284,N,12117.68540,E,0.009,,071217,,,D*67
$GNRMC,212003.00,A,3114.53286,N,12117.68539,E,0.015,,071217,,,D*67
$GNRMC,212004.00,A,3114.53288,N,12117.68539,E,0.007,,071217,,,D*6D
$GNRMC,212005.00,A,3114.53289,N,12117.68538,E,0.008,,071217,,,D*63
$GNRMC,212006.00,A,3114.53291,N,12117.68537,E,0.009,,071217,,,D*67
$GNRMC,212007.00,A,3114.53293,N,12117.68536,E,0.008,,071217,,,D*64
$GNRMC,212008.00,A,3114.53294,N,12117.68535,E,0.007,,071217,,,D*60
$GNRMC,212009.00,A,3114.53294,N,12117.68532,E,0.006,,071217,,,D*67
$GNRMC,212010.00,A,3114.53294,N,12117.68529,E,0.011,,071217,,,D*63
$GNRMC,212011.00,A,3114.53295,N,12117.68526,E,0.008,,071217,,,D*64
$GNRMC,212012.00,A,3114.53296,N,12117.68523,E,0.006,,071217,,,D*6F
$GNRMC,212013.00,A,3114.53297,N,12117.68520,E,0.004,,071217,,,D*6E
$GNRMC,212014.00,A,3114.53298,N,12117.68516,E,0.013,,071217,,,D*65
$GNRMC,212015.00,A,3114.53300,N,12117.68511,E,0.023,,071217,,,D*60
$GNRMC,212016.00,A,3114.53301,N,12117.68507,E,0.021,,071217,,,D*67
$GNRMC,212017.00,A,3114.53303,N,12117.68503,E,0.012,,071217,,,D*60
$GNRMC,212018.00,A,3114.53303,N,12117.68499,E,0.010,,071217,,,D*6F
$GNRMC,212019.00,A,3114.53303,N,12117.68496,E,0.008,,071217,,,D*68
$GNRMC,212020.00,A,3114.53303,N,12117.68493,E,0.002,,071217,,,D*6D
$GNRMC,212021.00,A,3114.53304,N,12117.68490,E,0.007,,071217,,,D*6D
$GNRMC,212022.00,A,3114.53304,N,12117.68488,E,0.005,,071217,,,D*65
$GNRMC,212023.00,A,3114.53304,N,12117.68485,E,0.005,,071217,,,D*69
$GNRMC,212024.00,A,3114.53305,N,12117.68482,E,0.006,,071217,,,D*6B
$GNRMC,212025.00,A,3114.53305,N,12117.68479,E,0.018,,071217,,,D*61
$GNRMC,212026.00,A,3114.53306,N,12117.68476,E,0.004,,071217,,,D*63
$GNRMC,212027.00,A,3114.53307,N,12117.68473,E,0.007,,071217,,,D*65
$GNRMC,212028.00,A,3114.53307,N,12117.68471,E,0.008,,071217,,,D*67
$GNRMC,212029.00,A,3114.53307,N,12117.68469,E,0.011,,071217,,,D*67
$GNRMC,212030.00,A,3114.53307,N,12117.68466,E,0.004,,071217,,,D*64
$GNRMC,212031.00,A,3114.53308,N,12117.68464,E,0.005,,071217,,,D*69
$GNRMC,212032.00,A,3114.53308,N,12117.68462,E,0.009,,071217,,,D*60
$GNRMC,212033.00,A,3114.53308,N,12117.68459,E,0.008,,071217,,,D*68
$GNRMC,212034.00,A,3114.53308,N,12117.68457,E,0.007,,071217,,,D*6E
$GNRMC,212035.00,A,3114.53307,N,12117.68455,E,0.013,,071217,,,D*67
$GNRMC,212036.00,A,3114.53306,N,12117.68453,E,0.008,,071217,,,D*69
$GNRMC,212037.00,A,3114.53305,N,12117.68451,E,0.001,,071217,,,D*60
$GNRMC,212038.00,A,3114.53304,N,12117.68449,E,0.012,,071217,,,D*65
$GNRMC,212039.00,A,3114.53303,N,12117.68448,E,0.001,,071217,,,D*60
$GNRMC,212040.00,A,3114.53301,N,12117.68447,E,0.002,,071217,,,D*60
$GNRMC,212041.00,A,3114.53300,N,12117.68447,E,0.007,,071217,,,D*65
$GNRMC,212042.00,A,3114.53298,N,12117.68446,E,0.008,,071217,,,D*68
$GNRMC,212043.00,A,3114.53296,N,12117.68447,E,0.008,,071217,,,D*66
$GNRMC,212044.00,A,3114.53294,N,12117.68447,E,0.006,,071217,,,D*6D
$GNRMC,212045.00,A,3114.53292,N,12117.68447,E,0.006,,071217,,,D*6A
$GNRMC,212046.00,A,3114.53291,N,12117.68448,E,0.013,,071217,,,D*61
$GNRMC,212047.00,A,3114.53289,N,12117.68448,E,0.007,,071217,,,D*6C
$GNRMC,212048.00,A,3114.53287,N,12117.68449,E,0.011,,071217,,,D*6B
$GNRMC,212049.00,A,3114.53285,N,12117.68449,E,0.003,,071217,,,D*6B
$GNRMC,212050.00,A,3114.53283,N,12117.68449,E,0.012,,071217,,,D*65
$GNRMC,212051.00,A,3114.53281,N,12117.68449,E,0.013,,071217,,,D*67
$GNRMC,212052.00,A,3114.53279,N,12117.68450,E,0.010,,071217,,,D*68
$GNRMC,212053.00,A,3114.53277,N,12117.68450,E,0.008,,071217,,,D*6E
$GNRMC,212054.00,A,3114.53275,N,12117.68451,E,0.013,,071217,,,D*60
$GNRMC,212055.00,A,3114.53274,N,12117.68452,E,0.006,,071217,,,D*67
$GNRMC,212056.00,A,3114.53272,N,12117.68452,E,0.011,,071217,,,D*64
$GNRMC,212057.00,A,3114.53270,N,12117.68453,E,0.016,,071217,,,D*61
$GNRMC,212058.00,A,3114.53268,N,12117.68453,E,0.009,,071217,,,D*69
$GNRMC,212059.00,A,3114.53266,N,12117.68453,E,0.009,,071217,,,D*66
$GNRMC,212100.00,A,3114.53266,N,12117.68452,E,0.006,,071217,,,D*65
$GNRMC,212101.00,A,3114.53265,N,12117.68452,E,0.015,,071217,,,D*65
$GNRMC,212102.00,A,3114.53265,N,12117.68452,E,0.016,,071217,,,D*65
$GNRMC,212103.00,A,3114.53264,N,12117.68451,E,0.011,,071217,,,D*61
$GNRMC,212104.00,A,3114.53264,N,12117.68449,E,0.012,,071217,,,D*6C
$GNRMC,212105.00,A,3114.53264,N,12117.68447,E,0.019,,071217,,,D*68
$GNRMC,212106.00,A,3114.53264,N,12117.68445,E,0.019,,071217,,,D*69
$GNRMC,212107.00,A,3114.53264,N,12117.68443,E,0.009,,071217,,,D*6F
$GNRMC,212108.00,A,3114.53264,N,12117.68441,E,0.006,,071217,,,D*6D
$GNRMC,212109.00,A,3114.53264,N,12117.68440,E,0.008,,071217,,,D*63
$GNRMC,212110.00,A,3114.53264,N,12117.68438,E,0.007,,071217,,,D*6B
$GNRMC,212111.00,A,3114.53264,N,12117.68437,E,0.003,,071217,,,D*61
$GNRMC,212112.00,A,3114.53263,N,12117.68436,E,0.013,,071217,,,D*65
$GNRMC,212113.00,A,3114.53262,N,12117.68435,E,0.008,,071217,,,D*6C
$GNRMC,212114.00,A,3114.53260,N,12117.68433,E,0.007,,071217,,,D*60
$GNRMC,212115.00,A,3114.53259,N,12117.68432,E,0.007,,071217,,,D*6A
$GNRMC,212116.00,A,3114.53258,N,12117.68431,E,0.014,,071217,,,D*69
$GNRMC,212117.00,A,3114.53256,N,12117.68431,E,0.011,,071217,,,D*63
$GNRMC,212118.00,A,3114.53256,N,12117.68430,E,0.010,,071217,,,D*6C
$GNRMC,212119.00,A,3114.53256,N,12117.68429,E,0.011,,071217,,,D*64
$GNRMC,212120.00,A,3114.53256,N,12117.68428,E,0.011,,071217,,,D*6F
$GNRMC,212121.00,A,3114.53256,N,12117.68427,E,0.013,,071217,,,D*63
$GNRMC,212122.00,A,3114.53257,N,12117.68427,E,0.005,,071217,,,D*66
$GNRMC,212123.00,A,3114.53257,N,12117.68426,E,0.005,,071217,,,D*66
$GNRMC,212124.00,A,3114.53257,N,12117.68426,E,0.007,,071217,,,D*63
$GNRMC,212125.00,A,3114.53257,N,12117.68426,E,0.011,,071217,,,D*65
$GNRMC,212126.00,A,3114.53257,N,12117.68426,E,0.011,,071217,,,D*66
$GNRMC,212127.00,A,3114.53258,N,12117.68426,E,0.013,,071217,,,D*6A
$GNRMC,212128.00,A,3114.53260,N,12117.68426,E,0.008,,071217,,,D*64
$GNRMC,212129.00,A,3114.53262,N,12117.68427,E,0.013,,071217,,,D*6C
$GNRMC,212130.00,A,3114.53264,N,12117.68427,E,0.007,,071217,,,D*67
$GNRMC,212131.00,A,3114.53265,N,12117.68429,E,0.018,,071217,,,D*67
$GNRMC,212132.00,A,3114.53266,N,12117.68431,E,0.005,,071217,,,D*62
$GNRMC,212133.00,A,3114.53267,N,12117.68433,E,0.008,,071217,,,D*6D
$GNRMC,212134.00,A,3114.53269,N,12117.68434,E,0.004,,071217,,,D*6F
$GNRMC,212135.00,A,3114.53270,N,12117.68436,E,0.011,,071217,,,D*60
$GNRMC,212136.00,A,3114.53271,N,12117.68439,E,0.008,,071217,,,D*65
$GNRMC,212137.00,A,3114.53272,N,12117.68441,E,0.008,,071217,,,D*68
$GNRMC,212138.00,A,3114.53273,N,12117.68443,E,0.001,,071217,,,D*6D
$GNRMC,212139.00,A,3114.53274,N,12117.68445,E,0.010,,071217,,,D*6D
$GNRMC,212140.00,A,3114.53275,N,12117.68447,E,0.016,,071217,,,D*66
$GNRMC,212141.00,A,3114.53276,N,12117.68448,E,0.016,,071217,,,D*6B
$GNRMC,212142.00,A,3114.53278,N,12117.68449,E,0.011,,071217,,,D*60
$GNRMC,212143.00,A,3114.53279,N,12117.68450,E,0.009,,071217,,,D*61
$GNRMC,212144.00,A,3114.53281,N,12117.68451,E,0.001,,071217,,,D*68
$GNRMC,212145.00,A,3114.53282,N,12117.68452,E,0.008,,071217,,,D*60
$GNRMC,212146.00,A,3114.53283,N,12117.68453,E,0.001,,071217,,,D*6A
$GNRMC,212147.00,A,3114.53284,N,12117.68454,E,0.009,,071217,,,D*63
$GNRMC,212148.00,A,3114.53284,N,12117.68455,E,0.011,,071217,,,D*64
$GNRMC,212149.00,A,3114.53285,N,12117.68456,E,0.002,,071217,,,D*65
$GNRMC,212150.00,A,3114.53286,N,12117.68457,E,0.007,,071217,,,D*6A
$GNRMC,212151.00,A,3114.53286,N,12117.68458,E,0.010,,071217,,,D*62
$GNRMC,212152.00,A,3114.53287,N,12117.68459,E,0.006,,071217,,,D*66
$GNRMC,212153.00,A,3114.53287,N,12117.68460,E,0.008,,071217,,,D*63
$GNRMC,212154.00,A,3114.53287,N,12117.68462,E,0.001,,071217,,,D*6F
$GNRMC,212155.00,A,3114.53287,N,12117.68464,E,0.005,,071217,,,D*6C
$GNRMC,212156.00,A,3114.53287,N,12117.68466,E,0.003,,071217,,,D*6B
$GNRMC,212157.00,A,3114.53286,N,12117.68469,E,0.016,,071217,,,D*60
$GNRMC,212158.00,A,3114.53285,N,12117.68471,E,0.006,,071217,,,D*64
$GNRMC,212159.00,A,3114.53285,N,12117.68473,E,0.016,,071217,,,D*66
$GNRMC,212200.00,A,3114.53284,N,12117.68475,E,0.015,,071217,,,D*6D
$GNRMC,212201.00,A,3114.53283,N,12117.68477,E,0.006,,071217,,,D*6B
$GNRMC,212202.00,A,3114.53283,N,12117.68479,E,0.008,,071217,,,D*68
$GNRMC,212203.00,A,3114.53283,N,12117.68482,E,0.001,,071217,,,D*64
$GNRMC,212204.00,A,3114.53283,N,12117.68484,E,0.009,,071217,,,D*6D
$GNRMC,212205.00,A,3114.53283,N,12117.68486,E,0.013,,071217,,,D*65
$GNRMC,212206.00,A,3114.53283,N,12117.68488,E,0.020,,071217,,,D*68
$GNRMC,212207.00,A,3114.53284,N,12117.68491,E,0.009,,071217,,,D*6D
$GNRMC,212208.00,A,3114.53284,N,12117.68492,E,0.016,,071217,,,D*6F
$GNRMC,212209.00,A,3114.53285,N,12117.68493,E,0.007,,071217,,,D*6E
$GNRMC,212210.00,A,3114.53285,N,12117.68495,E,0.012,,071217,,,D*64
$GNRMC,212211.00,A,3114.53286,N,12117.68496,E,0.013,,071217,,,D*64
$GNRMC,212212.00,A,3114.53287,N,12117.68498,E,0.008,,071217,,,D*62
$GNRMC,212213.00,A,3114.53288,N,12117.68499,E,0.009,,071217,,,D*6C
$GNRMC,212214.00,A,3114.53288,N,12117.68501,E,0.010,,071217,,,D*63
$GNRMC,212215.00,A,3114.53288,N,12117.68503,E,0.005,,071217,,,D*64
$GNRMC,212216.00,A,3114.53289,N,12117.68505,E,0.007,,071217,,,D*62
$GNRMC,212217.00,A,3114.53289,N,12117.68507,E,0.012,,071217,,,D*65
$GNRMC,212218.00,A,3114.53290,N,12117.68509,E,0.006,,071217,,,D*69
$GNRMC,212219.00,A,3114.53290,N,12117.68510,E,0.012,,071217,,,D*65
$GNRMC,212220.00,A,3114.53292,N,12117.68512,E,0.001,,071217,,,D*6D
$GNRMC,212221.00,A,3114.53293,N,12117.68514,E,0.005,,071217,,,D*6F
$GNRMC,212222.00,A,3114.53294,N,12117.68516,E,0.003,,071217,,,D*6F
$GNRMC,212223.00,A,3114.53295,N,12117.68518,E,0.003,,071217,,,D*61
$GNRMC,212224.00,A,3114.53297,N,12117.68520,E,0.014,,071217,,,D*69
$GNRMC,212225.00,A,3114.53298,N,12117.68522,E,0.012,,071217,,,D*63
$GNRMC,212226.00,A,3114.53299,N,12117.68524,E,0.005,,071217,,,D*61
$GNRMC,212227.00,A,3114.53300,N,12117.68525,E,0.008,,071217,,,D*6D
$GNRMC,212228.00,A,3114.53301,N,12117.68527,E,0.004,,071217,,,D*6D
$GNRMC,212229.00,A,3114.53302,N,12117.68528,E,0.009,,071217,,,D*6D
$GNRMC,212230.00,A,3114.53303,N,12117.68529,E,0.003,,071217,,,D*6F
$GNRMC,212231.00,A,3114.53304,N,12117.68529,E,0.010,,071217,,,D*6B
$GNRMC,212232.00,A,3114.53306,N,12117.68528,E,0.002,,071217,,,D*68
$GNRMC,212233.00,A,3114.53308,N,12117.68528,E,0.009,,071217,,,D*6C
$GNRMC,212234.00,A,3114.53310,N,12117.68527,E,0.001,,071217,,,D*65
$GNRMC,212235.00,A,3114.53311,N,12117.68526,E,0.005,,071217,,,D*60
$GNRMC,212236.00,A,3114.53312,N,12117.68525,E,0.012,,071217,,,D*65
$GNRMC,212237.00,A,3114.53313,N,12117.68524,E,0.003,,071217,,,D*64
$GNRMC,212238.00,A,3114.53314,N,12117.68523,E,0.012,,071217,,,D*6B
$GNRMC,212239.00,A,3114.53315,N,12117.68522,E,0.006,,071217,,,D*6F
$GNRMC,212240.00,A,3114.53316,N,12117.68521,E,0.003,,071217,,,D*64
$GNRMC,212241.00,A,3114.53316,N,12117.68520,E,0.003,,071217,,,D*64
$GNRMC,212242.00,A,3114.53317,N,12117.68520,E,0.016,,071217,,,D*62
$GNRMC,212243.00,A,3114.53317,N,12117.68520,E,0.009,,071217,,,D*6D
$GNRMC,212244.00,A,3114.53317,N,12117.68520,E,0.006,,071217,,,D*65
$GNRMC,212245.00,A,3114.53317,N,12117.68519,E,0.014,,071217,,,D*6D
$GNRMC,212246.00,A,3114.53316,N,12117.68519,E,0.003,,071217,,,D*69
$GNRMC,212247.00,A,3114.53316,N,12117.68518,E,0.002,,071217,,,D*68
$GNRMC,212248.00,A,3114.53314,N,12117.68518,E,0.007,,071217,,,D*60
$GNRMC,212249.00,A,3114.53313,N,12117.68518,E,0.008,,071217,,,D*69
$GNRMC,212250.00,A,3114.53310,N,12117.68518,E,0.010,,071217,,,D*6B
$GNRMC,212251.00,A,3114.53308,N,12117.68518,E,0.005,,071217,,,D*67
$GNRMC,212252.00,A,3114.53306,N,12117.68518,E,0.006,,071217,,,D*69
$GNRMC,212253.00,A,3114.53303,N,12117.68518,E,0.013,,071217,,,D*69
$GNRMC,212254.00,A,3114.53301,N,12117.68518,E,0.004,,071217,,,D*6A
$GNRMC,212255.00,A,3114.53299,N,12117.68518,E,0.008,,071217,,,D*67
$GNRMC,212256.00,A,3114.53298,N,12117.68517,E,0.005,,071217,,,D*67
$GNRMC,212257.00,A,3114.53296,N,12117.68516,E,0.009,,071217,,,D*65
$GNRMC,212258.00,A,3114.53295,N,12117.68516,E,0.008,,071217,,,D*68
$GNRMC,212259.00,A,3114.53293,N,12117.68515,E,0.009,,071217,,,D*6D
$GNRMC,212300.00,A,3114.53292,N,12117.68515,E,0.005,,071217,,,D*6D
$GNRMC,212301.00,A,3114.53292,N,12117.68514,E,0.001,,071217,,,D*69
$GNRMC,212302.00,A,3114.53291,N,12117.68514,E,0.007,,071217,,,D*6F
$GNRMC,212303.00,A,3114.53290,N,12117.68514,E,0.005,,071217,,,D*6D
$GNRMC,212304.00,A,3114.53289,N,12117.68514,E,0.005,,071217,,,D*62
$GNRMC,212305.00,A,3114.53289,N,12117.68515,E,0.008,,071217,,,D*6F
$GNRMC,212306.00,A,3114.53288,N,12117.68517,E,0.009,,071217,,,D*6E
$GNRMC,212307.00,A,3114.53287,N,12117.68519,E,0.004,,071217,,,D*63
$GNRMC,212308.00,A,3114.53287,N,12117.68521,E,0.005,,071217,,,D*66
$GNRMC,212309.00,A,3114.53286,N,12117.68523,E,0.005,,071217,,,D*64
$GNRMC,212310.00,A,3114.53285,N,12117.68525,E,0.006,,071217,,,D*6A
$GNRMC,212311.00,A,3114.53285,N,12117.68527,E,0.001,,071217,,,D*6E
$GNRMC,212312.00,A,3114.53285,N,12117.68529,E,0.006,,071217,,,D*64
$GNRMC,212313.00,A,3114.53285,N,12117.68532,E,0.003,,071217,,,D*6A
$GNRMC,212314.00,A,3114.53284,N,12117.68534,E,0.007,,071217,,,D*6E
$GNRMC,212315.00,A,3114.53284,N,12117.68535,E,0.012,,071217,,,D*6A
$GNRMC,212316.00,A,3114.53284,N,12117.68537,E,0.005,,071217,,,D*6D
$GNRMC,212317.00,A,3114.53284,N,12117.68539,E,0.003,,071217,,,D*64
$GNRMC,212318.00,A,3114.53284,N,12117.68540,E,0.003,,071217,,,D*65
$GNRMC,212319.00,A,3114.53284,N,12117.68541,E,0.011,,071217,,,D*66
$GNRMC,212320.00,A,3114.53284,N,12117.68543,E,0.008,,071217,,,D*66
$GNRMC,212321.00,A,3114.53284,N,12117.68544,E,0.002,,071217,,,D*6A
$GNRMC,212322.00,A,3114.53283,N,12117.68545,E,0.005,,071217,,,D*68
$GNRMC,212323.00,A,3114.53283,N,12117.68547,E,0.012,,071217,,,D*6D
$GNRMC,212324.00,A,3114.53283,N,12117.68548,E,0.001,,071217,,,D*67
$GNRMC,212325.00,A,3114.53283,N,12117.68550,E,0.006,,071217,,,D*68
$GNRMC,212326.00,A,3114.53283,N,12117.68551,E,0.017,,071217,,,D*6A
$GNRMC,212327.00,A,3114.53283,N,12117.68553,E,0.007,,071217,,,D*68
$GNRMC,212328.00,A,3114.53283,N,12117.68554,E,0.010,,071217,,,D*66
$GNRMC,212329.00,A,3114.53282,N,12117.68557,E,0.004,,071217,,,D*60
$GNRMC,212330.00,A,3114.53281,N,12117.68559,E,0.009,,071217,,,D*68
$GNRMC,212331.00,A,3114.53280,N,12117.68562,E,0.005,,071217,,,D*6C
$GNRMC,212332.00,A,3114.53280,N,12117.68564,E,0.006,,071217,,,D*6A
$GNRMC,212333.00,A,3114.53280,N,12117.68565,E,0.008,,071217,,,D*64
$GNRMC,212334.00,A,3114.53279,N,12117.68567,E,0.007,,071217,,,D*68
$GNRMC,212335.00,A,3114.53279,N,12117.68568,E,0.003,,071217,,,D*62
$GNRMC,212336.00,A,3114.53278,N,12117.68570,E,0.012,,071217,,,D*69
$GNRMC,212337.00,A,3114.53278,N,12117.68571,E,0.010,,071217,,,D*6B
$GNRMC,212338.00,A,3114.53278,N,12117.68572,E,0.007,,071217,,,D*61
$GNRMC,212339.00,A,3114.53277,N,12117.68573,E,0.003,,071217,,,D*6A
$GNRMC,212340.00,A,3114.53277,N,12117.68574,E,0.010,,071217,,,D*61
$GNRMC,212341.00,A,3114.53277,N,12117.68574,E,0.008,,071217,,,D*69
$GNRMC,212342.00,A,3114.53277,N,12117.68575,E,0.008,,071217,,,D*6B
$GNRMC,212343.00,A,3114.53277,N,12117.68576,E,0.010,,071217,,,D*60
$GNRMC,212344.00,A,3114.53278,N,12117.68577,E,0.006,,071217,,,D*6E
$GNRMC,212345.00,A,3114.53278,N,12117.68578,E,0.003,,071217,,,D*65
$GNRMC,212346.00,A,3114.53279,N,12117.68579,E,0.009,,071217,,,D*6C
$GNRMC,212347.00,A,3114.53279,N,12117.68580,E,0.006,,071217,,,D*64
$GNRMC,212348.00,A,3114.53279,N,12117.68580,E,0.007,,071217,,,D*6A
$GNRMC,212349.00,A,3114.53279,N,12117.68581,E,0.000,,071217,,,D*6D
$GNRMC,212350.00,A,3114.53279,N,12117.68582,E,0.003,,071217,,,D*65
$GNRMC,212351.00,A,3114.53278,N,12117.68582,E,0.010,,071217,,,D*67
$GNRMC,212352.00,A,3114.53278,N,12117.68583,E,0.002,,071217,,,D*66
$GNRMC,212353.00,A,3114.53277,N,12117.68585,E,0.004,,071217,,,D*68
$GNRMC,212354.00,A,3114.53276,N,12117.68586,E,0.012,,071217,,,D*6A
$GNRMC,212355.00,A,3114.53275,N,12117.68587,E,0.005,,071217,,,D*6F
$GNRMC,212356.00,A,3114.53274,N,12117.68588,E,0.005,,071217,,,D*62
$GNRMC,212357.00,A,3114.53273,N,12117.68589,E,0.005,,071217,,,D*65
$GNRMC,212358.00,A,3114.53271,N,12117.68590,E,0.007,,071217,,,D*62
$GNRMC,212359.00,A,3114.53271,N,12117.68591,E,0.005,,071217,,,D*60
$GNRMC,212400.00,A,3114.53270,N,12117.68591,E,0.004,,071217,,,D*6B
$GNRMC,212401.00,A,3114.53270,N,12117.68592,E,0.002,,071217,,,D*6F
$GNRMC,212402.00,A,3114.53270,N,12117.68593,E,0.003,,071217,,,D*6C
$GNRMC,212403.00,A,3114.53269,N,12117.68594,E,0.005,,071217,,,D*64
$GNRMC,212404.00,A,3114.53268,N,12117.68594,E,0.008,,071217,,,D*6F
$GNRMC,212405.00,A,3114.53267,N,12117.68595,E,0.007,,071217,,,D*6F
$GNRMC,212406.00,A,3114.53266,N,12117.68596,E,0.001,,071217,,,D*68
$GNRMC,212407.00,A,3114.53265,N,12117.68597,E,0.007,,071217,,,D*6D
$GNRMC,212408.00,A,3114.53263,N,12117.68597,E,0.006,,071217,,,D*65
$GNRMC,212409.00,A,3114.53262,N,12117.68598,E,0.008,,071217,,,D*64
$GNRMC,212410.00,A,3114.53261,N,12117.68599,E,0.011,,071217,,,D*66
$GNRMC,212411.00,A,3114.53260,N,12117.68599,E,0.008,,071217,,,D*6E
$GNRMC,212412.00,A,3114.53260,N,12117.68599,E,0.000,,071217,,,D*65
$GNRMC,212413.00,A,3114.53259,N,12117.68598,E,0.003,,071217,,,D*6C
$GNRMC,212414.00,A,3114.53259,N,12117.68597,E,0.005,,071217,,,D*62
$GNRMC,212415.00,A,3114.53258,N,12117.68596,E,0.006,,071217,,,D*60
$GNRMC,212416.00,A,3114.53258,N,12117.68594,E,0.006,,071217,,,D*61
$GNRMC,212417.00,A,3114.53257,N,12117.68593,E,0.002,,071217,,,D*6C
$GNRMC,212418.00,A,3114.53257,N,12117.68593,E,0.003,,071217,,,D*62
$GNRMC,212419.00,A,3114.53257,N,12117.68594,E,0.002,,071217,,,D*65
$GNRMC,212420.00,A,3114.53257,N,12117.68595,E,0.008,,071217,,,D*64
$GNRMC,212421.00,A,3114.53257,N,12117.68596,E,0.004,,071217,,,D*6A
$GNRMC,212422.00,A,3114.53257,N,12117.68598,E,0.004,,071217,,,D*67
$GNRMC,212423.00,A,3114.53258,N,12117.68599,E,0.007,,071217,,,D*6B
$GNRMC,212424.00,A,3114.53259,N,12117.68600,E,0.010,,071217,,,D*68
$GNRMC,212425.00,A,3114.53259,N,12117.68601,E,0.012,,071217,,,D*6A
$GNRMC,212426.00,A,3114.53259,N,12117.68602,E,0.004,,071217,,,D*6D
$GNRMC,212427.00,A,3114.53259,N,12117.68604,E,0.003,,071217,,,D*6D
$GNRMC,212428.00,A,3114.53259,N,12117.68606,E,0.001,,071217,,,D*62
$GNRMC,212429.00,A,3114.53258,N,12117.68608,E,0.006,,071217,,,D*6B
$GNRMC,212430.00,A,3114.53257,N,12117.68610,E,0.012,,071217,,,D*60
$GNRMC,212431.00,A,3114.53256,N,12117.68612,E,0.009,,071217,,,D*68
$GNRMC,212432.00,A,3114.53255,N,12117.68614,E,0.011,,071217,,,D*67
$GNRMC,212433.00,A,3114.53254,N,12117.68616,E,0.001,,071217,,,D*64
$GNRMC,212434.00,A,3114.53253,N,12117.68618,E,0.007,,071217,,,D*6C
$GNRMC,212435.00,A,3114.53252,N,12117.68619,E,0.004,,071217,,,D*6E
$GNRMC,212436.00,A,3114.53251,N,12117.68622,E,0.007,,071217,,,D*65
$GNRMC,212437.00,A,3114.53250,N,12117.68623,E,0.010,,071217,,,D*62
$GNRMC,212438.00,A,3114.53249,N,12117.68625,E,0.004,,071217,,,D*66
$GNRMC,212439.00,A,3114.53247,N,12117.68628,E,0.012,,071217,,,D*63
$GNRMC,212440.00,A,3114.53247,N,12117.68630,E,0.009,,071217,,,D*6E
$GNRMC,212441.00,A,3114.53246,N,12117.68632,E,0.013,,071217,,,D*67
$GNRMC,212442.00,A,3114.53246,N,12117.68634,E,0.006,,071217,,,D*66
$GNRMC,212443.00,A,3114.53246,N,12117.68636,E,0.016,,071217,,,D*64
$GNRMC,212444.00,A,3114.53246,N,12117.68638,E,0.012,,071217,,,D*69
$GNRMC,212445.00,A,3114.53246,N,12117.68639,E,0.010,,071217,,,D*6B
$GNRMC,212446.00,A,3114.53246,N,12117.68640,E,0.004,,071217,,,D*63
$GNRMC,212447.00,A,3114.53246,N,12117.68641,E,0.001,,071217,,,D*66
$GNRMC,212448.00,A,3114.53246,N,12117.68642,E,0.003,,071217,,,D*68
$GNRMC,212449.00,A,3114.53246,N,12117.68643,E,0.007,,071217,,,D*6C
$GNRMC,212450.00,A,3114.53247,N,12117.68644,E,0.007,,071217,,,D*62
$GNRMC,212451.00,A,3114.53247,N,12117.68646,E,0.009,,071217,,,D*6F
$GNRMC,212452.00,A,3114.53248,N,12117.68647,E,0.006,,071217,,,D*6D
$GNRMC,212453.00,A,3114.53249,N,12117.68646,E,0.009,,071217,,,D*63
$GNRMC,212454.00,A,3114.53249,N,12117.68645,E,0.009,,071217,,,D*67
$GNRMC,212455.00,A,3114.53250,N,12117.68645,E,0.001,,071217,,,D*66
$GNRMC,212456.00,A,3114.53250,N,12117.68644,E,0.002,,071217,,,D*67
$GNRMC,212457.00,A,3114.53251,N,12117.68643,E,0.004,,071217,,,D*66
$GNRMC,212458.00,A,3114.53251,N,12117.68642,E,0.014,,071217,,,D*69
$GNRMC,212459.00,A,3114.53251,N,12117.68641,E,0.010,,071217,,,D*6F
$GNRMC,212500.00,A,3114.53251,N,12117.68640,E,0.012,,071217,,,D*61
$GNRMC,212501.00,A,3114.53251,N,12117.68639,E,0.008,,071217,,,D*65
$GNRMC,212502.00,A,3114.53251,N,12117.68638,E,0.009,,071217,,,D*66
$GNRMC,212503.00,A,3114.53252,N,12117.68636,E,0.011,,071217,,,D*63
$GNRMC,212504.00,A,3114.53252,N,12117.68635,E,0.007,,071217,,,D*60
$GNRMC,212505.00,A,3114.53252,N,12117.68634,E,0.003,,071217,,,D*64
$GNRMC,212506.00,A,3114.53253,N,12117.68632,E,0.005,,071217,,,D*66
$GNRMC,212507.00,A,3114.53253,N,12117.68632,E,0.011,,071217,,,D*62
$GNRMC,212508.00,A,3114.53254,N,12117.68630,E,0.007,,071217,,,D*6F
$GNRMC,212509.00,A,3114.53255,N,12117.68629,E,0.005,,071217,,,D*65
$GNRMC,212510.00,A,3114.53255,N,12117.68628,E,0.013,,071217,,,D*6B
$GNRMC,212511.00,A,3114.53256,N,12117.68628,E,0.004,,071217,,,D*6F
$GNRMC,212512.00,A,3114.53256,N,12117.68627,E,0.008,,071217,,,D*6F
$GNRMC,212513.00,A,3114.53256,N,12117.68627,E,0.004,,071217,,,D*62
$GNRMC,212514.00,A,3114.53256,N,12117.68626,E,0.010,,071217,,,D*61
$GNRMC,212515.00,A,3114.53255,N,12117.68626,E,0.002,,071217,,,D*60
$GNRMC,212516.00,A,3114.53256,N,12117.68625,E,0.007,,071217,,,D*66
$GNRMC,212517.00,A,3114.53256,N,12117.68625,E,0.006,,071217,,,D*66
$GNRMC,212518.00,A,3114.53256,N,12117.68624,E,0.009,,071217,,,D*67
$GNRMC,212519.00,A,3114.53256,N,12117.68623,E,0.011,,071217,,,D*68
$GNRMC,212520.00,A,3114.53255,N,12117.68622,E,0.007,,071217,,,D*67
$GNRMC,212521.00,A,3114.53255,N,12117.68621,E,0.008,,071217,,,D*6A
$GNRMC,212522.00,A,3114.53254,N,12117.68621,E,0.008,,071217,,,D*68
$GNRMC,212523.00,A,3114.53253,N,12117.68620,E,0.007,,071217,,,D*60
$GNRMC,212524.00,A,3114.53253,N,12117.68619,E,0.006,,071217,,,D*6C
$GNRMC,212525.00,A,3114.53253,N,12117.68618,E,0.003,,071217,,,D*69
$GNRMC,212526.00,A,3114.53253,N,12117.68617,E,0.006,,071217,,,D*60
$GNRMC,212527.00,A,3114.53253,N,12117.68615,E,0.009,,071217,,,D*6C
$GNRMC,212528.00,A,3114.53254,N,12117.68614,E,0.013,,071217,,,D*6E
$GNRMC,212529.00,A,3114.53255,N,12117.68613,E,0.006,,071217,,,D*6D
$GNRMC,212530.00,A,3114.53256,N,12117.68612,E,0.008,,071217,,,D*69
$GNRMC,212531.00,A,3114.53257,N,12117.68610,E,0.007,,071217,,,D*64
$GNRMC,212532.00,A,3114.53258,N,12117.68609,E,0.006,,071217,,,D*61
$GNRMC,212533.00,A,3114.53259,N,12117.68608,E,0.003,,071217,,,D*65
$GNRMC,212534.00,A,3114.53259,N,12117.68607,E,0.005,,071217,,,D*6B
$GNRMC,212535.00,A,3114.53259,N,12117.68606,E,0.005,,071217,,,D*6B
$GNRMC,212536.00,A,3114.53258,N,12117.68605,E,0.003,,071217,,,D*6C
$GNRMC,212537.00,A,3114.53258,N,12117.68605,E,0.002,,071217,,,D*6C
$GNRMC,212538.00,A,3114.53257,N,12117.68605,E,0.006,,071217,,,D*68
$GNRMC,212539.00,A,3114.53257,N,12117.68604,E,0.007,,071217,,,D*69
$GNRMC,212540.00,A,3114.53256,N,12117.68604,E,0.004,,071217,,,D*65
$GNRMC,212541.00,A,3114.53255,N,12117.68604,E,0.008,,071217,,,D*6B
$GNRMC,212542.00,A,3114.53254,N,12117.68604,E,0.002,,071217,,,D*63
$GNRMC,212543.00,A,3114.53254,N,12117.68604,E,0.013,,071217,,,D*62
$GNRMC,212544.00,A,3114.53253,N,12117.68604,E,0.004,,071217,,,D*64
$GNRMC,212545.00,A,3114.53253,N,12117.68604,E,0.004,,071217,,,D*65
$GNRMC,212546.00,A,3114.53253,N,12117.68604,E,0.012,,071217,,,D*61
$GNRMC,212547.00,A,3114.53252,N,12117.68604,E,0.011,,071217,,,D*62
$GNRMC,212548.00,A,3114.53252,N,12117.68604,E,0.007,,071217,,,D*6A
$GNRMC,212549.00,A,3114.53251,N,12117.68603,E,0.008,,071217,,,D*60
$GNRMC,212550.00,A,3114.53250,N,12117.68603,E,0.011,,071217,,,D*61
$GNRMC,212551.00,A,3114.53249,N,12117.68602,E,0.011,,071217,,,D*69
$GNRMC,212552.00,A,3114.53248,N,12117.68602,E,0.007,,071217,,,D*6C
$GNRMC,212553.00,A,3114.53247,N,12117.68602,E,0.001,,071217,,,D*64
$GNRMC,212554.00,A,3114.53246,N,12117.68602,E,0.009,,071217,,,D*6A
$GNRMC,212555.00,A,3114.53245,N,12117.68602,E,0.013,,071217,,,D*63
$GNRMC,212556.00,A,3114.53245,N,12117.68601,E,0.009,,071217,,,D*68
$GNRMC,212557.00,A,3114.53246,N,12117.68600,E,0.004,,071217,,,D*66
$GNRMC,212558.00,A,3114.53246,N,12117.68600,E,0.009,,071217,,,D*64
$GNRMC,212559.00,A,3114.53246,N,12117.68600,E,0.008,,071217,,,D*64
$GNRMC,212600.00,A,3114.53245,N,12117.68601,E,0.002,,071217,,,D*63
$GNRMC,212601.00,A,3114.53245,N,12117.68602,E,0.008,,071217,,,D*6B
$GNRMC,212602.00,A,3114.53244,N,12117.68603,E,0.011,,071217,,,D*60
$GNRMC,212603.00,A,3114.53243,N,12117.68604,E,0.003,,071217,,,D*62
$GNRMC,212604.00,A,3114.53242,N,12117.68604,E,0.002,,071217,,,D*65
$GNRMC,212605.00,A,3114.53241,N,12117.68605,E,0.011,,071217,,,D*64
$GNRMC,212606.00,A,3114.53239,N,12117.68606,E,0.003,,071217,,,D*68
$GNRMC,212607.00,A,3114.53238,N,12117.68606,E,0.002,,071217,,,D*69
$GNRMC,212608.00,A,3114.53237,N,12117.68607,E,0.003,,071217,,,D*69
$GNRMC,212609.00,A,3114.53236,N,12117.68607,E,0.006,,071217,,,D*6C
$GNRMC,212610.00,A,3114.53235,N,12117.68608,E,0.010,,071217,,,D*6F
$GNRMC,212611.00,A,3114.53235,N,12117.68608,E,0.009,,071217,,,D*66
$GNRMC,212612.00,A,3114.53235,N,12117.68607,E,0.006,,071217,,,D*65
$GNRMC,212613.00,A,3114.53234,N,12117.68607,E,0.010,,071217,,,D*62
$GNRMC,212614.00,A,3114.53234,N,12117.68606,E,0.007,,071217,,,D*62
$GNRMC,212615.00,A,3114.53234,N,12117.68605,E,0.013,,071217,,,D*65
$GNRMC,212616.00,A,3114.53235,N,12117.68604,E,0.004,,071217,,,D*60
$GNRMC,212617.00,A,3114.53235,N,12117.68603,E,0.007,,071217,,,D*65
$GNRMC,212618.00,A,3114.53235,N,12117.68601,E,0.007,,071217,,,D*68
$GNRMC,212619.00,A,3114.53235,N,12117.68600,E,0.008,,071217,,,D*67
$GNRMC,212620.00,A,3114.53234,N,12117.68599,E,0.003,,071217,,,D*64
$GNRMC,212621.00,A,3114.53233,N,12117.68598,E,0.010,,071217,,,D*61
$GNRMC,212622.00,A,3114.53231,N,12117.68597,E,0.009,,071217,,,D*67
$GNRMC,212623.00,A,3114.53230,N,12117.68596,E,0.009,,071217,,,D*66
$GNRMC,212624.00,A,3114.53229,N,12117.68595,E,0.007,,071217,,,D*64
$GNRMC,212625.00,A,3114.53229,N,12117.68594,E,0.005,,071217,,,D*66
$GNRMC,212626.00,A,3114.53228,N,12117.68593,E,0.011,,071217,,,D*66
$GNRMC,212627.00,A,3114.53228,N,12117.68592,E,0.005,,071217,,,D*63
$GNRMC,212628.00,A,3114.53228,N,12117.68591,E,0.007,,071217,,,D*6D
$GNRMC,212629.00,A,3114.53228,N,12117.68590,E,0.004,,071217,,,D*6E
$GNRMC,212630.00,A,3114.53228,N,12117.68589,E,0.012,,071217,,,D*69
$GNRMC,212631.00,A,3114.53229,N,12117.68587,E,0.003,,071217,,,D*67
$GNRMC,212632.00,A,3114.53231,N,12117.68585,E,0.005,,071217,,,D*69
$GNRMC,212633.00,A,3114.53233,N,12117.68582,E,0.005,,071217,,,D*6D
$GNRMC,212634.00,A,3114.53235,N,12117.68580,E,0.009,,071217,,,D*62
$GNRMC,212635.00,A,3114.53238,N,12117.68577,E,0.004,,071217,,,D*6B
$GNRMC,212636.00,A,3114.53240,N,12117.68574,E,0.006,,071217,,,D*66
$GNRMC,212637.00,A,3114.53241,N,12117.68570,E,0.016,,071217,,,D*63
$GNRMC,212638.00,A,3114.53243,N,12117.68567,E,0.005,,071217,,,D*6A
$GNRMC,212639.00,A,3114.53244,N,12117.68564,E,0.009,,071217,,,D*63
$GNRMC,212640.00,A,3114.53246,N,12117.68561,E,0.011,,071217,,,D*63
$GNRMC,212641.00,A,3114.53247,N,12117.68559,E,0.016,,071217,,,D*6F
$GNRMC,212642.00,A,3114.53249,N,12117.68557,E,0.009,,071217,,,D*62
$GNRMC,212643.00,A,3114.53250,N,12117.68556,E,0.006,,071217,,,D*65
$GNRMC,212644.00,A,3114.53250,N,12117.68555,E,0.008,,071217,,,D*6F
$GNRMC,212645.00,A,3114.53250,N,12117.68555,E,0.002,,071217,,,D*64
$GNRMC,212646.00,A,3114.53250,N,12117.68555,E,0.009,,071217,,,D*6C
$GNRMC,212647.00,A,3114.53251,N,12117.68555,E,0.013,,071217,,,D*67
$GNRMC,212648.00,A,3114.53250,N,12117.68555,E,0.020,,071217,,,D*69
$GNRMC,212649.00,A,3114.53249,N,12117.68555,E,0.004,,071217,,,D*66
$GNRMC,212650.00,A,3114.53249,N,12117.68555,E,0.008,,071217,,,D*62
$GNRMC,212651.00,A,3114.53249,N,12117.68554,E,0.016,,071217,,,D*6D
$GNRMC,212652.00,A,3114.53250,N,12117.68554,E,0.008,,071217,,,D*69
$GNRMC,212653.00,A,3114.53250,N,12117.68553,E,0.008,,071217,,,D*6F
$GNRMC,212654.00,A,3114.53251,N,12117.68552,E,0.008,,071217,,,D*68
$GNRMC,212655.00,A,3114.53252,N,12117.68551,E,0.005,,071217,,,D*64
$GNRMC,212656.00,A,3114.53253,N,12117.68550,E,0.009,,071217,,,D*6B
$GNRMC,212657.00,A,3114.53255,N,12117.68548,E,0.010,,071217,,,D*6D
$GNRMC,212658.00,A,3114.53255,N,12117.68546,E,0.009,,071217,,,D*64
$GNRMC,212659.00,A,3114.53256,N,12117.68545,E,0.016,,071217,,,D*6B
$GNRMC,212700.00,A,3114.53256,N,12117.68543,E,0.012,,071217,,,D*64
$GNRMC,212701.00,A,3114.53256,N,12117.68542,E,0.012,,071217,,,D*64
$GNRMC,212702.00,A,3114.53256,N,12117.68540,E,0.016,,071217,,,D*61
$GNRMC,212703.00,A,3114.53256,N,12117.68537,E,0.016,,071217,,,D*60
$GNRMC,212704.00,A,3114.53256,N,12117.68535,E,0.014,,071217,,,D*67
$GNRMC,212705.00,A,3114.53255,N,12117.68532,E,0.019,,071217,,,D*6F
$GNRMC,212706.00,A,3114.53256,N,12117.68529,E,0.009,,071217,,,D*64
$GNRMC,212707.00,A,3114.53255,N,12117.68526,E,0.014,,071217,,,D*65
$GNRMC,212708.00,A,3114.53255,N,12117.68523,E,0.012,,071217,,,D*69
$GNRMC,212709.00,A,3114.53255,N,12117.68521,E,0.015,,071217,,,D*6D
$GNRMC,212710.00,A,3114.53256,N,12117.68519,E,0.011,,071217,,,D*69
$GNRMC,212711.00,A,3114.53256,N,12117.68516,E,0.009,,071217,,,D*6E
$GNRMC,212712.00,A,3114.53258,N,12117.68513,E,0.008,,071217,,,D*67
$GNRMC,212713.00,A,3114.53259,N,12117.68510,E,0.007,,071217,,,D*6B
$GNRMC,212714.00,A,3114.53260,N,12117.68508,E,0.011,,071217,,,D*68
$GNRMC,212715.00,A,3114.53260,N,12117.68505,E,0.004,,071217,,,D*60
$GNRMC,212716.00,A,3114.53261,N,12117.68502,E,0.005,,071217,,,D*64
$GNRMC,212717.00,A,3114.53261,N,12117.68500,E,0.011,,071217,,,D*62
$GNRMC,212718.00,A,3114.53261,N,12117.68498,E,0.009,,071217,,,D*64
$GNRMC,212719.00,A,3114.53262,N,12117.68495,E,0.012,,071217,,,D*61
$GNRMC,212720.00,A,3114.53261,N,12117.68493,E,0.010,,071217,,,D*6C
$GNRMC,212721.00,A,3114.53260,N,12117.68492,E,0.008,,071217,,,D*64
$GNRMC,212722.00,A,3114.53258,N,12117.68491,E,0.010,,071217,,,D*66
$GNRMC,212723.00,A,3114.53258,N,12117.68490,E,0.008,,071217,,,D*6F
$GNRMC,212724.00,A,3114.53258,N,12117.68489,E,0.008,,071217,,,D*60
$GNRMC,212725.00,A,3114.53259,N,12117.68486,E,0.011,,071217,,,D*67
$GNRMC,212726.00,A,3114.53260,N,12117.68484,E,0.008,,071217,,,D*64
$GNRMC,212727.00,A,3114.53261,N,12117.68483,E,0.004,,071217,,,D*6F
$GNRMC,212728.00,A,3114.53261,N,12117.68481,E,0.003,,071217,,,D*65
$GNRMC,212729.00,A,3114.53261,N,12117.68480,E,0.004,,071217,,,D*62
$GNRMC,212730.00,A,3114.53261,N,12117.68478,E,0.006,,071217,,,D*6F
$GNRMC,212731.00,A,3114.53260,N,12117.68476,E,0.009,,071217,,,D*6E
$GNRMC,212732.00,A,3114.53260,N,12117.68474,E,0.014,,071217,,,D*63
$GNRMC,212733.00,A,3114.53259,N,12117.68474,E,0.009,,071217,,,D*64
$GNRMC,212734.00,A,3114.53258,N,12117.68472,E,0.009,,071217,,,D*64
$GNRMC,212735.00,A,3114.53257,N,12117.68471,E,0.014,,071217,,,D*65
$GNRMC,212736.00,A,3114.53257,N,12117.68470,E,0.011,,071217,,,D*62
$GNRMC,212737.00,A,3114.53257,N,12117.68469,E,0.004,,071217,,,D*6F
$GNRMC,212738.00,A,3114.53256,N,12117.68468,E,0.013,,071217,,,D*66
$GNRMC,212739.00,A,3114.53257,N,12117.68466,E,0.006,,071217,,,D*6C
$GNRMC,212740.00,A,3114.53257,N,12117.68464,E,0.003,,071217,,,D*65
$GNRMC,212741.00,A,3114.53258,N,12117.68463,E,0.012,,071217,,,D*6C
$GNRMC,212742.00,A,3114.53259,N,12117.68461,E,0.006,,071217,,,D*69
$GNRMC,212743.00,A,3114.53260,N,12117.68459,E,0.008,,071217,,,D*67
$GNRMC,212744.00,A,3114.53260,N,12117.68456,E,0.008,,071217,,,D*6F
$GNRMC,212745.00,A,3114.53261,N,12117.68453,E,0.013,,071217,,,D*60
$GNRMC,212746.00,A,3114.53262,N,12117.68450,E,0.011,,071217,,,D*61
$GNRMC,212747.00,A,3114.53262,N,12117.68446,E,0.015,,071217,,,D*63
$GNRMC,212748.00,A,3114.53262,N,12117.68443,E,0.003,,071217,,,D*6E
$GNRMC,212749.00,A,3114.53262,N,12117.68441,E,0.004,,071217,,,D*6A
$GNRMC,212750.00,A,3114.53261,N,12117.68440,E,0.006,,071217,,,D*62
$GNRMC,212751.00,A,3114.53261,N,12117.68438,E,0.012,,071217,,,D*69
$GNRMC,212752.00,A,3114.53261,N,12117.68436,E,0.011,,071217,,,D*67
$GNRMC,212753.00,A,3114.53261,N,12117.68434,E,0.011,,071217,,,D*64
