$GNRMC,211317.00,A,3114.54234,N,12117.69170,E,0.003,,081217,,,A*69
$GNRMC,211318.00,A,3114.54233,N,12117.69182,E,0.008,,081217,,,A*67
$GNRMC,211319.00,A,3114.54110,N,12117.69263,E,0.024,,081217,,,A*66
$GNRMC,211320.00,A,3114.54055,N,12117.69323,E,0.006,,081217,,,A*69
$GNRMC,211321.00,A,3114.54023,N,12117.69360,E,0.006,,081217,,,A*6E
$GNRMC,211322.00,A,3114.53995,N,12117.69384,E,0.012,,081217,,,A*61
$GNRMC,211323.00,A,3114.53978,N,12117.69402,E,0.004,,081217,,,A*6D
$GNRMC,211324.00,A,3114.53960,N,12117.69418,E,0.003,,081217,,,A*6F
$GNRMC,211325.00,A,3114.53945,N,12117.69433,E,0.011,,081217,,,A*63
$GNRMC,211326.00,A,3114.53933,N,12117.69445,E,0.009,,081217,,,A*69
$GNRMC,211327.00,A,3114.53924,N,12117.69456,E,0.017,,081217,,,A*63
$GNRMC,211328.00,A,3114.53915,N,12117.69464,E,0.008,,081217,,,A*61
$GNRMC,211329.00,A,3114.53911,N,12117.69470,E,0.012,,081217,,,A*6A
$GNRMC,211330.00,A,3114.53903,N,12117.69475,E,0.013,,081217,,,A*65
$GNRMC,211331.00,A,3114.53897,N,12117.69477,E,0.013,,081217,,,A*6A
$GNRMC,211332.00,A,3114.53889,N,12117.69480,E,0.012,,081217,,,A*6F
$GNRMC,211333.00,A,3114.53880,N,12117.69483,E,0.005,,081217,,,A*62
$GNRMC,211334.00,A,3114.53872,N,12117.69487,E,0.010,,081217,,,A*68
$GNRMC,211335.00,A,3114.53866,N,12117.69488,E,0.002,,081217,,,A*60
$GNRMC,211336.00,A,3114.53862,N,12117.69488,E,0.005,,081217,,,A*60
$GNRMC,211337.00,A,3114.53858,N,12117.69489,E,0.013,,081217,,,A*6E
$GNRMC,211338.00,A,3114.53856,N,12117.69490,E,0.009,,081217,,,A*6C
$GNRMC,211339.00,A,3114.53855,N,12117.69491,E,0.004,,081217,,,A*62
$GNRMC,211340.00,A,3114.53854,N,12117.69493,E,0.005,,081217,,,A*6E
$GNRMC,211341.00,A,3114.53853,N,12117.69494,E,0.007,,081217,,,A*6D
$GNRMC,211342.00,A,3114.53852,N,12117.69493,E,0.006,,081217,,,A*69
$GNRMC,211343.00,A,3114.53851,N,12117.69493,E,0.005,,081217,,,A*68
$GNRMC,211344.00,A,3114.53851,N,12117.69494,E,0.010,,081217,,,A*6C
$GNRMC,211345.00,A,3114.53850,N,12117.69495,E,0.014,,081217,,,A*69
$GNRMC,211346.00,A,3114.53848,N,12117.69496,E,0.007,,081217,,,A*62
$GNRMC,211347.00,A,3114.53849,N,12117.69496,E,0.010,,081217,,,A*64
$GNRMC,211348.00,A,3114.53852,N,12117.69494,E,0.011,,081217,,,A*62
$GNRMC,211349.00,A,3114.53856,N,12117.69492,E,0.011,,081217,,,A*61
$GNRMC,211350.00,A,3114.53860,N,12117.69490,E,0.012,,081217,,,A*6D
$GNRMC,211351.00,A,3114.53863,N,12117.69488,E,0.008,,081217,,,A*6D
$GNRMC,211352.00,A,3114.53866,N,12117.69487,E,0.017,,081217,,,A*6A
$GNRMC,211353.00,A,3114.53868,N,12117.69485,E,0.010,,081217,,,D*65
$GNRMC,211354.00,A,3114.53870,N,12117.69483,E,0.003,,081217,,,D*6F
$GNRMC,211355.00,A,3114.53872,N,12117.69481,E,0.009,,081217,,,D*64
$GNRMC,211356.00,A,3114.53874,N,12117.69479,E,0.002,,081217,,,D*6D
$GNRMC,211357.00,A,3114.53875,N,12117.69477,E,0.009,,081217,,,D*68
$GNRMC,211358.00,A,3114.53876,N,12117.69474,E,0.004,,081217,,,D*6A
$GNRMC,211359.00,A,3114.53878,N,12117.69472,E,0.005,,081217,,,D*62
$GNRMC,211400.00,A,3114.53878,N,12117.69469,E,0.021,,081217,,,D*65
$GNRMC,211401.00,A,3114.53878,N,12117.69466,E,0.010,,081217,,,D*69
$GNRMC,211402.00,A,3114.53879,N,12117.69464,E,0.001,,081217,,,D*69
$GNRMC,211403.00,A,3114.53880,N,12117.69462,E,0.007,,081217,,,D*6E
$GNRMC,211404.00,A,3114.53881,N,12117.69459,E,0.002,,081217,,,D*65
$GNRMC,211405.00,A,3114.53882,N,12117.69457,E,0.014,,081217,,,D*6E
$GNRMC,211406.00,A,3114.53884,N,12117.69455,E,0.009,,081217,,,D*65
$GNRMC,211407.00,A,3114.53886,N,12117.69453,E,0.011,,081217,,,D*69
$GNRMC,211408.00,A,3114.53888,N,12117.69450,E,0.010,,081217,,,D*6A
$GNRMC,211409.00,A,3114.53890,N,12117.69447,E,0.002,,081217,,,D*67
$GNRMC,211410.00,A,3114.53892,N,12117.69444,E,0.024,,081217,,,D*6A
$GNRMC,211411.00,A,3114.53895,N,12117.69441,E,0.018,,081217,,,D*66
$GNRMC,211412.00,A,3114.53897,N,12117.69439,E,0.006,,081217,,,D*67
$GNRMC,211413.00,A,3114.53898,N,12117.69437,E,0.004,,081217,,,D*65
$GNRMC,211414.00,A,3114.53899,N,12117.69435,E,0.003,,081217,,,D*66
$GNRMC,211415.00,A,3114.53899,N,12117.69433,E,0.028,,081217,,,D*68
$GNRMC,211416.00,A,3114.53899,N,12117.69432,E,0.011,,081217,,,D*60
$GNRMC,211417.00,A,3114.53899,N,12117.69431,E,0.010,,081217,,,D*63
$GNRMC,211418.00,A,3114.53898,N,12117.69430,E,0.006,,081217,,,D*6B
$GNRMC,211419.00,A,3114.53899,N,12117.69428,E,0.006,,081217,,,D*62
$GNRMC,211420.00,A,3114.53900,N,12117.69426,E,0.010,,081217,,,D*60
$GNRMC,211421.00,A,3114.53901,N,12117.69424,E,0.015,,081217,,,D*67
$GNRMC,211422.00,A,3114.53903,N,12117.69422,E,0.003,,081217,,,D*67
$GNRMC,211423.00,A,3114.53903,N,12117.69419,E,0.009,,081217,,,D*64
$GNRMC,211424.00,A,3114.53903,N,12117.69415,E,0.005,,081217,,,D*63
$GNRMC,211425.00,A,3114.53904,N,12117.69413,E,0.013,,081217,,,D*64
$GNRMC,211426.00,A,3114.53904,N,12117.69410,E,0.006,,081217,,,D*60
$GNRMC,211427.00,A,3114.53904,N,12117.69408,E,0.012,,081217,,,D*6D
$GNRMC,211428.00,A,3114.53904,N,12117.69406,E,0.005,,081217,,,D*6A
$GNRMC,211429.00,A,3114.53905,N,12117.69405,E,0.004,,081217,,,D*68
$GNRMC,211430.00,A,3114.53905,N,12117.69403,E,0.020,,081217,,,D*60
$GNRMC,211431.00,A,3114.53905,N,12117.69403,E,0.014,,081217,,,D*66
$GNRMC,211432.00,A,3114.53906,N,12117.69402,E,0.010,,081217,,,D*63
$GNRMC,211433.00,A,3114.53906,N,12117.69400,E,0.033,,081217,,,D*61
$GNRMC,211434.00,A,3114.53907,N,12117.69398,E,0.015,,081217,,,D*65
$GNRMC,211435.00,A,3114.53906,N,12117.69396,E,0.013,,081217,,,D*6D
$GNRMC,211436.00,A,3114.53905,N,12117.69396,E,0.005,,081217,,,D*6A
$GNRMC,211437.00,A,3114.53904,N,12117.69395,E,0.010,,081217,,,D*6D
$GNRMC,211438.00,A,3114.53904,N,12117.69393,E,0.003,,081217,,,D*66
$GNRMC,211439.00,A,3114.53904,N,12117.69392,E,0.007,,081217,,,D*62
$GNRMC,211440.00,A,3114.53905,N,12117.69390,E,0.025,,081217,,,D*6F
$GNRMC,211441.00,A,3114.53905,N,12117.69390,E,0.010,,081217,,,D*68
$GNRMC,211442.00,A,3114.53902,N,12117.69390,E,0.007,,081217,,,D*6A
$GNRMC,211443.00,A,3114.53899,N,12117.69389,E,0.007,,081217,,,D*60
$GNRMC,211444.00,A,3114.53897,N,12117.69388,E,0.008,,081217,,,D*67
$GNRMC,211445.00,A,3114.53896,N,12117.69387,E,0.002,,081217,,,D*62
$GNRMC,211446.00,A,3114.53895,N,12117.69386,E,0.011,,081217,,,D*61
$GNRMC,211447.00,A,3114.53895,N,12117.69385,E,0.006,,081217,,,D*65
$GNRMC,211448.00,A,3114.53894,N,12117.69385,E,0.006,,081217,,,D*6B
$GNRMC,211449.00,A,3114.53892,N,12117.69385,E,0.009,,081217,,,D*63
$GNRMC,211450.00,A,3114.53891,N,12117.69384,E,0.016,,081217,,,D*67
$GNRMC,211451.00,A,3114.53890,N,12117.69384,E,0.013,,081217,,,D*62
$GNRMC,211452.00,A,3114.53889,N,12117.69383,E,0.014,,081217,,,D*69
$GNRMC,211453.00,A,3114.53888,N,12117.69382,E,0.005,,081217,,,D*68
$GNRMC,211454.00,A,3114.53886,N,12117.69382,E,0.007,,081217,,,D*63
$GNRMC,211455.00,A,3114.53887,N,12117.69382,E,0.036,,081217,,,A*64
$GNRMC,211456.00,A,3114.53887,N,12117.69382,E,0.012,,081217,,,A*61
$GNRMC,211457.00,A,3114.53887,N,12117.69383,E,0.010,,081217,,,A*63
$GNRMC,211458.00,A,3114.53888,N,12117.69385,E,0.011,,081217,,,A*64
$GNRMC,211459.00,A,3114.53889,N,12117.69386,E,0.005,,081217,,,A*62
$GNRMC,211500.00,A,3114.53889,N,12117.69387,E,0.014,,081217,,,A*6E
$GNRMC,211501.00,A,3114.53889,N,12117.69389,E,0.014,,081217,,,A*61
$GNRMC,211502.00,A,3114.53889,N,12117.69392,E,0.008,,081217,,,A*65
$GNRMC,211503.00,A,3114.53889,N,12117.69394,E,0.005,,081217,,,A*6F
$GNRMC,211504.00,A,3114.53890,N,12117.69395,E,0.010,,081217,,,A*65
$GNRMC,211505.00,A,3114.53891,N,12117.69396,E,0.002,,081217,,,A*65
$GNRMC,211506.00,A,3114.53891,N,12117.69398,E,0.007,,081217,,,A*6D
$GNRMC,211507.00,A,3114.53891,N,12117.69400,E,0.004,,081217,,,A*69
$GNRMC,211508.00,A,3114.53891,N,12117.69402,E,0.001,,081217,,,A*61
$GNRMC,211509.00,A,3114.53892,N,12117.69403,E,0.003,,081217,,,A*60
$GNRMC,211510.00,A,3114.53892,N,12117.69404,E,0.020,,081217,,,A*6E
$GNRMC,211511.00,A,3114.53892,N,12117.69406,E,0.022,,081217,,,A*6F
$GNRMC,211512.00,A,3114.53893,N,12117.69408,E,0.007,,081217,,,A*64
$GNRMC,211513.00,A,3114.53893,N,12117.69411,E,0.005,,081217,,,A*6F
$GNRMC,211514.00,A,3114.53894,N,12117.69413,E,0.008,,081217,,,A*60
$GNRMC,211515.00,A,3114.53894,N,12117.69416,E,0.004,,081217,,,A*68
$GNRMC,211516.00,A,3114.53895,N,12117.69418,E,0.005,,081217,,,A*65
$GNRMC,211517.00,A,3114.53897,N,12117.69419,E,0.001,,081217,,,A*63
$GNRMC,211518.00,A,3114.53899,N,12117.69421,E,0.005,,081217,,,A*6D
$GNRMC,211519.00,A,3114.53901,N,12117.69423,E,0.012,,081217,,,A*68
$GNRMC,211520.00,A,3114.53903,N,12117.69424,E,0.010,,081217,,,A*65
$GNRMC,211521.00,A,3114.53904,N,12117.69426,E,0.015,,081217,,,A*64
$GNRMC,211522.00,A,3114.53906,N,12117.69427,E,0.008,,081217,,,A*68
$GNRMC,211523.00,A,3114.53908,N,12117.69427,E,0.006,,081217,,,A*69
$GNRMC,211524.00,A,3114.53911,N,12117.69428,E,0.013,,081217,,,A*6D
$GNRMC,211525.00,A,3114.53913,N,12117.69428,E,0.007,,081217,,,A*6B
$GNRMC,211526.00,A,3114.53915,N,12117.69428,E,0.004,,081217,,,A*6D
$GNRMC,211527.00,A,3114.53918,N,12117.69427,E,0.015,,081217,,,A*6E
$GNRMC,211528.00,A,3114.53921,N,12117.69426,E,0.015,,081217,,,A*6A
$GNRMC,211529.00,A,3114.53924,N,12117.69425,E,0.005,,081217,,,A*6C
$GNRMC,211530.00,A,3114.53928,N,12117.69424,E,0.010,,081217,,,A*6D
$GNRMC,211531.00,A,3114.53932,N,12117.69423,E,0.013,,081217,,,A*63
$GNRMC,211532.00,A,3114.53936,N,12117.69421,E,0.004,,081217,,,A*60
$GNRMC,211533.00,A,3114.53939,N,12117.69420,E,0.004,,081217,,,A*6F
$GNRMC,211534.00,A,3114.53942,N,12117.69419,E,0.016,,081217,,,A*6D
$GNRMC,211535.00,A,3114.53945,N,12117.69418,E,0.007,,081217,,,A*6A
$GNRMC,211536.00,A,3114.53949,N,12117.69416,E,0.006,,081217,,,A*6A
$GNRMC,211537.00,A,3114.53952,N,12117.69415,E,0.006,,081217,,,A*62
$GNRMC,211538.00,A,3114.53955,N,12117.69414,E,0.001,,081217,,,A*6C
$GNRMC,211539.00,A,3114.53958,N,12117.69413,E,0.012,,081217,,,A*65
$GNRMC,211540.00,A,3114.53962,N,12117.69412,E,0.012,,081217,,,A*63
$GNRMC,211541.00,A,3114.53964,N,12117.69412,E,0.020,,081217,,,A*65
$GNRMC,211542.00,A,3114.53967,N,12117.69411,E,0.007,,081217,,,A*63
$GNRMC,211543.00,A,3114.53968,N,12117.69411,E,0.007,,081217,,,A*6D
$GNRMC,211544.00,A,3114.53969,N,12117.69411,E,0.004,,081217,,,A*68
$GNRMC,211545.00,A,3114.53969,N,12117.69412,E,0.006,,081217,,,A*68
$GNRMC,211546.00,A,3114.53969,N,12117.69413,E,0.001,,081217,,,A*6D
$GNRMC,211547.00,A,3114.53967,N,12117.69414,E,0.005,,081217,,,A*61
$GNRMC,211548.00,A,3114.53965,N,12117.69416,E,0.005,,081217,,,A*6E
$GNRMC,211549.00,A,3114.53963,N,12117.69417,E,0.011,,081217,,,A*6D
$GNRMC,211550.00,A,3114.53961,N,12117.69419,E,0.016,,081217,,,A*6E
$GNRMC,211551.00,A,3114.53958,N,12117.69421,E,0.020,,081217,,,A*6B
$GNRMC,211552.00,A,3114.53956,N,12117.69423,E,0.008,,081217,,,A*6E
$GNRMC,211553.00,A,3114.53954,N,12117.69425,E,0.010,,081217,,,A*62
$GNRMC,211554.00,A,3114.53953,N,12117.69428,E,0.001,,081217,,,A*6F
$GNRMC,211555.00,A,3114.53951,N,12117.69431,E,0.007,,081217,,,A*62
$GNRMC,211556.00,A,3114.53950,N,12117.69433,E,0.008,,081217,,,A*6D
$GNRMC,211557.00,A,3114.53950,N,12117.69436,E,0.010,,081217,,,A*60
$GNRMC,211558.00,A,3114.53948,N,12117.69438,E,0.015,,081217,,,A*6D
$GNRMC,211559.00,A,3114.53947,N,12117.69440,E,0.014,,081217,,,A*6D
$GNRMC,211600.00,A,3114.53947,N,12117.69442,E,0.015,,081217,,,A*61
$GNRMC,211601.00,A,3114.53947,N,12117.69444,E,0.013,,081217,,,A*60
$GNRMC,211602.00,A,3114.53945,N,12117.69446,E,0.008,,081217,,,A*69
$GNRMC,211603.00,A,3114.53945,N,12117.69447,E,0.005,,081217,,,A*64
$GNRMC,211604.00,A,3114.53945,N,12117.69447,E,0.006,,081217,,,A*60
$GNRMC,211605.00,A,3114.53944,N,12117.69447,E,0.008,,081217,,,A*6E
$GNRMC,211606.00,A,3114.53944,N,12117.69446,E,0.010,,081217,,,A*65
$GNRMC,211607.00,A,3114.53945,N,12117.69445,E,0.010,,081217,,,A*66
$GNRMC,211608.00,A,3114.53945,N,12117.69445,E,0.002,,081217,,,A*6A
$GNRMC,211609.00,A,3114.53946,N,12117.69444,E,0.017,,081217,,,A*6D
$GNRMC,211610.00,A,3114.53947,N,12117.69444,E,0.009,,081217,,,A*6B
$GNRMC,211611.00,A,3114.53949,N,12117.69444,E,0.015,,081217,,,A*69
$GNRMC,211612.00,A,3114.53950,N,12117.69444,E,0.012,,081217,,,A*65
$GNRMC,211613.00,A,3114.53950,N,12117.69443,E,0.010,,081217,,,A*61
$GNRMC,211614.00,A,3114.53951,N,12117.69443,E,0.007,,081217,,,A*61
$GNRMC,211615.00,A,3114.53953,N,12117.69442,E,0.004,,081217,,,A*60
$GNRMC,211616.00,A,3114.53954,N,12117.69442,E,0.005,,081217,,,A*65
$GNRMC,211617.00,A,3114.53955,N,12117.69442,E,0.010,,081217,,,A*61
$GNRMC,211618.00,A,3114.53956,N,12117.69443,E,0.005,,081217,,,A*68
$GNRMC,211619.00,A,3114.53957,N,12117.69442,E,0.004,,081217,,,A*68
$GNRMC,211620.00,A,3114.53958,N,12117.69441,E,0.011,,081217,,,A*6A
$GNRMC,211621.00,A,3114.53959,N,12117.69440,E,0.009,,081217,,,A*62
$GNRMC,211622.00,A,3114.53960,N,12117.69438,E,0.008,,081217,,,A*65
$GNRMC,211623.00,A,3114.53961,N,12117.69436,E,0.009,,081217,,,A*6A
$GNRMC,211624.00,A,3114.53962,N,12117.69435,E,0.005,,081217,,,A*61
$GNRMC,211625.00,A,3114.53963,N,12117.69433,E,0.006,,081217,,,A*64
$GNRMC,211626.00,A,3114.53962,N,12117.69432,E,0.010,,081217,,,A*60
$GNRMC,211627.00,A,3114.53962,N,12117.69431,E,0.010,,081217,,,A*62
$GNRMC,211628.00,A,3114.53962,N,12117.69431,E,0.001,,081217,,,A*6D
$GNRMC,211629.00,A,3114.53963,N,12117.69428,E,0.009,,081217,,,A*6D
$GNRMC,211630.00,A,3114.53964,N,12117.69427,E,0.013,,081217,,,A*66
$GNRMC,211631.00,A,3114.53965,N,12117.69425,E,0.012,,081217,,,A*65
$GNRMC,211632.00,A,3114.53967,N,12117.69424,E,0.015,,081217,,,A*62
$GNRMC,211633.00,A,3114.53968,N,12117.69424,E,0.006,,081217,,,A*6E
$GNRMC,211634.00,A,3114.53969,N,12117.69424,E,0.005,,081217,,,A*6B
$GNRMC,211635.00,A,3114.53971,N,12117.69424,E,0.008,,081217,,,A*6E
$GNRMC,211636.00,A,3114.53973,N,12117.69422,E,0.006,,081217,,,A*67
$GNRMC,211637.00,A,3114.53974,N,12117.69422,E,0.008,,081217,,,A*6F
$GNRMC,211638.00,A,3114.53975,N,12117.69422,E,0.007,,081217,,,A*6E
$GNRMC,211639.00,A,3114.53976,N,12117.69422,E,0.009,,081217,,,A*62
$GNRMC,211640.00,A,3114.53976,N,12117.69423,E,0.011,,081217,,,A*64
$GNRMC,211641.00,A,3114.53977,N,12117.69424,E,0.009,,081217,,,A*6A
$GNRMC,211642.00,A,3114.53977,N,12117.69425,E,0.008,,081217,,,A*69
$GNRMC,211643.00,A,3114.53977,N,12117.69426,E,0.008,,081217,,,A*6B
$GNRMC,211644.00,A,3114.53977,N,12117.69429,E,0.010,,081217,,,A*6A
$GNRMC,211645.00,A,3114.53978,N,12117.69431,E,0.005,,081217,,,A*69
$GNRMC,211646.00,A,3114.53978,N,12117.69434,E,0.004,,081217,,,A*6E
$GNRMC,211647.00,A,3114.53977,N,12117.69436,E,0.010,,081217,,,A*67
$GNRMC,211648.00,A,3114.53976,N,12117.69439,E,0.007,,081217,,,A*60
$GNRMC,211649.00,A,3114.53976,N,12117.69441,E,0.005,,081217,,,A*6C
$GNRMC,211650.00,A,3114.53975,N,12117.69443,E,0.003,,081217,,,A*63
$GNRMC,211651.00,A,3114.53974,N,12117.69444,E,0.011,,081217,,,A*67
$GNRMC,211652.00,A,3114.53973,N,12117.69445,E,0.008,,081217,,,A*6A
$GNRMC,211653.00,A,3114.53971,N,12117.69445,E,0.005,,081217,,,A*64
$GNRMC,211654.00,A,3114.53970,N,12117.69444,E,0.014,,081217,,,A*63
$GNRMC,211655.00,A,3114.53969,N,12117.69444,E,0.008,,081217,,,A*67
$GNRMC,211656.00,A,3114.53968,N,12117.69443,E,0.008,,081217,,,A*62
$GNRMC,211657.00,A,3114.53967,N,12117.69441,E,0.008,,081217,,,A*6E
$GNRMC,211658.00,A,3114.53966,N,12117.69439,E,0.008,,081217,,,A*6F
$GNRMC,211659.00,A,3114.53965,N,12117.69438,E,0.010,,081217,,,A*65
$GNRMC,211700.00,A,3114.53965,N,12117.69437,E,0.011,,081217,,,A*66
$GNRMC,211701.00,A,3114.53966,N,12117.69435,E,0.026,,081217,,,D*67
$GNRMC,211702.00,A,3114.53966,N,12117.69433,E,0.010,,081217,,,D*67
$GNRMC,211703.00,A,3114.53965,N,12117.69431,E,0.017,,081217,,,D*60
$GNRMC,211704.00,A,3114.53963,N,12117.69430,E,0.009,,081217,,,D*6F
$GNRMC,211705.00,A,3114.53961,N,12117.69429,E,0.010,,081217,,,D*6C
$GNRMC,211706.00,A,3114.53959,N,12117.69428,E,0.008,,081217,,,D*6C
$GNRMC,211707.00,A,3114.53958,N,12117.69427,E,0.005,,081217,,,D*6E
$GNRMC,211708.00,A,3114.53956,N,12117.69425,E,0.014,,081217,,,D*6D
$GNRMC,211709.00,A,3114.53956,N,12117.69425,E,0.001,,081217,,,D*68
$GNRMC,211710.00,A,3114.53954,N,12117.69424,E,0.011,,081217,,,D*62
$GNRMC,211711.00,A,3114.53954,N,12117.69423,E,0.017,,081217,,,D*62
$GNRMC,211712.00,A,3114.53953,N,12117.69422,E,0.016,,081217,,,D*66
$GNRMC,211713.00,A,3114.53952,N,12117.69422,E,0.005,,081217,,,D*64
$GNRMC,211714.00,A,3114.53952,N,12117.69423,E,0.009,,081217,,,D*6E
$GNRMC,211715.00,A,3114.53953,N,12117.69424,E,0.004,,081217,,,D*64
$GNRMC,211716.00,A,3114.53953,N,12117.69424,E,0.004,,081217,,,D*67
$GNRMC,211717.00,A,3114.53953,N,12117.69424,E,0.008,,081217,,,D*6A
$GNRMC,211718.00,A,3114.53953,N,12117.69424,E,0.005,,081217,,,D*68
$GNRMC,211719.00,A,3114.53954,N,12117.69425,E,0.014,,081217,,,D*6F
$GNRMC,211720.00,A,3114.53954,N,12117.69427,E,0.001,,081217,,,D*63
$GNRMC,211721.00,A,3114.53954,N,12117.69428,E,0.021,,081217,,,D*6F
$GNRMC,211722.00,A,3114.53956,N,12117.69430,E,0.010,,081217,,,D*65
$GNRMC,211723.00,A,3114.53957,N,12117.69432,E,0.004,,081217,,,D*62
$GNRMC,211724.00,A,3114.53957,N,12117.69436,E,0.009,,081217,,,D*6C
$GNRMC,211725.00,A,3114.53958,N,12117.69438,E,0.008,,081217,,,D*6D
$GNRMC,211726.00,A,3114.53956,N,12117.69441,E,0.027,,081217,,,D*63
$GNRMC,211727.00,A,3114.53953,N,12117.69443,E,0.007,,081217,,,D*67
$GNRMC,211728.00,A,3114.53952,N,12117.69445,E,0.005,,081217,,,D*6D
$GNRMC,211729.00,A,3114.53950,N,12117.69447,E,0.014,,081217,,,D*6C
$GNRMC,211730.00,A,3114.53948,N,12117.69449,E,0.012,,081217,,,D*65
$GNRMC,211731.00,A,3114.53945,N,12117.69451,E,0.022,,081217,,,D*63
$GNRMC,211732.00,A,3114.53942,N,12117.69453,E,0.011,,081217,,,D*65
$GNRMC,211733.00,A,3114.53938,N,12117.69455,E,0.003,,081217,,,D*6C
$GNRMC,211734.00,A,3114.53935,N,12117.69456,E,0.005,,081217,,,D*63
$GNRMC,211735.00,A,3114.53932,N,12117.69458,E,0.016,,081217,,,D*69
$GNRMC,211736.00,A,3114.53927,N,12117.69460,E,0.023,,081217,,,D*63
$GNRMC,211737.00,A,3114.53921,N,12117.69463,E,0.011,,081217,,,D*66
$GNRMC,211738.00,A,3114.53915,N,12117.69465,E,0.017,,081217,,,D*6E
$GNRMC,211739.00,A,3114.53910,N,12117.69467,E,0.011,,081217,,,D*6E
$GNRMC,211740.00,A,3114.53905,N,12117.69469,E,0.011,,081217,,,D*6A
$GNRMC,211741.00,A,3114.53902,N,12117.69471,E,0.018,,081217,,,D*6C
$GNRMC,211742.00,A,3114.53898,N,12117.69473,E,0.020,,081217,,,D*64
$GNRMC,211743.00,A,3114.53895,N,12117.69475,E,0.014,,081217,,,D*69
$GNRMC,211744.00,A,3114.53892,N,12117.69477,E,0.014,,081217,,,D*6B
$GNRMC,211745.00,A,3114.53888,N,12117.69477,E,0.007,,081217,,,D*63
$GNRMC,211746.00,A,3114.53886,N,12117.69478,E,0.007,,081217,,,D*61
$GNRMC,211747.00,A,3114.53885,N,12117.69478,E,0.013,,081217,,,D*66
$GNRMC,211748.00,A,3114.53885,N,12117.69478,E,0.018,,081217,,,D*62
$GNRMC,211749.00,A,3114.53886,N,12117.69478,E,0.006,,081217,,,D*6F
$GNRMC,211750.00,A,3114.53886,N,12117.69478,E,0.007,,081217,,,D*66
$GNRMC,211751.00,A,3114.53886,N,12117.69478,E,0.028,,081217,,,D*6A
$GNRMC,211752.00,A,3114.53886,N,12117.69478,E,0.022,,081217,,,D*63
$GNRMC,211753.00,A,3114.53886,N,12117.69478,E,0.007,,081217,,,D*65
$GNRMC,211754.00,A,3114.53885,N,12117.69477,E,0.005,,081217,,,D*6C
$GNRMC,211755.00,A,3114.53884,N,12117.69477,E,0.004,,081217,,,D*6D
$GNRMC,211756.00,A,3114.53882,N,12117.69476,E,0.011,,081217,,,D*6D
$GNRMC,211757.00,A,3114.53880,N,12117.69475,E,0.011,,081217,,,D*6D
$GNRMC,211758.00,A,3114.53879,N,12117.69475,E,0.016,,081217,,,D*63
$GNRMC,211759.00,A,3114.53879,N,12117.69474,E,0.011,,081217,,,D*64
$GNRMC,211800.00,A,3114.53881,N,12117.69474,E,0.011,,081217,,,D*60
$GNRMC,211801.00,A,3114.53883,N,12117.69472,E,0.017,,081217,,,D*63
$GNRMC,211802.00,A,3114.53884,N,12117.69470,E,0.015,,081217,,,D*67
$GNRMC,211803.00,A,3114.53886,N,12117.69469,E,0.010,,081217,,,D*69
$GNRMC,211804.00,A,3114.53887,N,12117.69467,E,0.008,,081217,,,D*68
$GNRMC,211805.00,A,3114.53887,N,12117.69465,E,0.007,,081217,,,D*64
$GNRMC,211806.00,A,3114.53887,N,12117.69463,E,0.005,,081217,,,D*63
$GNRMC,211807.00,A,3114.53886,N,12117.69463,E,0.005,,081217,,,D*63
$GNRMC,211808.00,A,3114.53884,N,12117.69461,E,0.010,,081217,,,D*68
$GNRMC,211809.00,A,3114.53881,N,12117.69459,E,0.006,,081217,,,D*60
$GNRMC,211810.00,A,3114.53879,N,12117.69457,E,0.017,,081217,,,D*61
$GNRMC,211811.00,A,3114.53879,N,12117.69454,E,0.015,,081217,,,D*61
$GNRMC,211812.00,A,3114.53879,N,12117.69452,E,0.011,,081217,,,D*60
$GNRMC,211813.00,A,3114.53881,N,12117.69450,E,0.012,,081217,,,D*67
$GNRMC,211814.00,A,3114.53883,N,12117.69448,E,0.001,,081217,,,D*69
$GNRMC,211815.00,A,3114.53885,N,12117.69448,E,0.023,,081217,,,D*6E
$GNRMC,211816.00,A,3114.53887,N,12117.69447,E,0.007,,081217,,,D*66
$GNRMC,211817.00,A,3114.53889,N,12117.69446,E,0.001,,081217,,,D*6E
$GNRMC,211818.00,A,3114.53891,N,12117.69444,E,0.019,,081217,,,D*63
$GNRMC,211819.00,A,3114.53894,N,12117.69442,E,0.003,,081217,,,D*6A
$GNRMC,211820.00,A,3114.53896,N,12117.69441,E,0.006,,081217,,,D*64
$GNRMC,211821.00,A,3114.53899,N,12117.69440,E,0.009,,081217,,,D*64
$GNRMC,211822.00,A,3114.53902,N,12117.69438,E,0.013,,081217,,,D*60
$GNRMC,211823.00,A,3114.53904,N,12117.69436,E,0.013,,081217,,,D*69
$GNRMC,211824.00,A,3114.53907,N,12117.69435,E,0.011,,081217,,,D*6C
$GNRMC,211825.00,A,3114.53909,N,12117.69433,E,0.003,,081217,,,D*66
$GNRMC,211826.00,A,3114.53912,N,12117.69431,E,0.020,,081217,,,D*6C
$GNRMC,211827.00,A,3114.53914,N,12117.69429,E,0.011,,081217,,,D*60
$GNRMC,211828.00,A,3114.53917,N,12117.69428,E,0.005,,081217,,,D*68
$GNRMC,211829.00,A,3114.53920,N,12117.69426,E,0.005,,081217,,,D*63
$GNRMC,211830.00,A,3114.53923,N,12117.69424,E,0.014,,081217,,,D*6A
$GNRMC,211831.00,A,3114.53927,N,12117.69422,E,0.015,,081217,,,D*68
$GNRMC,211832.00,A,3114.53931,N,12117.69420,E,0.015,,081217,,,D*6E
$GNRMC,211833.00,A,3114.53934,N,12117.69418,E,0.014,,081217,,,D*60
$GNRMC,211834.00,A,3114.53937,N,12117.69416,E,0.010,,081217,,,D*6E
$GNRMC,211835.00,A,3114.53939,N,12117.69415,E,0.007,,081217,,,D*64
$GNRMC,211836.00,A,3114.53942,N,12117.69413,E,0.004,,081217,,,D*6E
$GNRMC,211837.00,A,3114.53946,N,12117.69410,E,0.005,,081217,,,D*69
$GNRMC,211838.00,A,3114.53949,N,12117.69408,E,0.013,,081217,,,D*67
$GNRMC,211839.00,A,3114.53950,N,12117.69406,E,0.009,,081217,,,D*6B
$GNRMC,211840.00,A,3114.53951,N,12117.69404,E,0.001,,081217,,,D*6E
$GNRMC,211841.00,A,3114.53953,N,12117.69403,E,0.014,,081217,,,D*6E
$GNRMC,211842.00,A,3114.53954,N,12117.69402,E,0.017,,081217,,,D*68
$GNRMC,211843.00,A,3114.53953,N,12117.69401,E,0.013,,081217,,,D*69
$GNRMC,211844.00,A,3114.53951,N,12117.69400,E,0.009,,081217,,,D*66
$GNRMC,211845.00,A,3114.53950,N,12117.69400,E,0.004,,081217,,,D*6B
$GNRMC,211846.00,A,3114.53947,N,12117.69399,E,0.011,,081217,,,D*6D
$GNRMC,211847.00,A,3114.53945,N,12117.69399,E,0.004,,081217,,,D*6A
$GNRMC,211848.00,A,3114.53943,N,12117.69398,E,0.020,,081217,,,D*64
$GNRMC,211849.00,A,3114.53940,N,12117.69398,E,0.010,,081217,,,D*65
$GNRMC,211850.00,A,3114.53937,N,12117.69397,E,0.005,,081217,,,D*66
$GNRMC,211851.00,A,3114.53935,N,12117.69397,E,0.015,,081217,,,D*64
$GNRMC,211852.00,A,3114.53931,N,12117.69397,E,0.023,,081217,,,D*66
$GNRMC,211853.00,A,3114.53928,N,12117.69398,E,0.013,,081217,,,D*63
$GNRMC,211854.00,A,3114.53925,N,12117.69399,E,0.016,,081217,,,D*6D
$GNRMC,211855.00,A,3114.53923,N,12117.69399,E,0.001,,081217,,,D*6C
$GNRMC,211856.00,A,3114.53920,N,12117.69400,E,0.005,,081217,,,D*6F
$GNRMC,211857.00,A,3114.53917,N,12117.69401,E,0.017,,081217,,,D*68
$GNRMC,211858.00,A,3114.53914,N,12117.69402,E,0.010,,081217,,,D*60
$GNRMC,211859.00,A,3114.53911,N,12117.69403,E,0.008,,081217,,,D*6C
$GNRMC,211900.00,A,3114.53909,N,12117.69404,E,0.005,,081217,,,D*62
$GNRMC,211901.00,A,3114.53907,N,12117.69404,E,0.019,,081217,,,D*60
$GNRMC,211902.00,A,3114.53905,N,12117.69405,E,0.012,,081217,,,D*6B
$GNRMC,211903.00,A,3114.53903,N,12117.69406,E,0.015,,081217,,,D*68
$GNRMC,211904.00,A,3114.53901,N,12117.69407,E,0.009,,081217,,,D*61
$GNRMC,211905.00,A,3114.53899,N,12117.69408,E,0.002,,081217,,,D*64
$GNRMC,211906.00,A,3114.53898,N,12117.69409,E,0.010,,081217,,,D*64
$GNRMC,211907.00,A,3114.53897,N,12117.69409,E,0.007,,081217,,,D*6C
$GNRMC,211908.00,A,3114.53897,N,12117.69410,E,0.011,,081217,,,D*6C
$GNRMC,211909.00,A,3114.53897,N,12117.69409,E,0.003,,081217,,,D*66
$GNRMC,211910.00,A,3114.53897,N,12117.69409,E,0.008,,081217,,,D*65
$GNRMC,211911.00,A,3114.53898,N,12117.69408,E,0.016,,081217,,,D*65
$GNRMC,211912.00,A,3114.53899,N,12117.69406,E,0.015,,081217,,,D*6A
$GNRMC,211913.00,A,3114.53899,N,12117.69405,E,0.011,,081217,,,D*6C
$GNRMC,211914.00,A,3114.53900,N,12117.69404,E,0.004,,081217,,,D*6F
$GNRMC,211915.00,A,3114.53900,N,12117.69404,E,0.008,,081217,,,D*62
$GNRMC,211916.00,A,3114.53900,N,12117.69403,E,0.011,,081217,,,D*6E
$GNRMC,211917.00,A,3114.53901,N,12117.69402,E,0.012,,081217,,,D*6C
$GNRMC,211918.00,A,3114.53901,N,12117.69401,E,0.004,,081217,,,D*67
$GNRMC,211919.00,A,3114.53902,N,12117.69400,E,0.010,,081217,,,D*61
$GNRMC,211920.00,A,3114.53903,N,12117.69399,E,0.010,,081217,,,D*6D
$GNRMC,211921.00,A,3114.53904,N,12117.69398,E,0.010,,081217,,,D*6A
$GNRMC,211922.00,A,3114.53904,N,12117.69397,E,0.017,,081217,,,D*61
$GNRMC,211923.00,A,3114.53904,N,12117.69396,E,0.011,,081217,,,D*67
$GNRMC,211924.00,A,3114.53904,N,12117.69394,E,0.014,,081217,,,D*67
$GNRMC,211925.00,A,3114.53904,N,12117.69393,E,0.007,,081217,,,D*63
$GNRMC,211926.00,A,3114.53904,N,12117.69392,E,0.003,,081217,,,D*65
$GNRMC,211927.00,A,3114.53905,N,12117.69391,E,0.012,,081217,,,D*66
$GNRMC,211928.00,A,3114.53905,N,12117.69389,E,0.009,,081217,,,D*6A
$GNRMC,211929.00,A,3114.53906,N,12117.69387,E,0.006,,081217,,,D*69
$GNRMC,211930.00,A,3114.53908,N,12117.69386,E,0.009,,081217,,,D*61
$GNRMC,211931.00,A,3114.53909,N,12117.69384,E,0.006,,081217,,,D*6C
$GNRMC,211932.00,A,3114.53909,N,12117.69383,E,0.018,,081217,,,D*67
$GNRMC,211933.00,A,3114.53911,N,12117.69381,E,0.009,,081217,,,D*6D
$GNRMC,211934.00,A,3114.53912,N,12117.69380,E,0.013,,081217,,,D*63
$GNRMC,211935.00,A,3114.53912,N,12117.69378,E,0.011,,081217,,,D*67
$GNRMC,211936.00,A,3114.53913,N,12117.69377,E,0.009,,081217,,,D*63
$GNRMC,211937.00,A,3114.53914,N,12117.69376,E,0.007,,081217,,,D*6A
$GNRMC,211938.00,A,3114.53915,N,12117.69375,E,0.004,,081217,,,D*64
$GNRMC,211939.00,A,3114.53916,N,12117.69374,E,0.005,,081217,,,D*66
$GNRMC,211940.00,A,3114.53916,N,12117.69374,E,0.016,,081217,,,D*6A
$GNRMC,211941.00,A,3114.53917,N,12117.69374,E,0.015,,081217,,,D*69
$GNRMC,211942.00,A,3114.53918,N,12117.69373,E,0.011,,081217,,,D*66
$GNRMC,211943.00,A,3114.53918,N,12117.69372,E,0.014,,081217,,,D*63
$GNRMC,211944.00,A,3114.53920,N,12117.69371,E,0.021,,081217,,,D*6A
$GNRMC,211945.00,A,3114.53922,N,12117.69369,E,0.009,,081217,,,D*6A
$GNRMC,211946.00,A,3114.53923,N,12117.69368,E,0.008,,081217,,,D*68
$GNRMC,211947.00,A,3114.53924,N,12117.69367,E,0.010,,081217,,,D*68
$GNRMC,211948.00,A,3114.53924,N,12117.69366,E,0.004,,081217,,,D*63
$GNRMC,211949.00,A,3114.53925,N,12117.69366,E,0.014,,081217,,,D*62
$GNRMC,211950.00,A,3114.53926,N,12117.69365,E,0.003,,081217,,,D*6C
$GNRMC,211951.00,A,3114.53926,N,12117.69365,E,0.004,,081217,,,D*6A
$GNRMC,211952.00,A,3114.53926,N,12117.69365,E,0.006,,081217,,,D*6B
$GNRMC,211953.00,A,3114.53927,N,12117.69366,E,0.009,,081217,,,D*67
$GNRMC,211954.00,A,3114.53927,N,12117.69366,E,0.002,,081217,,,D*6B
$GNRMC,211955.00,A,3114.53928,N,12117.69366,E,0.015,,081217,,,D*63
$GNRMC,211956.00,A,3114.53929,N,12117.69366,E,0.018,,081217,,,D*6C
$GNRMC,211957.00,A,3114.53930,N,12117.69367,E,0.008,,081217,,,D*65
$GNRMC,211958.00,A,3114.53931,N,12117.69367,E,0.005,,081217,,,D*66
$GNRMC,211959.00,A,3114.53932,N,12117.69367,E,0.004,,081217,,,D*65
$GNRMC,212000.00,A,3114.53933,N,12117.69366,E,0.003,,081217,,,D*64
$GNRMC,212001.00,A,3114.53934,N,12117.69366,E,0.005,,081217,,,D*64
$GNRMC,212002.00,A,3114.53936,N,12117.69365,E,0.016,,081217,,,D*64
$GNRMC,212003.00,A,3114.53938,N,12117.69364,E,0.010,,081217,,,D*6C
$GNRMC,212004.00,A,3114.53939,N,12117.69362,E,0.008,,081217,,,D*65
$GNRMC,212005.00,A,3114.53941,N,12117.69361,E,0.012,,081217,,,D*63
$GNRMC,212006.00,A,3114.53942,N,12117.69359,E,0.008,,081217,,,D*63
$GNRMC,212007.00,A,3114.53944,N,12117.69358,E,0.011,,081217,,,D*6D
$GNRMC,212008.00,A,3114.53945,N,12117.69356,E,0.008,,081217,,,D*65
$GNRMC,212009.00,A,3114.53947,N,12117.69354,E,0.005,,081217,,,D*69
$GNRMC,212010.00,A,3114.53950,N,12117.69352,E,0.003,,081217,,,D*67
$GNRMC,212011.00,A,3114.53952,N,12117.69350,E,0.008,,081217,,,D*6D
$GNRMC,212012.00,A,3114.53954,N,12117.69348,E,0.014,,081217,,,D*6C
$GNRMC,212013.00,A,3114.53957,N,12117.69346,E,0.012,,081217,,,D*66
$GNRMC,212014.00,A,3114.53959,N,12117.69343,E,0.007,,081217,,,D*6E
$GNRMC,212015.00,A,3114.53961,N,12117.69341,E,0.012,,081217,,,D*62
$GNRMC,212016.00,A,3114.53963,N,12117.69339,E,0.006,,081217,,,D*69
$GNRMC,212017.00,A,3114.53965,N,12117.69338,E,0.011,,081217,,,D*69
$GNRMC,212018.00,A,3114.53967,N,12117.69337,E,0.006,,081217,,,D*6D
$GNRMC,212019.00,A,3114.53969,N,12117.69336,E,0.012,,081217,,,D*66
$GNRMC,212020.00,A,3114.53971,N,12117.69336,E,0.002,,081217,,,D*64
$GNRMC,212021.00,A,3114.53972,N,12117.69336,E,0.010,,081217,,,D*65
$GNRMC,212022.00,A,3114.53974,N,12117.69337,E,0.010,,081217,,,D*61
$GNRMC,212023.00,A,3114.53975,N,12117.69337,E,0.007,,081217,,,D*67
$GNRMC,212024.00,A,3114.53977,N,12117.69337,E,0.009,,081217,,,D*6C
$GNRMC,212025.00,A,3114.53978,N,12117.69338,E,0.003,,081217,,,D*67
$GNRMC,212026.00,A,3114.53980,N,12117.69339,E,0.005,,081217,,,D*64
$GNRMC,212027.00,A,3114.53982,N,12117.69339,E,0.006,,081217,,,D*64
$GNRMC,212028.00,A,3114.53983,N,12117.69340,E,0.010,,081217,,,D*63
$GNRMC,212029.00,A,3114.53985,N,12117.69341,E,0.009,,081217,,,D*6D
$GNRMC,212030.00,A,3114.53987,N,12117.69342,E,0.003,,081217,,,D*6E
$GNRMC,212031.00,A,3114.53988,N,12117.69343,E,0.005,,081217,,,D*67
$GNRMC,212032.00,A,3114.53990,N,12117.69344,E,0.010,,081217,,,D*6E
$GNRMC,212033.00,A,3114.53992,N,12117.69345,E,0.007,,081217,,,D*6A
$GNRMC,212034.00,A,3114.53994,N,12117.69346,E,0.003,,081217,,,D*6C
$GNRMC,212035.00,A,3114.53996,N,12117.69347,E,0.004,,081217,,,D*69
$GNRMC,212036.00,A,3114.53998,N,12117.69348,E,0.010,,081217,,,D*6E
$GNRMC,212037.00,A,3114.53999,N,12117.69349,E,0.006,,081217,,,D*68
$GNRMC,212038.00,A,3114.54001,N,12117.69349,E,0.008,,081217,,,D*66
$GNRMC,212039.00,A,3114.54002,N,12117.69350,E,0.007,,081217,,,D*63
$GNRMC,212040.00,A,3114.54003,N,12117.69351,E,0.008,,081217,,,D*62
$GNRMC,212041.00,A,3114.54003,N,12117.69352,E,0.009,,081217,,,D*61
$GNRMC,212042.00,A,3114.54003,N,12117.69353,E,0.004,,081217,,,D*6E
$GNRMC,212043.00,A,3114.54002,N,12117.69355,E,0.010,,081217,,,D*6D
$GNRMC,212044.00,A,3114.54002,N,12117.69356,E,0.011,,081217,,,D*68
$GNRMC,212045.00,A,3114.54001,N,12117.69357,E,0.003,,081217,,,D*68
$GNRMC,212046.00,A,3114.54000,N,12117.69358,E,0.006,,081217,,,D*60
$GNRMC,212047.00,A,3114.54000,N,12117.69359,E,0.001,,081217,,,D*67
$GNRMC,212048.00,A,3114.53999,N,12117.69360,E,0.006,,081217,,,D*6B
$GNRMC,212049.00,A,3114.53998,N,12117.69361,E,0.001,,081217,,,D*6D
$GNRMC,212050.00,A,3114.53997,N,12117.69362,E,0.003,,081217,,,D*6B
$GNRMC,212051.00,A,3114.53997,N,12117.69363,E,0.006,,081217,,,D*6E
$GNRMC,212052.00,A,3114.53996,N,12117.69364,E,0.013,,081217,,,D*6F
$GNRMC,212053.00,A,3114.53995,N,12117.69365,E,0.008,,081217,,,D*66
$GNRMC,212054.00,A,3114.53994,N,12117.69366,E,0.014,,081217,,,D*6E
$GNRMC,212055.00,A,3114.53994,N,12117.69367,E,0.005,,081217,,,D*6E
$GNRMC,212056.00,A,3114.53993,N,12117.69368,E,0.002,,081217,,,D*62
$GNRMC,212057.00,A,3114.53991,N,12117.69370,E,0.016,,081217,,,D*6D
$GNRMC,212058.00,A,3114.53990,N,12117.69372,E,0.007,,081217,,,D*61
$GNRMC,212059.00,A,3114.53989,N,12117.69373,E,0.009,,081217,,,D*67
$GNRMC,212100.00,A,3114.53988,N,12117.69374,E,0.006,,081217,,,D*63
$GNRMC,212101.00,A,3114.53987,N,12117.69375,E,0.007,,081217,,,D*6D
$GNRMC,212102.00,A,3114.53985,N,12117.69376,E,0.013,,081217,,,D*6A
$GNRMC,212103.00,A,3114.53984,N,12117.69378,E,0.016,,081217,,,D*61
$GNRMC,212104.00,A,3114.53982,N,12117.69379,E,0.002,,081217,,,D*64
$GNRMC,212105.00,A,3114.53981,N,12117.69381,E,0.010,,081217,,,D*62
$GNRMC,212106.00,A,3114.53979,N,12117.69383,E,0.007,,081217,,,D*62
$GNRMC,212107.00,A,3114.53978,N,12117.69384,E,0.008,,081217,,,D*6A
$GNRMC,212108.00,A,3114.53976,N,12117.69386,E,0.008,,081217,,,D*69
$GNRMC,212109.00,A,3114.53974,N,12117.69387,E,0.009,,081217,,,D*6A
$GNRMC,212110.00,A,3114.53972,N,12117.69389,E,0.004,,081217,,,D*67
$GNRMC,212111.00,A,3114.53970,N,12117.69391,E,0.007,,081217,,,D*6E
$GNRMC,212112.00,A,3114.53968,N,12117.69392,E,0.010,,081217,,,D*61
$GNRMC,212113.00,A,3114.53966,N,12117.69394,E,0.017,,081217,,,D*6F
$GNRMC,212114.00,A,3114.53963,N,12117.69396,E,0.010,,081217,,,D*68
$GNRMC,212115.00,A,3114.53961,N,12117.69397,E,0.010,,081217,,,D*6A
$GNRMC,212116.00,A,3114.53960,N,12117.69399,E,0.006,,081217,,,D*61
$GNRMC,212117.00,A,3114.53958,N,12117.69401,E,0.005,,081217,,,D*6E
$GNRMC,212118.00,A,3114.53956,N,12117.69402,E,0.011,,081217,,,D*69
$GNRMC,212119.00,A,3114.53954,N,12117.69404,E,0.006,,081217,,,D*6A
$GNRMC,212120.00,A,3114.53953,N,12117.69405,E,0.004,,081217,,,D*64
$GNRMC,212121.00,A,3114.53951,N,12117.69407,E,0.006,,081217,,,D*67
$GNRMC,212122.00,A,3114.53950,N,12117.69408,E,0.005,,081217,,,D*69
$GNRMC,212123.00,A,3114.53949,N,12117.69409,E,0.008,,081217,,,D*6C
$GNRMC,212124.00,A,3114.53949,N,12117.69410,E,0.003,,081217,,,D*68
$GNRMC,212125.00,A,3114.53948,N,12117.69411,E,0.005,,081217,,,D*6F
$GNRMC,212126.00,A,3114.53946,N,12117.69412,E,0.006,,081217,,,D*62
$GNRMC,212127.00,A,3114.53945,N,12117.69413,E,0.006,,081217,,,D*61
$GNRMC,212128.00,A,3114.53945,N,12117.69413,E,0.007,,081217,,,D*6F
$GNRMC,212129.00,A,3114.53944,N,12117.69414,E,0.003,,081217,,,D*6C
$GNRMC,212130.00,A,3114.53943,N,12117.69415,E,0.008,,081217,,,D*69
$GNRMC,212131.00,A,3114.53943,N,12117.69416,E,0.007,,081217,,,D*64
$GNRMC,212132.00,A,3114.53943,N,12117.69417,E,0.012,,081217,,,D*62
$GNRMC,212133.00,A,3114.53942,N,12117.69418,E,0.007,,081217,,,D*69
$GNRMC,212134.00,A,3114.53942,N,12117.69419,E,0.011,,081217,,,D*68
$GNRMC,212135.00,A,3114.53942,N,12117.69420,E,0.010,,081217,,,D*62
$GNRMC,212136.00,A,3114.53942,N,12117.69420,E,0.011,,081217,,,D*60
$GNRMC,212137.00,A,3114.53943,N,12117.69420,E,0.011,,081217,,,D*60
$GNRMC,212138.00,A,3114.53943,N,12117.69421,E,0.002,,081217,,,D*6C
$GNRMC,212139.00,A,3114.53944,N,12117.69421,E,0.002,,081217,,,D*6A
$GNRMC,212140.00,A,3114.53945,N,12117.69422,E,0.010,,081217,,,D*65
$GNRMC,212141.00,A,3114.53946,N,12117.69422,E,0.012,,081217,,,D*65
$GNRMC,212142.00,A,3114.53946,N,12117.69422,E,0.006,,081217,,,D*63
$GNRMC,212143.00,A,3114.53946,N,12117.69423,E,0.004,,081217,,,D*61
$GNRMC,212144.00,A,3114.53947,N,12117.69423,E,0.008,,081217,,,D*6B
$GNRMC,212145.00,A,3114.53946,N,12117.69424,E,0.004,,081217,,,D*60
$GNRMC,212146.00,A,3114.53946,N,12117.69424,E,0.010,,081217,,,D*66
$GNRMC,212147.00,A,3114.53945,N,12117.69425,E,0.006,,081217,,,D*62
$GNRMC,212148.00,A,3114.53944,N,12117.69425,E,0.006,,081217,,,D*6C
$GNRMC,212149.00,A,3114.53944,N,12117.69426,E,0.004,,081217,,,D*6C
$GNRMC,212150.00,A,3114.53944,N,12117.69426,E,0.003,,081217,,,D*63
$GNRMC,212151.00,A,3114.53944,N,12117.69426,E,0.008,,081217,,,D*69
$GNRMC,212152.00,A,3114.53944,N,12117.69426,E,0.005,,081217,,,D*67
$GNRMC,212153.00,A,3114.53944,N,12117.69426,E,0.012,,081217,,,D*60
$GNRMC,212154.00,A,3114.53944,N,12117.69426,E,0.006,,081217,,,D*62
$GNRMC,212155.00,A,3114.53944,N,12117.69426,E,0.008,,081217,,,D*6D
$GNRMC,212156.00,A,3114.53944,N,12117.69427,E,0.005,,081217,,,D*62
$GNRMC,212157.00,A,3114.53944,N,12117.69427,E,0.003,,081217,,,D*65
$GNRMC,212158.00,A,3114.53944,N,12117.69428,E,0.008,,081217,,,D*6E
$GNRMC,212159.00,A,3114.53944,N,12117.69428,E,0.009,,081217,,,D*6E
$GNRMC,212200.00,A,3114.53943,N,12117.69428,E,0.007,,081217,,,D*68
$GNRMC,212201.00,A,3114.53943,N,12117.69428,E,0.002,,081217,,,D*6C
$GNRMC,212202.00,A,3114.53943,N,12117.69428,E,0.006,,081217,,,D*6B
$GNRMC,212203.00,A,3114.53942,N,12117.69428,E,0.009,,081217,,,D*64
$GNRMC,212204.00,A,3114.53942,N,12117.69429,E,0.007,,081217,,,D*6C
$GNRMC,212205.00,A,3114.53942,N,12117.69429,E,0.009,,081217,,,D*63
$GNRMC,212206.00,A,3114.53941,N,12117.69430,E,0.014,,081217,,,D*67
$GNRMC,212207.00,A,3114.53941,N,12117.69431,E,0.011,,081217,,,D*62
$GNRMC,212208.00,A,3114.53941,N,12117.69432,E,0.003,,081217,,,D*6D
$GNRMC,212209.00,A,3114.53941,N,12117.69433,E,0.005,,081217,,,D*6B
$GNRMC,212210.00,A,3114.53941,N,12117.69434,E,0.004,,081217,,,D*65
$GNRMC,212211.00,A,3114.53942,N,12117.69435,E,0.007,,081217,,,D*65
$GNRMC,212212.00,A,3114.53942,N,12117.69435,E,0.010,,081217,,,D*60
$GNRMC,212213.00,A,3114.53943,N,12117.69436,E,0.001,,081217,,,D*63
$GNRMC,212214.00,A,3114.53943,N,12117.69437,E,0.005,,081217,,,D*61
$GNRMC,212215.00,A,3114.53943,N,12117.69438,E,0.015,,081217,,,D*6E
$GNRMC,212216.00,A,3114.53942,N,12117.69439,E,0.010,,081217,,,D*68
$GNRMC,212217.00,A,3114.53942,N,12117.69440,E,0.004,,081217,,,D*62
$GNRMC,212218.00,A,3114.53941,N,12117.69441,E,0.007,,081217,,,D*6C
$GNRMC,212219.00,A,3114.53941,N,12117.69441,E,0.002,,081217,,,D*68
$GNRMC,212220.00,A,3114.53941,N,12117.69442,E,0.007,,081217,,,D*64
$GNRMC,212221.00,A,3114.53941,N,12117.69442,E,0.007,,081217,,,D*65
$GNRMC,212222.00,A,3114.53941,N,12117.69443,E,0.007,,081217,,,D*67
$GNRMC,212223.00,A,3114.53941,N,12117.69443,E,0.015,,081217,,,D*65
$GNRMC,212224.00,A,3114.53941,N,12117.69444,E,0.009,,081217,,,D*68
$GNRMC,212225.00,A,3114.53941,N,12117.69444,E,0.001,,081217,,,D*61
$GNRMC,212226.00,A,3114.53941,N,12117.69444,E,0.004,,081217,,,D*67
$GNRMC,212227.00,A,3114.53940,N,12117.69444,E,0.015,,081217,,,D*67
$GNRMC,212228.00,A,3114.53940,N,12117.69444,E,0.003,,081217,,,D*6F
$GNRMC,212229.00,A,3114.53940,N,12117.69444,E,0.003,,081217,,,D*6E
$GNRMC,212230.00,A,3114.53939,N,12117.69444,E,0.007,,081217,,,D*6C
$GNRMC,212231.00,A,3114.53938,N,12117.69444,E,0.017,,081217,,,D*6D
$GNRMC,212232.00,A,3114.53937,N,12117.69444,E,0.011,,081217,,,D*67
$GNRMC,212233.00,A,3114.53936,N,12117.69444,E,0.005,,081217,,,D*62
$GNRMC,212234.00,A,3114.53934,N,12117.69444,E,0.010,,081217,,,D*63
$GNRMC,212235.00,A,3114.53933,N,12117.69445,E,0.014,,081217,,,D*60
$GNRMC,212236.00,A,3114.53932,N,12117.69445,E,0.005,,081217,,,D*62
$GNRMC,212237.00,A,3114.53932,N,12117.69445,E,0.019,,081217,,,D*6E
$GNRMC,212238.00,A,3114.53931,N,12117.69444,E,0.009,,081217,,,D*62
$GNRMC,212239.00,A,3114.53931,N,12117.69444,E,0.004,,081217,,,D*6E
$GNRMC,212240.00,A,3114.53931,N,12117.69443,E,0.008,,081217,,,D*6B
$GNRMC,212241.00,A,3114.53931,N,12117.69443,E,0.005,,081217,,,D*67
$GNRMC,212242.00,A,3114.53931,N,12117.69442,E,0.005,,081217,,,D*65
$GNRMC,212243.00,A,3114.53933,N,12117.69437,E,0.004,,081217,,,D*65
$GNRMC,212244.00,A,3114.53934,N,12117.69433,E,0.008,,081217,,,D*6D
$GNRMC,212245.00,A,3114.53936,N,12117.69429,E,0.013,,081217,,,D*6F
$GNRMC,212246.00,A,3114.53937,N,12117.69425,E,0.006,,081217,,,D*65
$GNRMC,212247.00,A,3114.53938,N,12117.69421,E,0.006,,081217,,,D*6F
$GNRMC,212248.00,A,3114.53939,N,12117.69418,E,0.008,,081217,,,D*65
$GNRMC,212249.00,A,3114.53939,N,12117.69416,E,0.006,,081217,,,D*64
$GNRMC,212250.00,A,3114.53938,N,12117.69414,E,0.014,,081217,,,D*6C
$GNRMC,212251.00,A,3114.53938,N,12117.69413,E,0.008,,081217,,,D*67
$GNRMC,212252.00,A,3114.53938,N,12117.69411,E,0.013,,081217,,,D*6C
$GNRMC,212253.00,A,3114.53938,N,12117.69410,E,0.006,,081217,,,D*68
$GNRMC,212254.00,A,3114.53937,N,12117.69409,E,0.008,,081217,,,D*66
$GNRMC,212255.00,A,3114.53937,N,12117.69408,E,0.004,,081217,,,D*6A
$GNRMC,212256.00,A,3114.53936,N,12117.69407,E,0.005,,081217,,,D*66
$GNRMC,212257.00,A,3114.53935,N,12117.69406,E,0.009,,081217,,,D*69
$GNRMC,212258.00,A,3114.53935,N,12117.69404,E,0.002,,081217,,,D*6F
$GNRMC,212259.00,A,3114.53935,N,12117.69402,E,0.002,,081217,,,D*68
$GNRMC,212300.00,A,3114.53934,N,12117.69400,E,0.013,,081217,,,D*66
$GNRMC,212301.00,A,3114.53933,N,12117.69398,E,0.017,,081217,,,D*62
$GNRMC,212302.00,A,3114.53933,N,12117.69396,E,0.009,,081217,,,D*60
$GNRMC,212303.00,A,3114.53932,N,12117.69394,E,0.007,,081217,,,D*6C
$GNRMC,212304.00,A,3114.53932,N,12117.69392,E,0.005,,081217,,,D*6F
$GNRMC,212305.00,A,3114.53932,N,12117.69389,E,0.005,,081217,,,D*64
$GNRMC,212306.00,A,3114.53932,N,12117.69387,E,0.011,,081217,,,D*6C
$GNRMC,212307.00,A,3114.53932,N,12117.69385,E,0.004,,081217,,,D*6B
$GNRMC,212308.00,A,3114.53932,N,12117.69383,E,0.008,,081217,,,D*6E
$GNRMC,212309.00,A,3114.53931,N,12117.69381,E,0.010,,081217,,,D*67
$GNRMC,212310.00,A,3114.53931,N,12117.69380,E,0.002,,081217,,,D*6D
$GNRMC,212311.00,A,3114.53931,N,12117.69378,E,0.001,,081217,,,D*68
$GNRMC,212312.00,A,3114.53930,N,12117.69377,E,0.013,,081217,,,D*66
$GNRMC,212313.00,A,3114.53929,N,12117.69375,E,0.010,,081217,,,D*6E
$GNRMC,212314.00,A,3114.53927,N,12117.69374,E,0.010,,081217,,,D*66
$GNRMC,212315.00,A,3114.53926,N,12117.69372,E,0.006,,081217,,,D*67
$GNRMC,212316.00,A,3114.53925,N,12117.69371,E,0.010,,081217,,,D*63
$GNRMC,212317.00,A,3114.53923,N,12117.69369,E,0.007,,081217,,,D*6B
$GNRMC,212318.00,A,3114.53922,N,12117.69368,E,0.005,,081217,,,D*66
$GNRMC,212319.00,A,3114.53921,N,12117.69366,E,0.011,,081217,,,D*6F
$GNRMC,212320.00,A,3114.53921,N,12117.69363,E,0.015,,081217,,,D*64
$GNRMC,212321.00,A,3114.53921,N,12117.69360,E,0.014,,081217,,,D*67
$GNRMC,212322.00,A,3114.53920,N,12117.69358,E,0.018,,081217,,,D*62
$GNRMC,212323.00,A,3114.53920,N,12117.69357,E,0.012,,081217,,,D*66
$GNRMC,212324.00,A,3114.53920,N,12117.69356,E,0.002,,081217,,,D*61
$GNRMC,212325.00,A,3114.53919,N,12117.69355,E,0.003,,081217,,,D*68
$GNRMC,212326.00,A,3114.53919,N,12117.69354,E,0.013,,081217,,,D*6B
$GNRMC,212327.00,A,3114.53919,N,12117.69353,E,0.009,,081217,,,D*66
$GNRMC,212328.00,A,3114.53919,N,12117.69352,E,0.005,,081217,,,D*64
$GNRMC,212329.00,A,3114.53919,N,12117.69350,E,0.007,,081217,,,D*65
$GNRMC,212330.00,A,3114.53919,N,12117.69348,E,0.006,,081217,,,D*65
$GNRMC,212331.00,A,3114.53920,N,12117.69345,E,0.006,,081217,,,D*63
$GNRMC,212332.00,A,3114.53921,N,12117.69343,E,0.011,,081217,,,D*61
$GNRMC,212333.00,A,3114.53922,N,12117.69340,E,0.009,,081217,,,D*69
$GNRMC,212334.00,A,3114.53924,N,12117.69336,E,0.011,,081217,,,D*60
$GNRMC,212335.00,A,3114.53925,N,12117.69333,E,0.005,,081217,,,D*60
$GNRMC,212336.00,A,3114.53926,N,12117.69330,E,0.011,,081217,,,D*66
$GNRMC,212337.00,A,3114.53927,N,12117.69327,E,0.019,,081217,,,D*68
$GNRMC,212338.00,A,3114.53928,N,12117.69324,E,0.005,,081217,,,D*66
$GNRMC,212339.00,A,3114.53930,N,12117.69322,E,0.004,,081217,,,D*69
$GNRMC,212340.00,A,3114.53931,N,12117.69320,E,0.008,,081217,,,D*68
$GNRMC,212341.00,A,3114.53932,N,12117.69317,E,0.007,,081217,,,D*61
$GNRMC,212342.00,A,3114.53933,N,12117.69315,E,0.006,,081217,,,D*60
$GNRMC,212343.00,A,3114.53934,N,12117.69313,E,0.009,,081217,,,D*6F
$GNRMC,212344.00,A,3114.53934,N,12117.69310,E,0.013,,081217,,,D*60
$GNRMC,212345.00,A,3114.53935,N,12117.69308,E,0.004,,081217,,,D*6F
$GNRMC,212346.00,A,3114.53935,N,12117.69305,E,0.011,,081217,,,D*65
$GNRMC,212347.00,A,3114.53936,N,12117.69303,E,0.001,,081217,,,D*60
$GNRMC,212348.00,A,3114.53937,N,12117.69300,E,0.007,,081217,,,D*6B
$GNRMC,212349.00,A,3114.53938,N,12117.69298,E,0.005,,081217,,,D*67
$GNRMC,212350.00,A,3114.53939,N,12117.69296,E,0.003,,081217,,,D*66
$GNRMC,212351.00,A,3114.53940,N,12117.69294,E,0.010,,081217,,,D*69
$GNRMC,212352.00,A,3114.53941,N,12117.69293,E,0.011,,081217,,,D*6D
$GNRMC,212353.00,A,3114.53941,N,12117.69292,E,0.004,,081217,,,D*69
$GNRMC,212354.00,A,3114.53942,N,12117.69290,E,0.007,,081217,,,D*6C
$GNRMC,212355.00,A,3114.53943,N,12117.69288,E,0.003,,081217,,,D*61
$GNRMC,212356.00,A,3114.53944,N,12117.69287,E,0.005,,081217,,,D*6C
$GNRMC,212357.00,A,3114.53944,N,12117.69286,E,0.011,,081217,,,D*69
$GNRMC,212358.00,A,3114.53945,N,12117.69284,E,0.004,,081217,,,D*61
$GNRMC,212359.00,A,3114.53946,N,12117.69283,E,0.007,,081217,,,D*67
$GNRMC,212400.00,A,3114.53946,N,12117.69282,E,0.003,,081217,,,D*69
$GNRMC,212401.00,A,3114.53946,N,12117.69281,E,0.006,,081217,,,D*6E
$GNRMC,212402.00,A,3114.53946,N,12117.69280,E,0.003,,081217,,,D*69
$GNRMC,212403.00,A,3114.53945,N,12117.69278,E,0.015,,081217,,,D*6B
$GNRMC,212404.00,A,3114.53945,N,12117.69277,E,0.006,,081217,,,D*61
$GNRMC,212405.00,A,3114.53945,N,12117.69276,E,0.009,,081217,,,D*6E
$GNRMC,212406.00,A,3114.53944,N,12117.69275,E,0.005,,081217,,,D*63
$GNRMC,212407.00,A,3114.53943,N,12117.69274,E,0.001,,081217,,,D*60
$GNRMC,212408.00,A,3114.53942,N,12117.69273,E,0.005,,081217,,,D*6D
$GNRMC,212409.00,A,3114.53941,N,12117.69272,E,0.007,,081217,,,D*6C
$GNRMC,212410.00,A,3114.53939,N,12117.69271,E,0.007,,081217,,,D*68
$GNRMC,212411.00,A,3114.53937,N,12117.69270,E,0.008,,081217,,,D*69
$GNRMC,212412.00,A,3114.53936,N,12117.69268,E,0.005,,081217,,,D*6F
$GNRMC,212413.00,A,3114.53934,N,12117.69267,E,0.017,,081217,,,D*60
$GNRMC,212414.00,A,3114.53932,N,12117.69264,E,0.010,,081217,,,D*65
$GNRMC,212415.00,A,3114.53931,N,12117.69262,E,0.004,,081217,,,D*64
$GNRMC,212416.00,A,3114.53929,N,12117.69260,E,0.009,,081217,,,D*61
$GNRMC,212417.00,A,3114.53927,N,12117.69259,E,0.005,,081217,,,D*68
$GNRMC,212418.00,A,3114.53926,N,12117.69257,E,0.009,,081217,,,D*64
$GNRMC,212419.00,A,3114.53924,N,12117.69256,E,0.008,,081217,,,D*67
$GNRMC,212420.00,A,3114.53924,N,12117.69254,E,0.008,,081217,,,D*6F
$GNRMC,212421.00,A,3114.53923,N,12117.69253,E,0.005,,081217,,,D*63
$GNRMC,212422.00,A,3114.53923,N,12117.69252,E,0.010,,081217,,,D*65
$GNRMC,212423.00,A,3114.53922,N,12117.69252,E,0.012,,081217,,,D*67
$GNRMC,212424.00,A,3114.53922,N,12117.69251,E,0.004,,081217,,,D*64
$GNRMC,212425.00,A,3114.53922,N,12117.69251,E,0.013,,081217,,,D*63
$GNRMC,212426.00,A,3114.53923,N,12117.69251,E,0.011,,081217,,,D*63
$GNRMC,212427.00,A,3114.53923,N,12117.69251,E,0.009,,081217,,,D*6B
$GNRMC,212428.00,A,3114.53923,N,12117.69251,E,0.009,,081217,,,D*64
$GNRMC,212429.00,A,3114.53925,N,12117.69251,E,0.011,,081217,,,D*6A
$GNRMC,212430.00,A,3114.53926,N,12117.69251,E,0.007,,081217,,,D*66
$GNRMC,212431.00,A,3114.53927,N,12117.69251,E,0.001,,081217,,,D*60
$GNRMC,212432.00,A,3114.53928,N,12117.69251,E,0.005,,081217,,,D*68
$GNRMC,212433.00,A,3114.53929,N,12117.69251,E,0.005,,081217,,,D*68
$GNRMC,212434.00,A,3114.53929,N,12117.69251,E,0.013,,081217,,,D*68
$GNRMC,212435.00,A,3114.53930,N,12117.69250,E,0.006,,081217,,,D*64
$GNRMC,212436.00,A,3114.53930,N,12117.69249,E,0.007,,081217,,,D*6E
$GNRMC,212437.00,A,3114.53931,N,12117.69249,E,0.006,,081217,,,D*6F
$GNRMC,212438.00,A,3114.53932,N,12117.69248,E,0.015,,081217,,,D*60
$GNRMC,212439.00,A,3114.53933,N,12117.69247,E,0.003,,081217,,,D*68
$GNRMC,212440.00,A,3114.53934,N,12117.69246,E,0.004,,081217,,,D*67
$GNRMC,212441.00,A,3114.53936,N,12117.69245,E,0.009,,081217,,,D*6A
$GNRMC,212442.00,A,3114.53937,N,12117.69245,E,0.011,,081217,,,D*61
$GNRMC,212443.00,A,3114.53939,N,12117.69245,E,0.015,,081217,,,D*6A
$GNRMC,212444.00,A,3114.53940,N,12117.69245,E,0.006,,081217,,,D*61
$GNRMC,212445.00,A,3114.53942,N,12117.69245,E,0.001,,081217,,,D*65
$GNRMC,212446.00,A,3114.53943,N,12117.69246,E,0.009,,081217,,,D*6C
$GNRMC,212447.00,A,3114.53944,N,12117.69247,E,0.001,,081217,,,D*63
$GNRMC,212448.00,A,3114.53944,N,12117.69247,E,0.012,,081217,,,D*6E
$GNRMC,212449.00,A,3114.53945,N,12117.69248,E,0.005,,081217,,,D*67
$GNRMC,212450.00,A,3114.53945,N,12117.69249,E,0.001,,081217,,,D*6A
$GNRMC,212451.00,A,3114.53945,N,12117.69250,E,0.006,,081217,,,D*64
$GNRMC,212452.00,A,3114.53945,N,12117.69251,E,0.007,,081217,,,D*67
$GNRMC,212453.00,A,3114.53945,N,12117.69252,E,0.005,,081217,,,D*67
$GNRMC,212454.00,A,3114.53945,N,12117.69252,E,0.011,,081217,,,D*65
$GNRMC,212455.00,A,3114.53945,N,12117.69253,E,0.004,,081217,,,D*61
$GNRMC,212456.00,A,3114.53945,N,12117.69255,E,0.009,,081217,,,D*69
$GNRMC,212457.00,A,3114.53945,N,12117.69256,E,0.011,,081217,,,D*62
$GNRMC,212458.00,A,3114.53944,N,12117.69257,E,0.002,,081217,,,D*6F
$GNRMC,212459.00,A,3114.53944,N,12117.69258,E,0.002,,081217,,,D*61
$GNRMC,212500.00,A,3114.53943,N,12117.69260,E,0.007,,081217,,,D*65
$GNRMC,212501.00,A,3114.53942,N,12117.69261,E,0.018,,081217,,,D*6A
$GNRMC,212502.00,A,3114.53941,N,12117.69262,E,0.008,,081217,,,D*68
$GNRMC,212503.00,A,3114.53939,N,12117.69263,E,0.008,,081217,,,D*67
$GNRMC,212504.00,A,3114.53938,N,12117.69265,E,0.005,,081217,,,D*6A
$GNRMC,212505.00,A,3114.53937,N,12117.69266,E,0.004,,081217,,,D*66
$GNRMC,212506.00,A,3114.53936,N,12117.69268,E,0.006,,081217,,,D*68
$GNRMC,212507.00,A,3114.53935,N,12117.69269,E,0.009,,081217,,,D*64
$GNRMC,212508.00,A,3114.53934,N,12117.69271,E,0.002,,081217,,,D*68
$GNRMC,212509.00,A,3114.53932,N,12117.69272,E,0.009,,081217,,,D*67
$GNRMC,212510.00,A,3114.53930,N,12117.69274,E,0.006,,081217,,,D*64
$GNRMC,212511.00,A,3114.53928,N,12117.69276,E,0.004,,081217,,,D*6C
$GNRMC,212512.00,A,3114.53926,N,12117.69278,E,0.003,,081217,,,D*68
$GNRMC,212513.00,A,3114.53923,N,12117.69280,E,0.002,,081217,,,D*6A
$GNRMC,212514.00,A,3114.53920,N,12117.69282,E,0.004,,081217,,,D*6A
$GNRMC,212515.00,A,3114.53917,N,12117.69283,E,0.013,,081217,,,D*68
$GNRMC,212516.00,A,3114.53914,N,12117.69284,E,0.004,,081217,,,D*69
$GNRMC,212517.00,A,3114.53911,N,12117.69285,E,0.013,,081217,,,D*6A
$GNRMC,212518.00,A,3114.53908,N,12117.69287,E,0.007,,081217,,,D*6A
$GNRMC,212519.00,A,3114.53905,N,12117.69289,E,0.012,,081217,,,D*6C
$GNRMC,212520.00,A,3114.53902,N,12117.69290,E,0.002,,081217,,,D*68
$GNRMC,212521.00,A,3114.53899,N,12117.69292,E,0.005,,081217,,,D*6F
$GNRMC,212522.00,A,3114.53895,N,12117.69293,E,0.006,,081217,,,D*62
$GNRMC,212523.00,A,3114.53892,N,12117.69294,E,0.003,,081217,,,D*66
$GNRMC,212524.00,A,3114.53889,N,12117.69294,E,0.007,,081217,,,D*6F
$GNRMC,212525.00,A,3114.53885,N,12117.69295,E,0.007,,081217,,,D*63
$GNRMC,212526.00,A,3114.53882,N,12117.69296,E,0.007,,081217,,,D*64
$GNRMC,212527.00,A,3114.53878,N,12117.69296,E,0.005,,081217,,,D*62
$GNRMC,212528.00,A,3114.53875,N,12117.69296,E,0.003,,081217,,,D*66
$GNRMC,212529.00,A,3114.53872,N,12117.69297,E,0.002,,081217,,,D*60
$GNRMC,212530.00,A,3114.53869,N,12117.69297,E,0.002,,081217,,,D*62
$GNRMC,212531.00,A,3114.53866,N,12117.69298,E,0.008,,081217,,,D*69
$GNRMC,212532.00,A,3114.53863,N,12117.69298,E,0.007,,081217,,,D*60
$GNRMC,212533.00,A,3114.53860,N,12117.69298,E,0.003,,081217,,,D*66
$GNRMC,212534.00,A,3114.53857,N,12117.69298,E,0.006,,081217,,,D*60
$GNRMC,212535.00,A,3114.53855,N,12117.69298,E,0.007,,081217,,,D*62
$GNRMC,212536.00,A,3114.53852,N,12117.69298,E,0.004,,081217,,,D*65
$GNRMC,212537.00,A,3114.53849,N,12117.69298,E,0.005,,081217,,,D*6F
$GNRMC,212538.00,A,3114.53847,N,12117.69299,E,0.012,,081217,,,D*69
$GNRMC,212539.00,A,3114.53845,N,12117.69299,E,0.008,,081217,,,D*61
$GNRMC,212540.00,A,3114.53843,N,12117.69299,E,0.007,,081217,,,D*66
$GNRMC,212541.00,A,3114.53842,N,12117.69299,E,0.016,,081217,,,D*66
$GNRMC,212542.00,A,3114.53841,N,12117.69300,E,0.014,,081217,,,D*65
$GNRMC,212543.00,A,3114.53840,N,12117.69301,E,0.008,,081217,,,D*69
$GNRMC,212544.00,A,3114.53838,N,12117.69302,E,0.004,,081217,,,D*6E
$GNRMC,212545.00,A,3114.53837,N,12117.69303,E,0.008,,081217,,,D*6D
$GNRMC,212546.00,A,3114.53837,N,12117.69305,E,0.004,,081217,,,D*64
$GNRMC,212547.00,A,3114.53836,N,12117.69308,E,0.008,,081217,,,D*65
$GNRMC,212548.00,A,3114.53835,N,12117.69310,E,0.009,,081217,,,D*61
$GNRMC,212549.00,A,3114.53834,N,12117.69313,E,0.007,,081217,,,D*6C
$GNRMC,212550.00,A,3114.53833,N,12117.69314,E,0.009,,081217,,,D*6A
$GNRMC,212551.00,A,3114.53833,N,12117.69316,E,0.010,,081217,,,D*61
$GNRMC,212552.00,A,3114.53833,N,12117.69317,E,0.004,,081217,,,D*66
$GNRMC,212553.00,A,3114.53832,N,12117.69318,E,0.006,,081217,,,D*6B
$GNRMC,212554.00,A,3114.53832,N,12117.69319,E,0.006,,081217,,,D*6D
$GNRMC,212555.00,A,3114.53831,N,12117.69321,E,0.010,,081217,,,D*63
$GNRMC,212556.00,A,3114.53830,N,12117.69323,E,0.008,,081217,,,D*6A
$GNRMC,212557.00,A,3114.53829,N,12117.69324,E,0.008,,081217,,,D*64
$GNRMC,212558.00,A,3114.53828,N,12117.69326,E,0.008,,081217,,,D*68
$GNRMC,212559.00,A,3114.53827,N,12117.69327,E,0.001,,081217,,,D*6E
$GNRMC,212600.00,A,3114.53826,N,12117.69329,E,0.009,,081217,,,D*66
$GNRMC,212601.00,A,3114.53825,N,12117.69330,E,0.006,,081217,,,D*63
$GNRMC,212602.00,A,3114.53823,N,12117.69332,E,0.007,,081217,,,D*65
$GNRMC,212603.00,A,3114.53823,N,12117.69332,E,0.007,,081217,,,D*64
$GNRMC,212604.00,A,3114.53822,N,12117.69332,E,0.012,,081217,,,D*66
$GNRMC,212605.00,A,3114.53821,N,12117.69333,E,0.005,,081217,,,D*63
$GNRMC,212606.00,A,3114.53820,N,12117.69334,E,0.009,,081217,,,D*6A
$GNRMC,212607.00,A,3114.53818,N,12117.69335,E,0.011,,081217,,,D*68
$GNRMC,212608.00,A,3114.53817,N,12117.69335,E,0.005,,081217,,,D*6D
$GNRMC,212609.00,A,3114.53816,N,12117.69336,E,0.007,,081217,,,D*6C
$GNRMC,212610.00,A,3114.53814,N,12117.69336,E,0.006,,081217,,,D*67
$GNRMC,212611.00,A,3114.53811,N,12117.69338,E,0.011,,081217,,,D*6B
$GNRMC,212612.00,A,3114.53809,N,12117.69339,E,0.001,,081217,,,D*61
$GNRMC,212613.00,A,3114.53807,N,12117.69340,E,0.003,,081217,,,D*62
$GNRMC,212614.00,A,3114.53804,N,12117.69341,E,0.002,,081217,,,D*66
$GNRMC,212615.00,A,3114.53802,N,12117.69343,E,0.008,,081217,,,D*69
$GNRMC,212616.00,A,3114.53800,N,12117.69344,E,0.001,,081217,,,D*66
$GNRMC,212617.00,A,3114.53798,N,12117.69345,E,0.004,,081217,,,D*6D
$GNRMC,212618.00,A,3114.53795,N,12117.69345,E,0.007,,081217,,,D*6C
$GNRMC,212619.00,A,3114.53794,N,12117.69346,E,0.004,,081217,,,D*6C
$GNRMC,212620.00,A,3114.53793,N,12117.69346,E,0.014,,081217,,,D*60
$GNRMC,212621.00,A,3114.53791,N,12117.69345,E,0.013,,081217,,,D*67
$GNRMC,212622.00,A,3114.53790,N,12117.69344,E,0.009,,081217,,,D*6F
$GNRMC,212623.00,A,3114.53789,N,12117.69343,E,0.010,,081217,,,D*69
$GNRMC,212624.00,A,3114.53789,N,12117.69342,E,0.012,,081217,,,D*6D
$GNRMC,212625.00,A,3114.53788,N,12117.69341,E,0.011,,081217,,,D*6D
$GNRMC,212626.00,A,3114.53788,N,12117.69340,E,0.005,,081217,,,D*6A
$GNRMC,212627.00,A,3114.53788,N,12117.69338,E,0.022,,081217,,,D*61
$GNRMC,212628.00,A,3114.53788,N,12117.69337,E,0.005,,081217,,,D*64
$GNRMC,212629.00,A,3114.53789,N,12117.69335,E,0.009,,081217,,,D*6A
$GNRMC,212630.00,A,3114.53790,N,12117.69333,E,0.013,,081217,,,D*67
$GNRMC,212631.00,A,3114.53790,N,12117.69332,E,0.006,,081217,,,D*63
$GNRMC,212632.00,A,3114.53791,N,12117.69330,E,0.007,,081217,,,D*62
$GNRMC,212633.00,A,3114.53791,N,12117.69329,E,0.015,,081217,,,D*68
$GNRMC,212634.00,A,3114.53792,N,12117.69327,E,0.011,,081217,,,D*66
$GNRMC,212635.00,A,3114.53793,N,12117.69325,E,0.006,,081217,,,D*62
$GNRMC,212636.00,A,3114.53795,N,12117.69323,E,0.009,,081217,,,D*6E
$GNRMC,212637.00,A,3114.53797,N,12117.69321,E,0.019,,081217,,,D*6E
$GNRMC,212638.00,A,3114.53800,N,12117.69317,E,0.008,,081217,,,D*65
$GNRMC,212639.00,A,3114.53802,N,12117.69313,E,0.015,,081217,,,D*6E
$GNRMC,212640.00,A,3114.53805,N,12117.69308,E,0.009,,081217,,,D*60
$GNRMC,212641.00,A,3114.53808,N,12117.69305,E,0.004,,081217,,,D*6C
$GNRMC,212642.00,A,3114.53812,N,12117.69301,E,0.007,,081217,,,D*63
$GNRMC,212643.00,A,3114.53815,N,12117.69297,E,0.011,,081217,,,D*6C
$GNRMC,212644.00,A,3114.53820,N,12117.69294,E,0.019,,081217,,,D*66
$GNRMC,212645.00,A,3114.53823,N,12117.69290,E,0.010,,081217,,,D*69
$GNRMC,212646.00,A,3114.53827,N,12117.69286,E,0.015,,081217,,,D*6C
$GNRMC,212647.00,A,3114.53831,N,12117.69282,E,0.012,,081217,,,D*69
$GNRMC,212648.00,A,3114.53834,N,12117.69278,E,0.012,,081217,,,D*66
$GNRMC,212649.00,A,3114.53839,N,12117.69273,E,0.018,,081217,,,D*6B
$GNRMC,212650.00,A,3114.53843,N,12117.69269,E,0.019,,081217,,,D*64
$GNRMC,212651.00,A,3114.53847,N,12117.69266,E,0.013,,081217,,,D*64
$GNRMC,212652.00,A,3114.53850,N,12117.69263,E,0.010,,081217,,,D*67
$GNRMC,212653.00,A,3114.53853,N,12117.69260,E,0.000,,081217,,,D*67
$GNRMC,212654.00,A,3114.53856,N,12117.69256,E,0.008,,081217,,,D*68
$GNRMC,212655.00,A,3114.53860,N,12117.69253,E,0.006,,081217,,,D*67
$GNRMC,212656.00,A,3114.53862,N,12117.69251,E,0.005,,081217,,,D*67
$GNRMC,212657.00,A,3114.53865,N,12117.69249,E,0.006,,081217,,,D*6B
$GNRMC,212658.00,A,3114.53867,N,12117.69246,E,0.009,,081217,,,D*66
$GNRMC,212659.00,A,3114.53868,N,12117.69244,E,0.004,,081217,,,D*67
$GNRMC,212700.00,A,3114.53869,N,12117.69243,E,0.006,,081217,,,D*6E
$GNRMC,212701.00,A,3114.53870,N,12117.69242,E,0.004,,081217,,,D*64
$GNRMC,212702.00,A,3114.53870,N,12117.69241,E,0.012,,081217,,,D*63
$GNRMC,212703.00,A,3114.53870,N,12117.69241,E,0.006,,081217,,,D*67
$GNRMC,212704.00,A,3114.53870,N,12117.69241,E,0.016,,081217,,,D*61
$GNRMC,212705.00,A,3114.53869,N,12117.69241,E,0.007,,081217,,,D*68
$GNRMC,212706.00,A,3114.53869,N,12117.69241,E,0.013,,081217,,,D*6E
$GNRMC,212707.00,A,3114.53870,N,12117.69240,E,0.005,,081217,,,D*61
$GNRMC,212708.00,A,3114.53870,N,12117.69238,E,0.011,,081217,,,D*64
$GNRMC,212709.00,A,3114.53869,N,12117.69238,E,0.008,,081217,,,D*65
$GNRMC,212710.00,A,3114.53868,N,12117.69238,E,0.001,,081217,,,D*65
$GNRMC,212711.00,A,3114.53867,N,12117.69238,E,0.007,,081217,,,D*6D
$GNRMC,212712.00,A,3114.53866,N,12117.69237,E,0.010,,081217,,,D*66
$GNRMC,212713.00,A,3114.53864,N,12117.69236,E,0.008,,081217,,,D*6D
$GNRMC,212714.00,A,3114.53862,N,12117.69236,E,0.004,,081217,,,D*60
$GNRMC,212715.00,A,3114.53861,N,12117.69235,E,0.009,,081217,,,D*6C
$GNRMC,212716.00,A,3114.53860,N,12117.69234,E,0.002,,081217,,,D*64
$GNRMC,212717.00,A,3114.53859,N,12117.69233,E,0.012,,081217,,,D*69
$GNRMC,212718.00,A,3114.53860,N,12117.69232,E,0.009,,081217,,,D*67
$GNRMC,212719.00,A,3114.53861,N,12117.69231,E,0.010,,081217,,,D*6C
$GNRMC,212720.00,A,3114.53862,N,12117.69229,E,0.013,,081217,,,D*6F
$GNRMC,212721.00,A,3114.53863,N,12117.69227,E,0.009,,081217,,,D*6A
$GNRMC,212722.00,A,3114.53864,N,12117.69225,E,0.004,,081217,,,D*61
$GNRMC,212723.00,A,3114.53866,N,12117.69224,E,0.011,,081217,,,D*67
$GNRMC,212724.00,A,3114.53867,N,12117.69223,E,0.007,,081217,,,D*61
$GNRMC,212725.00,A,3114.53867,N,12117.69222,E,0.005,,081217,,,D*63
$GNRMC,212726.00,A,3114.53869,N,12117.69221,E,0.009,,081217,,,D*61
$GNRMC,212727.00,A,3114.53871,N,12117.69221,E,0.008,,081217,,,D*68
$GNRMC,212728.00,A,3114.53872,N,12117.69220,E,0.015,,081217,,,D*69
$GNRMC,212729.00,A,3114.53874,N,12117.69220,E,0.007,,081217,,,D*6D
$GNRMC,212730.00,A,3114.53875,N,12117.69220,E,0.010,,081217,,,D*62
$GNRMC,212731.00,A,3114.53877,N,12117.69220,E,0.010,,081217,,,D*61
$GNRMC,212732.00,A,3114.53878,N,12117.69220,E,0.002,,081217,,,D*6E
$GNRMC,212733.00,A,3114.53879,N,12117.69220,E,0.012,,081217,,,D*6F
$GNRMC,212734.00,A,3114.53880,N,12117.69221,E,0.012,,081217,,,D*6F
$GNRMC,212735.00,A,3114.53881,N,12117.69222,E,0.005,,081217,,,D*6A
$GNRMC,212736.00,A,3114.53882,N,12117.69223,E,0.006,,081217,,,D*68
$GNRMC,212737.00,A,3114.53883,N,12117.69225,E,0.005,,081217,,,D*6D
$GNRMC,212738.00,A,3114.53884,N,12117.69226,E,0.007,,081217,,,D*64
$GNRMC,212739.00,A,3114.53885,N,12117.69227,E,0.001,,081217,,,D*63
$GNRMC,212740.00,A,3114.53886,N,12117.69228,E,0.006,,081217,,,D*66
$GNRMC,212741.00,A,3114.53887,N,12117.69229,E,0.000,,081217,,,D*61
$GNRMC,212742.00,A,3114.53889,N,12117.69230,E,0.013,,081217,,,D*66
$GNRMC,212743.00,A,3114.53890,N,12117.69230,E,0.010,,081217,,,D*6C
$GNRMC,212744.00,A,3114.53892,N,12117.69230,E,0.013,,081217,,,D*6A
$GNRMC,212745.00,A,3114.53893,N,12117.69231,E,0.005,,081217,,,D*6C
$GNRMC,212746.00,A,3114.53894,N,12117.69232,E,0.009,,081217,,,D*67
$GNRMC,212747.00,A,3114.53895,N,12117.69233,E,0.011,,081217,,,D*6F
$GNRMC,212748.00,A,3114.53895,N,12117.69235,E,0.004,,081217,,,D*62
$GNRMC,212749.00,A,3114.53895,N,12117.69236,E,0.002,,081217,,,D*66
$GNRMC,212750.00,A,3114.53895,N,12117.69237,E,0.007,,081217,,,D*6A
$GNRMC,212751.00,A,3114.53895,N,12117.69239,E,0.011,,081217,,,D*62
$GNRMC,212752.00,A,3114.53895,N,12117.69239,E,0.006,,081217,,,D*67
$GNRMC,212753.00,A,3114.53895,N,12117.69240,E,0.005,,081217,,,D*6B
$GNRMC,212754.00,A,3114.53894,N,12117.69242,E,0.015,,081217,,,D*6E
$GNRMC,212755.00,A,3114.53894,N,12117.69244,E,0.008,,081217,,,D*65
$GNRMC,212756.00,A,3114.53893,N,12117.69246,E,0.003,,081217,,,D*68
$GNRMC,212757.00,A,3114.53893,N,12117.69249,E,0.005,,081217,,,D*60
$GNRMC,212758.00,A,3114.53893,N,12117.69251,E,0.007,,081217,,,D*64
