$GNRMC,211209.00,A,3114.50812,N,12117.64593,E,0.012,,091217,,,A*68
$GNRMC,211210.00,A,3114.50817,N,12117.64592,E,0.029,,091217,,,A*6C
$GNRMC,211211.00,A,3114.50822,N,12117.64589,E,0.020,,091217,,,A*68
$GNRMC,211211.00,A,3114.50827,N,12117.64587,E,0.004,,091217,,,A*65
$GNRMC,211212.00,A,3114.50833,N,12117.64587,E,0.003,,091217,,,A*64
$GNRMC,211213.00,A,3114.50837,N,12117.64589,E,0.010,,091217,,,A*6D
$GNRMC,211214.00,A,3114.50840,N,12117.64592,E,0.014,,091217,,,A*64
$GNRMC,211215.00,A,3114.50840,N,12117.64594,E,0.007,,091217,,,A*61
$GNRMC,211216.00,A,3114.50841,N,12117.64598,E,0.006,,091217,,,A*6E
$GNRMC,211217.00,A,3114.50842,N,12117.64601,E,0.003,,091217,,,A*6A
$GNRMC,211218.00,A,3114.50842,N,12117.64605,E,0.017,,091217,,,A*64
$GNRMC,211219.00,A,3114.50842,N,12117.64608,E,0.005,,091217,,,A*6B
$GNRMC,211220.00,A,3114.50842,N,12117.64611,E,0.008,,091217,,,A*64
$GNRMC,211221.00,A,3114.50842,N,12117.64614,E,0.016,,091217,,,A*6F
$GNRMC,211222.00,A,3114.50842,N,12117.64617,E,0.012,,091217,,,A*6B
$GNRMC,211223.00,A,3114.50842,N,12117.64619,E,0.004,,091217,,,A*63
$GNRMC,211224.00,A,3114.50841,N,12117.64621,E,0.008,,091217,,,A*60
$GNRMC,211225.00,A,3114.50841,N,12117.64621,E,0.007,,091217,,,A*6E
$GNRMC,211226.00,A,3114.50842,N,12117.64622,E,0.002,,091217,,,A*68
$GNRMC,211227.00,A,3114.50844,N,12117.64623,E,0.008,,091217,,,A*64
$GNRMC,211228.00,A,3114.50846,N,12117.64625,E,0.006,,091217,,,A*61
$GNRMC,211229.00,A,3114.50847,N,12117.64626,E,0.003,,091217,,,A*67
$GNRMC,211230.00,A,3114.50847,N,12117.64627,E,0.007,,091217,,,A*6A
$GNRMC,211231.00,A,3114.50847,N,12117.64626,E,0.011,,091217,,,A*6D
$GNRMC,211232.00,A,3114.50845,N,12117.64625,E,0.004,,091217,,,A*6B
$GNRMC,211233.00,A,3114.50845,N,12117.64625,E,0.008,,091217,,,A*66
$GNRMC,211234.00,A,3114.50845,N,12117.64625,E,0.008,,091217,,,A*61
$GNRMC,211235.00,A,3114.50844,N,12117.64625,E,0.011,,091217,,,A*69
$GNRMC,211236.00,A,3114.50844,N,12117.64624,E,0.010,,091217,,,A*6A
$GNRMC,211237.00,A,3114.50844,N,12117.64624,E,0.009,,091217,,,A*63
$GNRMC,211238.00,A,3114.50844,N,12117.64624,E,0.006,,091217,,,A*63
$GNRMC,211239.00,A,3114.50844,N,12117.64624,E,0.008,,091217,,,A*6C
$GNRMC,211240.00,A,3114.50845,N,12117.64623,E,0.011,,091217,,,A*6C
$GNRMC,211241.00,A,3114.50845,N,12117.64622,E,0.008,,091217,,,A*64
$GNRMC,211242.00,A,3114.50846,N,12117.64621,E,0.015,,091217,,,A*6B
$GNRMC,211243.00,A,3114.50847,N,12117.64619,E,0.009,,091217,,,A*6D
$GNRMC,211244.00,A,3114.50848,N,12117.64616,E,0.004,,091217,,,A*67
$GNRMC,211245.00,A,3114.50849,N,12117.64613,E,0.008,,091217,,,A*6E
$GNRMC,211246.00,A,3114.50850,N,12117.64609,E,0.006,,091217,,,A*60
$GNRMC,211247.00,A,3114.50852,N,12117.64604,E,0.009,,091217,,,A*61
$GNRMC,211248.00,A,3114.50853,N,12117.64600,E,0.006,,091217,,,A*64
$GNRMC,211249.00,A,3114.50855,N,12117.64596,E,0.007,,091217,,,A*6E
$GNRMC,211250.00,A,3114.50855,N,12117.64593,E,0.011,,091217,,,A*64
$GNRMC,211251.00,A,3114.50854,N,12117.64589,E,0.010,,091217,,,A*6E
$GNRMC,211252.00,A,3114.50853,N,12117.64587,E,0.006,,091217,,,A*63
$GNRMC,211253.00,A,3114.50853,N,12117.64585,E,0.009,,091217,,,A*6F
$GNRMC,211254.00,A,3114.50852,N,12117.64584,E,0.008,,091217,,,A*69
$GNRMC,211255.00,A,3114.50850,N,12117.64583,E,0.005,,091217,,,A*60
$GNRMC,211256.00,A,3114.50849,N,12117.64582,E,0.017,,091217,,,A*69
$GNRMC,211257.00,A,3114.50847,N,12117.64581,E,0.005,,091217,,,A*66
$GNRMC,211258.00,A,3114.50846,N,12117.64581,E,0.005,,091217,,,A*68
$GNRMC,211259.00,A,3114.50845,N,12117.64580,E,0.002,,091217,,,A*6C
$GNRMC,211300.00,A,3114.50845,N,12117.64580,E,0.010,,091217,,,A*62
$GNRMC,211301.00,A,3114.50844,N,12117.64581,E,0.004,,091217,,,A*66
$GNRMC,211302.00,A,3114.50843,N,12117.64580,E,0.008,,091217,,,A*6F
$GNRMC,211303.00,A,3114.50844,N,12117.64579,E,0.012,,091217,,,A*64
$GNRMC,211304.00,A,3114.50845,N,12117.64578,E,0.005,,091217,,,A*65
$GNRMC,211305.00,A,3114.50846,N,12117.64577,E,0.010,,091217,,,A*6C
$GNRMC,211306.00,A,3114.50847,N,12117.64576,E,0.002,,091217,,,A*6C
$GNRMC,211307.00,A,3114.50848,N,12117.64575,E,0.006,,091217,,,A*65
$GNRMC,211308.00,A,3114.50849,N,12117.64574,E,0.007,,091217,,,A*6B
$GNRMC,211309.00,A,3114.50850,N,12117.64573,E,0.011,,091217,,,A*62
$GNRMC,211310.00,A,3114.50851,N,12117.64571,E,0.010,,091217,,,A*68
$GNRMC,211311.00,A,3114.50851,N,12117.64570,E,0.005,,091217,,,A*6C
$GNRMC,211312.00,A,3114.50852,N,12117.64568,E,0.005,,091217,,,A*65
$GNRMC,211313.00,A,3114.50852,N,12117.64567,E,0.008,,091217,,,A*66
$GNRMC,211314.00,A,3114.50852,N,12117.64565,E,0.007,,091217,,,A*6C
$GNRMC,211315.00,A,3114.50852,N,12117.64564,E,0.010,,091217,,,A*6A
$GNRMC,211316.00,A,3114.50853,N,12117.64563,E,0.007,,091217,,,A*69
$GNRMC,211317.00,A,3114.50854,N,12117.64561,E,0.003,,091217,,,A*69
$GNRMC,211318.00,A,3114.50855,N,12117.64559,E,0.015,,091217,,,A*6B
$GNRMC,211319.00,A,3114.50857,N,12117.64557,E,0.019,,091217,,,A*6A
$GNRMC,211320.00,A,3114.50858,N,12117.64555,E,0.017,,091217,,,A*63
$GNRMC,211321.00,A,3114.50859,N,12117.64552,E,0.012,,091217,,,A*61
$GNRMC,211322.00,A,3114.50859,N,12117.64549,E,0.008,,091217,,,A*63
$GNRMC,211323.00,A,3114.50860,N,12117.64547,E,0.008,,091217,,,A*66
$GNRMC,211324.00,A,3114.50862,N,12117.64543,E,0.011,,091217,,,A*6F
$GNRMC,211325.00,A,3114.50864,N,12117.64539,E,0.006,,091217,,,A*63
$GNRMC,211326.00,A,3114.50866,N,12117.64536,E,0.016,,091217,,,A*6C
$GNRMC,211327.00,A,3114.50867,N,12117.64532,E,0.013,,091217,,,A*6D
$GNRMC,211328.00,A,3114.50869,N,12117.64529,E,0.005,,091217,,,A*61
$GNRMC,211329.00,A,3114.50870,N,12117.64527,E,0.010,,091217,,,A*62
$GNRMC,211330.00,A,3114.50872,N,12117.64524,E,0.016,,091217,,,A*6D
$GNRMC,211331.00,A,3114.50874,N,12117.64521,E,0.016,,091217,,,A*6F
$GNRMC,211332.00,A,3114.50876,N,12117.64518,E,0.006,,091217,,,A*65
$GNRMC,211333.00,A,3114.50877,N,12117.64516,E,0.011,,091217,,,A*6D
$GNRMC,211334.00,A,3114.50879,N,12117.64514,E,0.001,,091217,,,A*67
$GNRMC,211335.00,A,3114.50880,N,12117.64513,E,0.011,,091217,,,A*66
$GNRMC,211336.00,A,3114.50880,N,12117.64512,E,0.003,,091217,,,A*67
$GNRMC,211337.00,A,3114.50881,N,12117.64512,E,0.007,,091217,,,A*63
$GNRMC,211338.00,A,3114.50882,N,12117.64511,E,0.011,,091217,,,A*6B
$GNRMC,211339.00,A,3114.50883,N,12117.64511,E,0.010,,091217,,,A*6A
$GNRMC,211340.00,A,3114.50884,N,12117.64511,E,0.014,,091217,,,A*67
$GNRMC,211341.00,A,3114.50885,N,12117.64509,E,0.011,,091217,,,A*6B
$GNRMC,211342.00,A,3114.50885,N,12117.64507,E,0.009,,091217,,,A*6F
$GNRMC,211343.00,A,3114.50885,N,12117.64507,E,0.003,,091217,,,A*64
$GNRMC,211344.00,A,3114.50884,N,12117.64507,E,0.003,,091217,,,A*62
$GNRMC,211345.00,A,3114.50882,N,12117.64508,E,0.007,,091217,,,A*6E
$GNRMC,211346.00,A,3114.50880,N,12117.64509,E,0.005,,091217,,,A*6C
$GNRMC,211347.00,A,3114.50879,N,12117.64511,E,0.008,,091217,,,A*6F
$GNRMC,211348.00,A,3114.50878,N,12117.64512,E,0.003,,091217,,,A*69
$GNRMC,211349.00,A,3114.50877,N,12117.64514,E,0.007,,091217,,,A*65
$GNRMC,211350.00,A,3114.50876,N,12117.64516,E,0.011,,091217,,,A*69
$GNRMC,211351.00,A,3114.50875,N,12117.64518,E,0.009,,091217,,,A*6C
$GNRMC,211352.00,A,3114.50874,N,12117.64519,E,0.003,,091217,,,A*65
$GNRMC,211353.00,A,3114.50873,N,12117.64519,E,0.015,,091217,,,A*64
$GNRMC,211354.00,A,3114.50872,N,12117.64520,E,0.009,,091217,,,A*65
$GNRMC,211355.00,A,3114.50871,N,12117.64520,E,0.008,,091217,,,A*66
$GNRMC,211356.00,A,3114.50871,N,12117.64520,E,0.007,,091217,,,A*6A
$GNRMC,211357.00,A,3114.50871,N,12117.64519,E,0.015,,091217,,,A*62
$GNRMC,211358.00,A,3114.50871,N,12117.64519,E,0.008,,091217,,,A*61
$GNRMC,211359.00,A,3114.50871,N,12117.64518,E,0.006,,091217,,,A*6F
$GNRMC,211400.00,A,3114.50872,N,12117.64517,E,0.016,,091217,,,A*69
$GNRMC,211401.00,A,3114.50873,N,12117.64515,E,0.010,,091217,,,A*6D
$GNRMC,211402.00,A,3114.50873,N,12117.64513,E,0.004,,091217,,,A*6D
$GNRMC,211403.00,A,3114.50874,N,12117.64511,E,0.017,,091217,,,A*6B
$GNRMC,211404.00,A,3114.50875,N,12117.64509,E,0.007,,091217,,,A*65
$GNRMC,211405.00,A,3114.50876,N,12117.64506,E,0.016,,091217,,,A*68
$GNRMC,211406.00,A,3114.50877,N,12117.64504,E,0.016,,091217,,,A*68
$GNRMC,211407.00,A,3114.50878,N,12117.64502,E,0.015,,091217,,,A*63
$GNRMC,211408.00,A,3114.50879,N,12117.64501,E,0.013,,091217,,,A*68
$GNRMC,211409.00,A,3114.50880,N,12117.64500,E,0.009,,091217,,,A*65
$GNRMC,211410.00,A,3114.50880,N,12117.64500,E,0.008,,091217,,,A*6C
$GNRMC,211411.00,A,3114.50880,N,12117.64501,E,0.008,,091217,,,A*6C
$GNRMC,211412.00,A,3114.50880,N,12117.64501,E,0.007,,091217,,,A*60
$GNRMC,211413.00,A,3114.50880,N,12117.64502,E,0.010,,091217,,,A*64
$GNRMC,211414.00,A,3114.50880,N,12117.64503,E,0.011,,091217,,,A*63
$GNRMC,211415.00,A,3114.50879,N,12117.64504,E,0.003,,091217,,,A*60
$GNRMC,211416.00,A,3114.50878,N,12117.64506,E,0.010,,091217,,,A*62
$GNRMC,211417.00,A,3114.50877,N,12117.64507,E,0.002,,091217,,,A*6E
$GNRMC,211418.00,A,3114.50877,N,12117.64507,E,0.011,,091217,,,A*63
$GNRMC,211419.00,A,3114.50876,N,12117.64508,E,0.014,,091217,,,A*69
$GNRMC,211420.00,A,3114.50876,N,12117.64508,E,0.014,,091217,,,A*63
$GNRMC,211421.00,A,3114.50875,N,12117.64508,E,0.008,,091217,,,A*6C
$GNRMC,211422.00,A,3114.50874,N,12117.64508,E,0.010,,091217,,,A*67
$GNRMC,211423.00,A,3114.50874,N,12117.64508,E,0.005,,091217,,,A*62
$GNRMC,211424.00,A,3114.50874,N,12117.64508,E,0.004,,091217,,,A*64
$GNRMC,211425.00,A,3114.50873,N,12117.64508,E,0.012,,091217,,,A*65
$GNRMC,211426.00,A,3114.50873,N,12117.64509,E,0.005,,091217,,,A*61
$GNRMC,211427.00,A,3114.50873,N,12117.64509,E,0.008,,091217,,,A*6D
$GNRMC,211428.00,A,3114.50873,N,12117.64508,E,0.008,,091217,,,A*63
$GNRMC,211429.00,A,3114.50873,N,12117.64508,E,0.011,,091217,,,A*6A
$GNRMC,211430.00,A,3114.50874,N,12117.64508,E,0.018,,091217,,,A*6C
$GNRMC,211431.00,A,3114.50874,N,12117.64508,E,0.008,,091217,,,A*6C
$GNRMC,211432.00,A,3114.50874,N,12117.64507,E,0.007,,091217,,,A*6F
$GNRMC,211433.00,A,3114.50875,N,12117.64506,E,0.007,,091217,,,A*6E
$GNRMC,211434.00,A,3114.50874,N,12117.64505,E,0.015,,091217,,,A*68
$GNRMC,211435.00,A,3114.50873,N,12117.64504,E,0.009,,091217,,,A*62
$GNRMC,211436.00,A,3114.50873,N,12117.64503,E,0.005,,091217,,,A*6A
$GNRMC,211437.00,A,3114.50872,N,12117.64503,E,0.009,,091217,,,A*66
$GNRMC,211438.00,A,3114.50871,N,12117.64502,E,0.006,,091217,,,A*64
$GNRMC,211439.00,A,3114.50869,N,12117.64500,E,0.034,,091217,,,D*6A
$GNRMC,211440.00,A,3114.50867,N,12117.64499,E,0.020,,091217,,,D*6E
$GNRMC,211441.00,A,3114.50865,N,12117.64497,E,0.007,,091217,,,D*66
$GNRMC,211442.00,A,3114.50863,N,12117.64495,E,0.009,,091217,,,D*6F
$GNRMC,211443.00,A,3114.50860,N,12117.64494,E,0.004,,091217,,,D*61
$GNRMC,211444.00,A,3114.50857,N,12117.64493,E,0.011,,091217,,,D*61
$GNRMC,211445.00,A,3114.50856,N,12117.64491,E,0.008,,091217,,,D*6B
$GNRMC,211446.00,A,3114.50854,N,12117.64490,E,0.006,,091217,,,D*65
$GNRMC,211447.00,A,3114.50852,N,12117.64490,E,0.004,,091217,,,D*60
$GNRMC,211448.00,A,3114.50850,N,12117.64489,E,0.004,,091217,,,D*65
$GNRMC,211449.00,A,3114.50846,N,12117.64489,E,0.014,,091217,,,D*62
$GNRMC,211450.00,A,3114.50843,N,12117.64488,E,0.008,,091217,,,D*63
$GNRMC,211451.00,A,3114.50840,N,12117.64487,E,0.017,,091217,,,D*60
$GNRMC,211452.00,A,3114.50837,N,12117.64486,E,0.008,,091217,,,D*6C
$GNRMC,211453.00,A,3114.50835,N,12117.64483,E,0.014,,091217,,,D*67
$GNRMC,211454.00,A,3114.50832,N,12117.64481,E,0.004,,091217,,,D*64
$GNRMC,211455.00,A,3114.50830,N,12117.64479,E,0.013,,091217,,,D*66
$GNRMC,211456.00,A,3114.50829,N,12117.64476,E,0.008,,091217,,,D*68
$GNRMC,211457.00,A,3114.50827,N,12117.64475,E,0.008,,091217,,,D*64
$GNRMC,211458.00,A,3114.50825,N,12117.64473,E,0.005,,091217,,,D*62
$GNRMC,211459.00,A,3114.50823,N,12117.64472,E,0.003,,091217,,,D*62
$GNRMC,211500.00,A,3114.50821,N,12117.64470,E,0.013,,091217,,,D*6E
$GNRMC,211501.00,A,3114.50820,N,12117.64469,E,0.009,,091217,,,D*6D
$GNRMC,211502.00,A,3114.50819,N,12117.64467,E,0.011,,091217,,,D*63
$GNRMC,211503.00,A,3114.50818,N,12117.64465,E,0.007,,091217,,,D*66
$GNRMC,211504.00,A,3114.50817,N,12117.64463,E,0.004,,091217,,,D*6B
$GNRMC,211505.00,A,3114.50816,N,12117.64461,E,0.010,,091217,,,D*6C
$GNRMC,211506.00,A,3114.50815,N,12117.64460,E,0.003,,091217,,,D*6F
$GNRMC,211507.00,A,3114.50816,N,12117.64458,E,0.012,,091217,,,D*66
$GNRMC,211508.00,A,3114.50816,N,12117.64456,E,0.008,,091217,,,D*6C
$GNRMC,211509.00,A,3114.50817,N,12117.64454,E,0.014,,091217,,,D*63
$GNRMC,211510.00,A,3114.50818,N,12117.64452,E,0.028,,091217,,,D*6D
$GNRMC,211511.00,A,3114.50821,N,12117.64451,E,0.010,,091217,,,D*6E
$GNRMC,211512.00,A,3114.50824,N,12117.64450,E,0.042,,091217,,,A*6B
$GNRMC,211513.00,A,3114.50827,N,12117.64449,E,0.011,,091217,,,A*67
$GNRMC,211514.00,A,3114.50829,N,12117.64449,E,0.011,,091217,,,A*6E
$GNRMC,211515.00,A,3114.50831,N,12117.64449,E,0.009,,091217,,,A*6F
$GNRMC,211516.00,A,3114.50832,N,12117.64449,E,0.001,,091217,,,A*67
$GNRMC,211517.00,A,3114.50833,N,12117.64449,E,0.002,,091217,,,A*64
$GNRMC,211518.00,A,3114.50835,N,12117.64448,E,0.015,,091217,,,A*6A
$GNRMC,211519.00,A,3114.50837,N,12117.64448,E,0.008,,091217,,,A*65
$GNRMC,211520.00,A,3114.50838,N,12117.64449,E,0.020,,091217,,,A*6B
$GNRMC,211521.00,A,3114.50838,N,12117.64449,E,0.012,,091217,,,A*6B
$GNRMC,211522.00,A,3114.50839,N,12117.64449,E,0.006,,091217,,,A*6C
$GNRMC,211523.00,A,3114.50840,N,12117.64450,E,0.002,,091217,,,A*6F
$GNRMC,211524.00,A,3114.50839,N,12117.64450,E,0.009,,091217,,,A*6D
$GNRMC,211525.00,A,3114.50840,N,12117.64450,E,0.005,,091217,,,A*6E
$GNRMC,211526.00,A,3114.50841,N,12117.64451,E,0.007,,091217,,,A*6F
$GNRMC,211527.00,A,3114.50842,N,12117.64450,E,0.004,,091217,,,A*6F
$GNRMC,211528.00,A,3114.50843,N,12117.64450,E,0.012,,091217,,,A*66
$GNRMC,211529.00,A,3114.50843,N,12117.64451,E,0.001,,091217,,,A*64
$GNRMC,211530.00,A,3114.50843,N,12117.64452,E,0.010,,091217,,,A*6F
$GNRMC,211531.00,A,3114.50844,N,12117.64452,E,0.010,,091217,,,A*69
$GNRMC,211532.00,A,3114.50843,N,12117.64453,E,0.007,,091217,,,A*6A
$GNRMC,211533.00,A,3114.50843,N,12117.64453,E,0.007,,091217,,,A*6B
$GNRMC,211534.00,A,3114.50844,N,12117.64453,E,0.013,,091217,,,A*6E
$GNRMC,211535.00,A,3114.50845,N,12117.64453,E,0.016,,091217,,,A*6B
$GNRMC,211536.00,A,3114.50847,N,12117.64453,E,0.008,,091217,,,A*65
$GNRMC,211537.00,A,3114.50848,N,12117.64452,E,0.004,,091217,,,A*66
$GNRMC,211538.00,A,3114.50850,N,12117.64451,E,0.014,,091217,,,A*62
$GNRMC,211539.00,A,3114.50851,N,12117.64450,E,0.011,,091217,,,A*66
$GNRMC,211540.00,A,3114.50853,N,12117.64450,E,0.011,,091217,,,A*6A
$GNRMC,211541.00,A,3114.50855,N,12117.64449,E,0.011,,091217,,,A*65
$GNRMC,211542.00,A,3114.50855,N,12117.64450,E,0.012,,091217,,,A*6D
$GNRMC,211543.00,A,3114.50856,N,12117.64450,E,0.007,,091217,,,A*6B
$GNRMC,211544.00,A,3114.50857,N,12117.64451,E,0.005,,091217,,,A*6E
$GNRMC,211545.00,A,3114.50856,N,12117.64451,E,0.010,,091217,,,A*6A
$GNRMC,211546.00,A,3114.50855,N,12117.64452,E,0.008,,091217,,,A*60
$GNRMC,211547.00,A,3114.50855,N,12117.64452,E,0.005,,091217,,,A*6C
$GNRMC,211548.00,A,3114.50856,N,12117.64452,E,0.006,,091217,,,A*63
$GNRMC,211549.00,A,3114.50858,N,12117.64452,E,0.007,,091217,,,A*6D
$GNRMC,211550.00,A,3114.50860,N,12117.64453,E,0.013,,091217,,,A*6A
$GNRMC,211551.00,A,3114.50863,N,12117.64453,E,0.014,,091217,,,A*6F
$GNRMC,211552.00,A,3114.50866,N,12117.64454,E,0.011,,091217,,,A*6B
$GNRMC,211553.00,A,3114.50868,N,12117.64456,E,0.012,,091217,,,A*65
$GNRMC,211554.00,A,3114.50871,N,12117.64458,E,0.003,,091217,,,A*64
$GNRMC,211555.00,A,3114.50874,N,12117.64460,E,0.007,,091217,,,A*6F
$GNRMC,211556.00,A,3114.50877,N,12117.64461,E,0.012,,091217,,,A*6A
$GNRMC,211557.00,A,3114.50879,N,12117.64462,E,0.012,,091217,,,A*66
$GNRMC,211558.00,A,3114.50882,N,12117.64463,E,0.009,,091217,,,A*66
$GNRMC,211559.00,A,3114.50885,N,12117.64463,E,0.006,,091217,,,A*6F
$GNRMC,211600.00,A,3114.50888,N,12117.64464,E,0.009,,091217,,,A*65
$GNRMC,211601.00,A,3114.50890,N,12117.64465,E,0.008,,091217,,,A*6D
$GNRMC,211602.00,A,3114.50893,N,12117.64465,E,0.007,,091217,,,A*62
$GNRMC,211603.00,A,3114.50895,N,12117.64465,E,0.005,,091217,,,A*67
$GNRMC,211604.00,A,3114.50897,N,12117.64465,E,0.002,,091217,,,A*65
$GNRMC,211605.00,A,3114.50899,N,12117.64466,E,0.007,,091217,,,A*6C
$GNRMC,211606.00,A,3114.50900,N,12117.64466,E,0.016,,091217,,,A*6E
$GNRMC,211607.00,A,3114.50901,N,12117.64465,E,0.009,,091217,,,A*63
$GNRMC,211608.00,A,3114.50901,N,12117.64465,E,0.007,,091217,,,A*62
$GNRMC,211609.00,A,3114.50901,N,12117.64464,E,0.004,,091217,,,A*61
$GNRMC,211610.00,A,3114.50901,N,12117.64463,E,0.023,,091217,,,A*6B
$GNRMC,211611.00,A,3114.50902,N,12117.64462,E,0.013,,091217,,,A*6B
$GNRMC,211612.00,A,3114.50902,N,12117.64460,E,0.014,,091217,,,A*6D
$GNRMC,211613.00,A,3114.50902,N,12117.64458,E,0.014,,091217,,,A*67
$GNRMC,211614.00,A,3114.50903,N,12117.64456,E,0.021,,091217,,,A*69
$GNRMC,211615.00,A,3114.50903,N,12117.64455,E,0.008,,091217,,,A*60
$GNRMC,211616.00,A,3114.50903,N,12117.64453,E,0.015,,091217,,,A*69
$GNRMC,211617.00,A,3114.50904,N,12117.64451,E,0.007,,091217,,,A*6E
$GNRMC,211618.00,A,3114.50904,N,12117.64449,E,0.012,,091217,,,A*6C
$GNRMC,211619.00,A,3114.50904,N,12117.64448,E,0.002,,091217,,,A*6D
$GNRMC,211620.00,A,3114.50905,N,12117.64446,E,0.011,,091217,,,A*6A
$GNRMC,211621.00,A,3114.50905,N,12117.64445,E,0.018,,091217,,,A*61
$GNRMC,211622.00,A,3114.50904,N,12117.64445,E,0.006,,091217,,,A*6C
$GNRMC,211623.00,A,3114.50903,N,12117.64445,E,0.008,,091217,,,A*64
$GNRMC,211624.00,A,3114.50901,N,12117.64445,E,0.008,,091217,,,A*61
$GNRMC,211625.00,A,3114.50899,N,12117.64445,E,0.010,,091217,,,A*69
$GNRMC,211626.00,A,3114.50897,N,12117.64446,E,0.010,,091217,,,A*67
$GNRMC,211627.00,A,3114.50896,N,12117.64447,E,0.006,,091217,,,A*61
$GNRMC,211628.00,A,3114.50895,N,12117.64447,E,0.016,,091217,,,A*6C
$GNRMC,211629.00,A,3114.50892,N,12117.64448,E,0.002,,091217,,,A*60
$GNRMC,211630.00,A,3114.50890,N,12117.64448,E,0.012,,091217,,,A*6B
$GNRMC,211631.00,A,3114.50888,N,12117.64449,E,0.005,,091217,,,A*64
$GNRMC,211632.00,A,3114.50886,N,12117.64449,E,0.005,,091217,,,A*69
$GNRMC,211633.00,A,3114.50883,N,12117.64450,E,0.008,,091217,,,A*68
$GNRMC,211634.00,A,3114.50881,N,12117.64451,E,0.007,,091217,,,A*63
$GNRMC,211635.00,A,3114.50879,N,12117.64452,E,0.013,,091217,,,A*63
$GNRMC,211636.00,A,3114.50876,N,12117.64454,E,0.008,,091217,,,A*63
$GNRMC,211637.00,A,3114.50873,N,12117.64455,E,0.008,,091217,,,A*66
$GNRMC,211638.00,A,3114.50870,N,12117.64458,E,0.010,,091217,,,A*6E
$GNRMC,211639.00,A,3114.50867,N,12117.64459,E,0.011,,091217,,,A*69
$GNRMC,211640.00,A,3114.50864,N,12117.64460,E,0.012,,091217,,,A*6D
$GNRMC,211641.00,A,3114.50861,N,12117.64461,E,0.012,,091217,,,A*68
$GNRMC,211642.00,A,3114.50860,N,12117.64461,E,0.015,,091217,,,A*6D
$GNRMC,211643.00,A,3114.50858,N,12117.64462,E,0.004,,091217,,,A*64
$GNRMC,211644.00,A,3114.50855,N,12117.64462,E,0.007,,091217,,,A*6D
$GNRMC,211645.00,A,3114.50853,N,12117.64462,E,0.008,,091217,,,A*65
$GNRMC,211646.00,A,3114.50850,N,12117.64462,E,0.007,,091217,,,A*6A
$GNRMC,211647.00,A,3114.50848,N,12117.64461,E,0.011,,091217,,,A*66
$GNRMC,211648.00,A,3114.50844,N,12117.64461,E,0.015,,091217,,,A*61
$GNRMC,211649.00,A,3114.50841,N,12117.64461,E,0.004,,091217,,,A*65
$GNRMC,211650.00,A,3114.50840,N,12117.64459,E,0.010,,091217,,,A*62
$GNRMC,211651.00,A,3114.50836,N,12117.64459,E,0.008,,091217,,,A*6B
$GNRMC,211652.00,A,3114.50835,N,12117.64457,E,0.011,,091217,,,A*6D
$GNRMC,211653.00,A,3114.50835,N,12117.64456,E,0.019,,091217,,,A*65
$GNRMC,211654.00,A,3114.50832,N,12117.64455,E,0.009,,091217,,,A*67
$GNRMC,211655.00,A,3114.50829,N,12117.64453,E,0.007,,091217,,,A*64
$GNRMC,211656.00,A,3114.50826,N,12117.64452,E,0.015,,091217,,,A*6A
$GNRMC,211657.00,A,3114.50825,N,12117.64451,E,0.006,,091217,,,A*69
$GNRMC,211658.00,A,3114.50824,N,12117.64450,E,0.014,,091217,,,A*65
$GNRMC,211659.00,A,3114.50824,N,12117.64450,E,0.010,,091217,,,A*60
$GNRMC,211700.00,A,3114.50824,N,12117.64449,E,0.014,,091217,,,A*61
$GNRMC,211701.00,A,3114.50824,N,12117.64448,E,0.013,,091217,,,A*66
$GNRMC,211702.00,A,3114.50824,N,12117.64447,E,0.020,,091217,,,A*6A
$GNRMC,211703.00,A,3114.50825,N,12117.64444,E,0.004,,091217,,,A*6F
$GNRMC,211704.00,A,3114.50824,N,12117.64442,E,0.007,,091217,,,A*6C
$GNRMC,211705.00,A,3114.50824,N,12117.64440,E,0.007,,091217,,,A*6F
$GNRMC,211706.00,A,3114.50825,N,12117.64437,E,0.005,,091217,,,A*6F
$GNRMC,211707.00,A,3114.50825,N,12117.64434,E,0.014,,091217,,,A*6D
$GNRMC,211708.00,A,3114.50826,N,12117.64431,E,0.006,,091217,,,A*67
$GNRMC,211709.00,A,3114.50825,N,12117.64429,E,0.010,,091217,,,A*6B
$GNRMC,211710.00,A,3114.50825,N,12117.64428,E,0.012,,091217,,,A*60
$GNRMC,211711.00,A,3114.50825,N,12117.64426,E,0.013,,091217,,,A*6E
$GNRMC,211712.00,A,3114.50824,N,12117.64426,E,0.002,,091217,,,A*6C
$GNRMC,211713.00,A,3114.50823,N,12117.64426,E,0.004,,091217,,,A*6C
$GNRMC,211714.00,A,3114.50823,N,12117.64426,E,0.012,,091217,,,A*6C
$GNRMC,211715.00,A,3114.50823,N,12117.64426,E,0.002,,091217,,,A*6C
$GNRMC,211716.00,A,3114.50823,N,12117.64426,E,0.006,,091217,,,A*6B
$GNRMC,211717.00,A,3114.50824,N,12117.64427,E,0.000,,091217,,,A*6A
$GNRMC,211718.00,A,3114.50824,N,12117.64428,E,0.004,,091217,,,A*6E
$GNRMC,211719.00,A,3114.50826,N,12117.64429,E,0.003,,091217,,,A*6B
$GNRMC,211720.00,A,3114.50827,N,12117.64430,E,0.010,,091217,,,D*6F
$GNRMC,211721.00,A,3114.50826,N,12117.64432,E,0.012,,091217,,,D*6F
$GNRMC,211722.00,A,3114.50826,N,12117.64434,E,0.008,,091217,,,D*61
$GNRMC,211723.00,A,3114.50826,N,12117.64436,E,0.006,,091217,,,D*6C
$GNRMC,211724.00,A,3114.50826,N,12117.64439,E,0.002,,091217,,,D*60
$GNRMC,211725.00,A,3114.50826,N,12117.64441,E,0.007,,091217,,,D*6B
$GNRMC,211726.00,A,3114.50827,N,12117.64444,E,0.005,,091217,,,D*6E
$GNRMC,211727.00,A,3114.50828,N,12117.64446,E,0.014,,091217,,,D*62
$GNRMC,211728.00,A,3114.50830,N,12117.64448,E,0.006,,091217,,,D*69
$GNRMC,211729.00,A,3114.50832,N,12117.64451,E,0.003,,091217,,,D*67
$GNRMC,211730.00,A,3114.50832,N,12117.64454,E,0.007,,091217,,,D*6E
$GNRMC,211731.00,A,3114.50833,N,12117.64457,E,0.005,,091217,,,D*6F
$GNRMC,211732.00,A,3114.50833,N,12117.64459,E,0.006,,091217,,,D*61
$GNRMC,211733.00,A,3114.50835,N,12117.64462,E,0.006,,091217,,,D*6E
$GNRMC,211734.00,A,3114.50837,N,12117.64463,E,0.001,,091217,,,D*6D
$GNRMC,211735.00,A,3114.50838,N,12117.64465,E,0.009,,091217,,,D*6D
$GNRMC,211736.00,A,3114.50841,N,12117.64467,E,0.005,,091217,,,D*6E
$GNRMC,211737.00,A,3114.50844,N,12117.64468,E,0.002,,091217,,,D*62
$GNRMC,211738.00,A,3114.50846,N,12117.64470,E,0.004,,091217,,,D*60
$GNRMC,211739.00,A,3114.50848,N,12117.64471,E,0.008,,091217,,,D*62
$GNRMC,211740.00,A,3114.50850,N,12117.64473,E,0.004,,091217,,,D*6B
$GNRMC,211741.00,A,3114.50851,N,12117.64475,E,0.019,,091217,,,D*61
$GNRMC,211742.00,A,3114.50851,N,12117.64477,E,0.012,,091217,,,D*6B
$GNRMC,211743.00,A,3114.50851,N,12117.64479,E,0.015,,091217,,,D*63
$GNRMC,211744.00,A,3114.50850,N,12117.64481,E,0.003,,091217,,,D*65
$GNRMC,211745.00,A,3114.50850,N,12117.64482,E,0.002,,091217,,,D*66
$GNRMC,211746.00,A,3114.50850,N,12117.64482,E,0.014,,091217,,,D*62
$GNRMC,211747.00,A,3114.50849,N,12117.64483,E,0.004,,091217,,,D*6B
$GNRMC,211748.00,A,3114.50848,N,12117.64484,E,0.004,,091217,,,D*62
$GNRMC,211749.00,A,3114.50846,N,12117.64486,E,0.012,,091217,,,D*68
$GNRMC,211750.00,A,3114.50844,N,12117.64487,E,0.003,,091217,,,D*63
$GNRMC,211751.00,A,3114.50841,N,12117.64488,E,0.017,,091217,,,D*6D
$GNRMC,211752.00,A,3114.50838,N,12117.64490,E,0.020,,091217,,,D*6D
$GNRMC,211753.00,A,3114.50834,N,12117.64492,E,0.014,,091217,,,D*65
$GNRMC,211754.00,A,3114.50831,N,12117.64493,E,0.007,,091217,,,D*64
$GNRMC,211755.00,A,3114.50828,N,12117.64495,E,0.003,,091217,,,D*6F
$GNRMC,211756.00,A,3114.50826,N,12117.64497,E,0.002,,091217,,,D*61
$GNRMC,211757.00,A,3114.50824,N,12117.64499,E,0.013,,091217,,,D*6C
$GNRMC,211758.00,A,3114.50822,N,12117.64501,E,0.002,,091217,,,D*65
$GNRMC,211759.00,A,3114.50820,N,12117.64503,E,0.006,,091217,,,D*60
$GNRMC,211800.00,A,3114.50818,N,12117.64505,E,0.009,,091217,,,D*61
$GNRMC,211801.00,A,3114.50816,N,12117.64507,E,0.007,,091217,,,D*62
$GNRMC,211802.00,A,3114.50814,N,12117.64509,E,0.016,,091217,,,D*6D
$GNRMC,211803.00,A,3114.50811,N,12117.64511,E,0.011,,091217,,,D*67
$GNRMC,211804.00,A,3114.50808,N,12117.64514,E,0.004,,091217,,,D*69
$GNRMC,211805.00,A,3114.50806,N,12117.64516,E,0.024,,091217,,,D*66
$GNRMC,211806.00,A,3114.50804,N,12117.64519,E,0.005,,091217,,,D*6B
$GNRMC,211807.00,A,3114.50803,N,12117.64521,E,0.011,,091217,,,D*63
$GNRMC,211808.00,A,3114.50802,N,12117.64523,E,0.007,,091217,,,D*68
$GNRMC,211809.00,A,3114.50802,N,12117.64525,E,0.004,,091217,,,D*6C
$GNRMC,211810.00,A,3114.50802,N,12117.64524,E,0.006,,091217,,,D*67
$GNRMC,211811.00,A,3114.50802,N,12117.64523,E,0.012,,091217,,,D*64
$GNRMC,211812.00,A,3114.50802,N,12117.64523,E,0.006,,091217,,,D*62
$GNRMC,211813.00,A,3114.50802,N,12117.64522,E,0.003,,091217,,,D*67
$GNRMC,211814.00,A,3114.50801,N,12117.64523,E,0.014,,091217,,,D*64
$GNRMC,211815.00,A,3114.50800,N,12117.64523,E,0.006,,091217,,,D*67
$GNRMC,211816.00,A,3114.50799,N,12117.64522,E,0.005,,091217,,,D*69
$GNRMC,211817.00,A,3114.50797,N,12117.64523,E,0.002,,091217,,,D*60
$GNRMC,211818.00,A,3114.50795,N,12117.64524,E,0.004,,091217,,,D*6C
$GNRMC,211819.00,A,3114.50793,N,12117.64524,E,0.002,,091217,,,D*6D
$GNRMC,211820.00,A,3114.50791,N,12117.64524,E,0.008,,091217,,,D*6F
$GNRMC,211821.00,A,3114.50790,N,12117.64525,E,0.003,,091217,,,D*65
$GNRMC,211822.00,A,3114.50788,N,12117.64525,E,0.012,,091217,,,D*6F
$GNRMC,211823.00,A,3114.50786,N,12117.64525,E,0.006,,091217,,,D*65
$GNRMC,211824.00,A,3114.50784,N,12117.64525,E,0.006,,091217,,,D*60
$GNRMC,211825.00,A,3114.50782,N,12117.64526,E,0.005,,091217,,,D*67
$GNRMC,211826.00,A,3114.50780,N,12117.64526,E,0.015,,091217,,,D*67
$GNRMC,211827.00,A,3114.50778,N,12117.64528,E,0.007,,091217,,,D*6C
$GNRMC,211828.00,A,3114.50777,N,12117.64529,E,0.008,,091217,,,D*62
$GNRMC,211829.00,A,3114.50776,N,12117.64530,E,0.004,,091217,,,D*66
$GNRMC,211830.00,A,3114.50775,N,12117.64531,E,0.005,,091217,,,D*6D
$GNRMC,211831.00,A,3114.50774,N,12117.64532,E,0.013,,091217,,,D*69
$GNRMC,211832.00,A,3114.50773,N,12117.64533,E,0.014,,091217,,,D*6B
$GNRMC,211833.00,A,3114.50772,N,12117.64535,E,0.003,,091217,,,D*6B
$GNRMC,211834.00,A,3114.50771,N,12117.64536,E,0.000,,091217,,,D*6F
$GNRMC,211835.00,A,3114.50770,N,12117.64537,E,0.005,,091217,,,D*6B
$GNRMC,211836.00,A,3114.50770,N,12117.64538,E,0.008,,091217,,,D*6A
$GNRMC,211837.00,A,3114.50769,N,12117.64539,E,0.003,,091217,,,D*69
$GNRMC,211838.00,A,3114.50768,N,12117.64540,E,0.012,,091217,,,D*69
$GNRMC,211839.00,A,3114.50767,N,12117.64540,E,0.015,,091217,,,D*60
$GNRMC,211840.00,A,3114.50766,N,12117.64540,E,0.011,,091217,,,D*6B
$GNRMC,211841.00,A,3114.50765,N,12117.64540,E,0.010,,091217,,,D*68
$GNRMC,211842.00,A,3114.50764,N,12117.64540,E,0.014,,091217,,,D*6E
$GNRMC,211843.00,A,3114.50764,N,12117.64539,E,0.005,,091217,,,D*61
$GNRMC,211844.00,A,3114.50763,N,12117.64539,E,0.005,,091217,,,D*61
$GNRMC,211845.00,A,3114.50763,N,12117.64539,E,0.002,,091217,,,D*67
$GNRMC,211846.00,A,3114.50763,N,12117.64538,E,0.006,,091217,,,D*61
$GNRMC,211847.00,A,3114.50763,N,12117.64537,E,0.008,,091217,,,D*61
$GNRMC,211848.00,A,3114.50763,N,12117.64537,E,0.014,,091217,,,D*63
$GNRMC,211849.00,A,3114.50763,N,12117.64536,E,0.006,,091217,,,D*60
$GNRMC,211850.00,A,3114.50763,N,12117.64536,E,0.003,,091217,,,D*6D
$GNRMC,211851.00,A,3114.50763,N,12117.64536,E,0.009,,091217,,,D*66
$GNRMC,211852.00,A,3114.50764,N,12117.64536,E,0.010,,091217,,,D*6A
$GNRMC,211853.00,A,3114.50764,N,12117.64535,E,0.012,,091217,,,D*6A
$GNRMC,211854.00,A,3114.50764,N,12117.64535,E,0.011,,091217,,,D*6E
$GNRMC,211855.00,A,3114.50765,N,12117.64535,E,0.009,,091217,,,D*67
$GNRMC,211856.00,A,3114.50765,N,12117.64535,E,0.011,,091217,,,D*6D
$GNRMC,211857.00,A,3114.50766,N,12117.64535,E,0.009,,091217,,,D*66
$GNRMC,211858.00,A,3114.50766,N,12117.64534,E,0.009,,091217,,,D*68
$GNRMC,211859.00,A,3114.50767,N,12117.64533,E,0.007,,091217,,,D*61
$GNRMC,211900.00,A,3114.50767,N,12117.64532,E,0.008,,091217,,,D*62
$GNRMC,211901.00,A,3114.50767,N,12117.64530,E,0.007,,091217,,,D*6E
$GNRMC,211902.00,A,3114.50768,N,12117.64529,E,0.013,,091217,,,D*6F
$GNRMC,211903.00,A,3114.50768,N,12117.64527,E,0.009,,091217,,,D*6B
$GNRMC,211904.00,A,3114.50769,N,12117.64525,E,0.013,,091217,,,D*64
$GNRMC,211905.00,A,3114.50769,N,12117.64524,E,0.002,,091217,,,D*64
$GNRMC,211906.00,A,3114.50769,N,12117.64523,E,0.013,,091217,,,D*60
$GNRMC,211907.00,A,3114.50768,N,12117.64522,E,0.012,,091217,,,D*60
$GNRMC,211908.00,A,3114.50768,N,12117.64521,E,0.004,,091217,,,D*6B
$GNRMC,211909.00,A,3114.50767,N,12117.64520,E,0.003,,091217,,,D*63
$GNRMC,211910.00,A,3114.50766,N,12117.64520,E,0.010,,091217,,,D*68
$GNRMC,211911.00,A,3114.50765,N,12117.64519,E,0.010,,091217,,,D*60
$GNRMC,211912.00,A,3114.50764,N,12117.64518,E,0.001,,091217,,,D*63
$GNRMC,211913.00,A,3114.50763,N,12117.64517,E,0.006,,091217,,,D*6D
$GNRMC,211914.00,A,3114.50763,N,12117.64516,E,0.007,,091217,,,D*6A
$GNRMC,211915.00,A,3114.50762,N,12117.64515,E,0.005,,091217,,,D*6B
$GNRMC,211916.00,A,3114.50762,N,12117.64514,E,0.006,,091217,,,D*6A
$GNRMC,211917.00,A,3114.50762,N,12117.64512,E,0.008,,091217,,,D*63
$GNRMC,211918.00,A,3114.50762,N,12117.64511,E,0.009,,091217,,,D*6E
$GNRMC,211919.00,A,3114.50762,N,12117.64510,E,0.008,,091217,,,D*6F
$GNRMC,211920.00,A,3114.50762,N,12117.64508,E,0.008,,091217,,,D*6C
$GNRMC,211921.00,A,3114.50762,N,12117.64507,E,0.013,,091217,,,D*68
$GNRMC,211922.00,A,3114.50763,N,12117.64505,E,0.012,,091217,,,D*69
$GNRMC,211923.00,A,3114.50763,N,12117.64503,E,0.006,,091217,,,D*6B
$GNRMC,211924.00,A,3114.50763,N,12117.64502,E,0.005,,091217,,,D*6E
$GNRMC,211925.00,A,3114.50764,N,12117.64500,E,0.007,,091217,,,D*68
$GNRMC,211926.00,A,3114.50764,N,12117.64499,E,0.003,,091217,,,D*6E
$GNRMC,211927.00,A,3114.50765,N,12117.64497,E,0.005,,091217,,,D*66
$GNRMC,211928.00,A,3114.50765,N,12117.64496,E,0.004,,091217,,,D*69
$GNRMC,211929.00,A,3114.50765,N,12117.64495,E,0.002,,091217,,,D*6D
$GNRMC,211930.00,A,3114.50765,N,12117.64494,E,0.002,,091217,,,D*64
$GNRMC,211931.00,A,3114.50765,N,12117.64493,E,0.011,,091217,,,D*60
$GNRMC,211932.00,A,3114.50765,N,12117.64493,E,0.008,,091217,,,D*6B
$GNRMC,211933.00,A,3114.50764,N,12117.64492,E,0.009,,091217,,,D*6B
$GNRMC,211934.00,A,3114.50764,N,12117.64491,E,0.003,,091217,,,D*65
$GNRMC,211935.00,A,3114.50764,N,12117.64491,E,0.007,,091217,,,D*60
$GNRMC,211936.00,A,3114.50765,N,12117.64490,E,0.011,,091217,,,D*64
$GNRMC,211937.00,A,3114.50765,N,12117.64488,E,0.009,,091217,,,D*65
$GNRMC,211938.00,A,3114.50765,N,12117.64486,E,0.007,,091217,,,D*6A
$GNRMC,211939.00,A,3114.50765,N,12117.64485,E,0.009,,091217,,,D*66
$GNRMC,211940.00,A,3114.50765,N,12117.64484,E,0.009,,091217,,,D*69
$GNRMC,211941.00,A,3114.50765,N,12117.64483,E,0.017,,091217,,,D*60
$GNRMC,211942.00,A,3114.50764,N,12117.64483,E,0.003,,091217,,,D*67
$GNRMC,211943.00,A,3114.50764,N,12117.64482,E,0.010,,091217,,,D*65
$GNRMC,211944.00,A,3114.50764,N,12117.64481,E,0.003,,091217,,,D*63
$GNRMC,211945.00,A,3114.50764,N,12117.64481,E,0.002,,091217,,,D*63
$GNRMC,211946.00,A,3114.50764,N,12117.64482,E,0.006,,091217,,,D*67
$GNRMC,211947.00,A,3114.50763,N,12117.64481,E,0.011,,091217,,,D*64
$GNRMC,211948.00,A,3114.50763,N,12117.64481,E,0.005,,091217,,,D*6E
$GNRMC,211949.00,A,3114.50763,N,12117.64481,E,0.009,,091217,,,D*63
$GNRMC,211950.00,A,3114.50762,N,12117.64481,E,0.007,,091217,,,D*64
$GNRMC,211951.00,A,3114.50762,N,12117.64481,E,0.002,,091217,,,D*60
$GNRMC,211952.00,A,3114.50762,N,12117.64480,E,0.009,,091217,,,D*69
$GNRMC,211953.00,A,3114.50761,N,12117.64481,E,0.005,,091217,,,D*66
$GNRMC,211954.00,A,3114.50761,N,12117.64481,E,0.010,,091217,,,D*65
$GNRMC,211955.00,A,3114.50760,N,12117.64482,E,0.003,,091217,,,D*64
$GNRMC,211956.00,A,3114.50758,N,12117.64483,E,0.004,,091217,,,D*6A
$GNRMC,211957.00,A,3114.50757,N,12117.64484,E,0.002,,091217,,,D*65
$GNRMC,211958.00,A,3114.50756,N,12117.64485,E,0.017,,091217,,,D*6E
$GNRMC,211959.00,A,3114.50754,N,12117.64485,E,0.013,,091217,,,D*69
$GNRMC,212000.00,A,3114.50753,N,12117.64486,E,0.011,,091217,,,D*69
$GNRMC,212001.00,A,3114.50753,N,12117.64486,E,0.004,,091217,,,D*6C
$GNRMC,212002.00,A,3114.50752,N,12117.64485,E,0.006,,091217,,,D*6F
$GNRMC,212003.00,A,3114.50752,N,12117.64485,E,0.003,,091217,,,D*6B
$GNRMC,212004.00,A,3114.50751,N,12117.64485,E,0.003,,091217,,,D*6F
$GNRMC,212005.00,A,3114.50750,N,12117.64485,E,0.009,,091217,,,D*65
$GNRMC,212006.00,A,3114.50749,N,12117.64485,E,0.009,,091217,,,D*6E
$GNRMC,212007.00,A,3114.50748,N,12117.64486,E,0.009,,091217,,,D*6D
$GNRMC,212008.00,A,3114.50746,N,12117.64486,E,0.018,,091217,,,D*6C
$GNRMC,212009.00,A,3114.50744,N,12117.64487,E,0.003,,091217,,,D*64
$GNRMC,212010.00,A,3114.50742,N,12117.64487,E,0.014,,091217,,,D*6C
$GNRMC,212011.00,A,3114.50740,N,12117.64487,E,0.015,,091217,,,D*6E
$GNRMC,212012.00,A,3114.50738,N,12117.64487,E,0.009,,091217,,,D*6F
$GNRMC,212013.00,A,3114.50735,N,12117.64487,E,0.009,,091217,,,D*63
$GNRMC,212014.00,A,3114.50733,N,12117.64487,E,0.003,,091217,,,D*68
$GNRMC,212015.00,A,3114.50730,N,12117.64487,E,0.017,,091217,,,D*6F
$GNRMC,212016.00,A,3114.50728,N,12117.64487,E,0.012,,091217,,,D*60
$GNRMC,212017.00,A,3114.50727,N,12117.64486,E,0.010,,091217,,,D*6D
$GNRMC,212018.00,A,3114.50725,N,12117.64486,E,0.005,,091217,,,D*64
$GNRMC,212019.00,A,3114.50724,N,12117.64485,E,0.010,,091217,,,D*63
$GNRMC,212020.00,A,3114.50722,N,12117.64485,E,0.012,,091217,,,D*6D
$GNRMC,212021.00,A,3114.50720,N,12117.64485,E,0.010,,091217,,,D*6C
$GNRMC,212022.00,A,3114.50718,N,12117.64484,E,0.007,,091217,,,D*63
$GNRMC,212023.00,A,3114.50717,N,12117.64484,E,0.009,,091217,,,D*63
$GNRMC,212024.00,A,3114.50717,N,12117.64484,E,0.011,,091217,,,D*6D
$GNRMC,212025.00,A,3114.50716,N,12117.64483,E,0.010,,091217,,,D*6B
$GNRMC,212026.00,A,3114.50717,N,12117.64482,E,0.005,,091217,,,D*6C
$GNRMC,212027.00,A,3114.50717,N,12117.64481,E,0.005,,091217,,,D*6E
$GNRMC,212028.00,A,3114.50717,N,12117.64480,E,0.009,,091217,,,D*6C
$GNRMC,212029.00,A,3114.50716,N,12117.64480,E,0.003,,091217,,,D*66
$GNRMC,212030.00,A,3114.50715,N,12117.64480,E,0.002,,091217,,,D*6C
$GNRMC,212031.00,A,3114.50715,N,12117.64480,E,0.007,,091217,,,D*68
$GNRMC,212032.00,A,3114.50714,N,12117.64480,E,0.008,,091217,,,D*65
$GNRMC,212033.00,A,3114.50712,N,12117.64480,E,0.004,,091217,,,D*6E
$GNRMC,212034.00,A,3114.50711,N,12117.64481,E,0.002,,091217,,,D*6D
$GNRMC,212035.00,A,3114.50710,N,12117.64481,E,0.006,,091217,,,D*69
$GNRMC,212036.00,A,3114.50709,N,12117.64481,E,0.006,,091217,,,D*62
$GNRMC,212037.00,A,3114.50708,N,12117.64481,E,0.007,,091217,,,D*63
$GNRMC,212038.00,A,3114.50708,N,12117.64481,E,0.002,,091217,,,D*69
$GNRMC,212039.00,A,3114.50707,N,12117.64482,E,0.005,,091217,,,D*63
$GNRMC,212040.00,A,3114.50707,N,12117.64482,E,0.002,,091217,,,D*6A
$GNRMC,212041.00,A,3114.50706,N,12117.64482,E,0.008,,091217,,,D*60
$GNRMC,212042.00,A,3114.50707,N,12117.64482,E,0.006,,091217,,,D*6C
$GNRMC,212043.00,A,3114.50707,N,12117.64482,E,0.008,,091217,,,D*63
$GNRMC,212044.00,A,3114.50707,N,12117.64482,E,0.009,,091217,,,D*65
$GNRMC,212045.00,A,3114.50708,N,12117.64482,E,0.011,,091217,,,D*62
$GNRMC,212046.00,A,3114.50709,N,12117.64482,E,0.005,,091217,,,D*65
$GNRMC,212047.00,A,3114.50710,N,12117.64481,E,0.009,,091217,,,D*63
$GNRMC,212048.00,A,3114.50711,N,12117.64481,E,0.007,,091217,,,D*63
$GNRMC,212049.00,A,3114.50712,N,12117.64481,E,0.013,,091217,,,D*64
$GNRMC,212050.00,A,3114.50713,N,12117.64481,E,0.008,,091217,,,D*67
$GNRMC,212051.00,A,3114.50715,N,12117.64481,E,0.009,,091217,,,D*61
$GNRMC,212052.00,A,3114.50716,N,12117.64481,E,0.014,,091217,,,D*6D
$GNRMC,212053.00,A,3114.50717,N,12117.64481,E,0.004,,091217,,,D*6C
$GNRMC,212054.00,A,3114.50719,N,12117.64481,E,0.009,,091217,,,D*68
$GNRMC,212055.00,A,3114.50720,N,12117.64481,E,0.006,,091217,,,D*6C
$GNRMC,212056.00,A,3114.50721,N,12117.64481,E,0.008,,091217,,,D*60
$GNRMC,212057.00,A,3114.50722,N,12117.64482,E,0.012,,091217,,,D*6A
$GNRMC,212058.00,A,3114.50723,N,12117.64484,E,0.007,,091217,,,D*66
$GNRMC,212059.00,A,3114.50723,N,12117.64485,E,0.005,,091217,,,D*64
$GNRMC,212100.00,A,3114.50724,N,12117.64485,E,0.009,,091217,,,D*62
$GNRMC,212101.00,A,3114.50725,N,12117.64484,E,0.003,,091217,,,D*69
$GNRMC,212102.00,A,3114.50726,N,12117.64484,E,0.010,,091217,,,D*6B
$GNRMC,212103.00,A,3114.50728,N,12117.64483,E,0.004,,091217,,,D*66
$GNRMC,212104.00,A,3114.50729,N,12117.64481,E,0.009,,091217,,,D*6F
$GNRMC,212105.00,A,3114.50731,N,12117.64480,E,0.006,,091217,,,D*69
$GNRMC,212106.00,A,3114.50733,N,12117.64478,E,0.010,,091217,,,D*68
$GNRMC,212107.00,A,3114.50734,N,12117.64477,E,0.005,,091217,,,D*65
$GNRMC,212108.00,A,3114.50736,N,12117.64476,E,0.017,,091217,,,D*6A
$GNRMC,212109.00,A,3114.50738,N,12117.64475,E,0.006,,091217,,,D*66
$GNRMC,212110.00,A,3114.50739,N,12117.64473,E,0.002,,091217,,,D*6D
$GNRMC,212111.00,A,3114.50741,N,12117.64472,E,0.003,,091217,,,D*63
$GNRMC,212112.00,A,3114.50742,N,12117.64471,E,0.003,,091217,,,D*60
$GNRMC,212113.00,A,3114.50743,N,12117.64470,E,0.011,,091217,,,D*62
$GNRMC,212114.00,A,3114.50745,N,12117.64469,E,0.001,,091217,,,D*6A
$GNRMC,212115.00,A,3114.50747,N,12117.64468,E,0.004,,091217,,,D*6D
$GNRMC,212116.00,A,3114.50749,N,12117.64467,E,0.007,,091217,,,D*6C
$GNRMC,212117.00,A,3114.50751,N,12117.64466,E,0.005,,091217,,,D*67
$GNRMC,212118.00,A,3114.50753,N,12117.64465,E,0.005,,091217,,,D*69
$GNRMC,212119.00,A,3114.50755,N,12117.64465,E,0.005,,091217,,,D*6E
$GNRMC,212120.00,A,3114.50756,N,12117.64465,E,0.015,,091217,,,D*66
$GNRMC,212121.00,A,3114.50758,N,12117.64466,E,0.004,,091217,,,D*6A
$GNRMC,212122.00,A,3114.50759,N,12117.64466,E,0.017,,091217,,,D*6A
$GNRMC,212123.00,A,3114.50761,N,12117.64466,E,0.005,,091217,,,D*63
$GNRMC,212124.00,A,3114.50762,N,12117.64466,E,0.018,,091217,,,D*6B
$GNRMC,212125.00,A,3114.50762,N,12117.64467,E,0.009,,091217,,,D*6B
$GNRMC,212126.00,A,3114.50763,N,12117.64468,E,0.005,,091217,,,D*6A
$GNRMC,212127.00,A,3114.50763,N,12117.64469,E,0.006,,091217,,,D*69
$GNRMC,212128.00,A,3114.50764,N,12117.64469,E,0.007,,091217,,,D*60
$GNRMC,212129.00,A,3114.50764,N,12117.64471,E,0.004,,091217,,,D*6B
$GNRMC,212130.00,A,3114.50764,N,12117.64472,E,0.011,,091217,,,D*64
$GNRMC,212131.00,A,3114.50764,N,12117.64474,E,0.013,,091217,,,D*61
$GNRMC,212132.00,A,3114.50763,N,12117.64475,E,0.010,,091217,,,D*67
$GNRMC,212133.00,A,3114.50762,N,12117.64478,E,0.002,,091217,,,D*69
$GNRMC,212134.00,A,3114.50760,N,12117.64480,E,0.003,,091217,,,D*6A
$GNRMC,212135.00,A,3114.50759,N,12117.64483,E,0.014,,091217,,,D*64
$GNRMC,212136.00,A,3114.50758,N,12117.64485,E,0.003,,091217,,,D*66
$GNRMC,212137.00,A,3114.50757,N,12117.64488,E,0.008,,091217,,,D*6E
$GNRMC,212138.00,A,3114.50756,N,12117.64491,E,0.004,,091217,,,D*64
$GNRMC,212139.00,A,3114.50754,N,12117.64494,E,0.002,,091217,,,D*64
$GNRMC,212140.00,A,3114.50753,N,12117.64497,E,0.005,,091217,,,D*69
$GNRMC,212141.00,A,3114.50751,N,12117.64500,E,0.007,,091217,,,D*67
$GNRMC,212142.00,A,3114.50749,N,12117.64503,E,0.006,,091217,,,D*6F
$GNRMC,212143.00,A,3114.50747,N,12117.64506,E,0.012,,091217,,,D*60
$GNRMC,212144.00,A,3114.50745,N,12117.64508,E,0.004,,091217,,,D*6C
$GNRMC,212145.00,A,3114.50744,N,12117.64510,E,0.004,,091217,,,D*65
$GNRMC,212146.00,A,3114.50742,N,12117.64513,E,0.002,,091217,,,D*65
$GNRMC,212147.00,A,3114.50741,N,12117.64515,E,0.005,,091217,,,D*66
$GNRMC,212148.00,A,3114.50741,N,12117.64516,E,0.005,,091217,,,D*6A
$GNRMC,212149.00,A,3114.50740,N,12117.64517,E,0.008,,091217,,,D*66
$GNRMC,212150.00,A,3114.50740,N,12117.64519,E,0.010,,091217,,,D*69
$GNRMC,212151.00,A,3114.50740,N,12117.64520,E,0.009,,091217,,,D*6A
$GNRMC,212152.00,A,3114.50739,N,12117.64521,E,0.015,,091217,,,D*6B
$GNRMC,212153.00,A,3114.50739,N,12117.64523,E,0.012,,091217,,,D*6F
$GNRMC,212154.00,A,3114.50738,N,12117.64525,E,0.013,,091217,,,D*6E
$GNRMC,212155.00,A,3114.50737,N,12117.64526,E,0.006,,091217,,,D*67
$GNRMC,212156.00,A,3114.50736,N,12117.64528,E,0.006,,091217,,,D*6B
$GNRMC,212157.00,A,3114.50735,N,12117.64529,E,0.014,,091217,,,D*6B
$GNRMC,212158.00,A,3114.50733,N,12117.64531,E,0.003,,091217,,,D*6D
$GNRMC,212159.00,A,3114.50731,N,12117.64533,E,0.018,,091217,,,D*66
$GNRMC,212200.00,A,3114.50730,N,12117.64534,E,0.007,,091217,,,D*61
$GNRMC,212201.00,A,3114.50728,N,12117.64535,E,0.009,,091217,,,D*66
$GNRMC,212202.00,A,3114.50726,N,12117.64537,E,0.007,,091217,,,D*67
$GNRMC,212203.00,A,3114.50724,N,12117.64538,E,0.013,,091217,,,D*6E
$GNRMC,212204.00,A,3114.50722,N,12117.64539,E,0.006,,091217,,,D*6A
$GNRMC,212205.00,A,3114.50720,N,12117.64540,E,0.007,,091217,,,D*66
$GNRMC,212206.00,A,3114.50718,N,12117.64541,E,0.005,,091217,,,D*6D
$GNRMC,212207.00,A,3114.50716,N,12117.64542,E,0.002,,091217,,,D*66
$GNRMC,212208.00,A,3114.50714,N,12117.64543,E,0.008,,091217,,,D*60
$GNRMC,212209.00,A,3114.50713,N,12117.64544,E,0.008,,091217,,,D*61
$GNRMC,212210.00,A,3114.50712,N,12117.64545,E,0.007,,091217,,,D*66
$GNRMC,212211.00,A,3114.50711,N,12117.64545,E,0.006,,091217,,,D*65
$GNRMC,212212.00,A,3114.50710,N,12117.64545,E,0.011,,091217,,,D*61
$GNRMC,212213.00,A,3114.50710,N,12117.64545,E,0.003,,091217,,,D*63
$GNRMC,212214.00,A,3114.50711,N,12117.64544,E,0.012,,091217,,,D*64
$GNRMC,212215.00,A,3114.50711,N,12117.64544,E,0.007,,091217,,,D*61
$GNRMC,212216.00,A,3114.50710,N,12117.64543,E,0.010,,091217,,,D*62
$GNRMC,212217.00,A,3114.50711,N,12117.64542,E,0.007,,091217,,,D*65
$GNRMC,212218.00,A,3114.50711,N,12117.64541,E,0.010,,091217,,,D*6F
$GNRMC,212219.00,A,3114.50712,N,12117.64539,E,0.011,,091217,,,D*63
$GNRMC,212220.00,A,3114.50712,N,12117.64538,E,0.003,,091217,,,D*6B
$GNRMC,212221.00,A,3114.50713,N,12117.64536,E,0.006,,091217,,,D*60
$GNRMC,212222.00,A,3114.50714,N,12117.64534,E,0.003,,091217,,,D*63
$GNRMC,212223.00,A,3114.50714,N,12117.64532,E,0.018,,091217,,,D*6E
$GNRMC,212224.00,A,3114.50715,N,12117.64530,E,0.013,,091217,,,D*61
$GNRMC,212225.00,A,3114.50717,N,12117.64524,E,0.012,,091217,,,D*66
$GNRMC,212226.00,A,3114.50720,N,12117.64519,E,0.008,,091217,,,D*64
$GNRMC,212227.00,A,3114.50723,N,12117.64514,E,0.012,,091217,,,D*60
$GNRMC,212228.00,A,3114.50724,N,12117.64510,E,0.008,,091217,,,D*67
$GNRMC,212229.00,A,3114.50725,N,12117.64506,E,0.012,,091217,,,D*6B
$GNRMC,212230.00,A,3114.50725,N,12117.64502,E,0.005,,091217,,,D*61
$GNRMC,212231.00,A,3114.50727,N,12117.64498,E,0.013,,091217,,,D*67
$GNRMC,212232.00,A,3114.50729,N,12117.64492,E,0.005,,091217,,,D*67
$GNRMC,212233.00,A,3114.50731,N,12117.64486,E,0.008,,091217,,,D*67
$GNRMC,212234.00,A,3114.50732,N,12117.64482,E,0.009,,091217,,,D*66
$GNRMC,212235.00,A,3114.50734,N,12117.64475,E,0.013,,091217,,,D*62
$GNRMC,212236.00,A,3114.50737,N,12117.64469,E,0.013,,091217,,,D*6F
$GNRMC,212237.00,A,3114.50738,N,12117.64465,E,0.008,,091217,,,D*67
$GNRMC,212238.00,A,3114.50739,N,12117.64462,E,0.015,,091217,,,D*62
$GNRMC,212239.00,A,3114.50740,N,12117.64458,E,0.013,,091217,,,D*62
$GNRMC,212240.00,A,3114.50740,N,12117.64455,E,0.005,,091217,,,D*66
$GNRMC,212241.00,A,3114.50740,N,12117.64453,E,0.015,,091217,,,D*60
$GNRMC,212242.00,A,3114.50740,N,12117.64450,E,0.009,,091217,,,D*6D
$GNRMC,212243.00,A,3114.50740,N,12117.64447,E,0.005,,091217,,,D*66
$GNRMC,212244.00,A,3114.50739,N,12117.64443,E,0.008,,091217,,,D*66
$GNRMC,212245.00,A,3114.50738,N,12117.64441,E,0.009,,091217,,,D*65
$GNRMC,212246.00,A,3114.50737,N,12117.64439,E,0.009,,091217,,,D*66
$GNRMC,212247.00,A,3114.50735,N,12117.64437,E,0.012,,091217,,,D*61
$GNRMC,212248.00,A,3114.50733,N,12117.64437,E,0.004,,091217,,,D*6F
$GNRMC,212249.00,A,3114.50731,N,12117.64437,E,0.006,,091217,,,D*6E
$GNRMC,212250.00,A,3114.50730,N,12117.64436,E,0.007,,091217,,,D*67
$GNRMC,212251.00,A,3114.50728,N,12117.64436,E,0.011,,091217,,,D*68
$GNRMC,212252.00,A,3114.50727,N,12117.64435,E,0.013,,091217,,,D*65
$GNRMC,212253.00,A,3114.50726,N,12117.64433,E,0.008,,091217,,,D*69
$GNRMC,212254.00,A,3114.50725,N,12117.64432,E,0.009,,091217,,,D*6D
$GNRMC,212255.00,A,3114.50725,N,12117.64430,E,0.004,,091217,,,D*63
$GNRMC,212256.00,A,3114.50724,N,12117.64429,E,0.012,,091217,,,D*6E
$GNRMC,212257.00,A,3114.50725,N,12117.64425,E,0.010,,091217,,,D*60
$GNRMC,212258.00,A,3114.50725,N,12117.64422,E,0.008,,091217,,,D*61
$GNRMC,212259.00,A,3114.50726,N,12117.64420,E,0.003,,091217,,,D*6A
$GNRMC,212300.00,A,3114.50728,N,12117.64417,E,0.006,,091217,,,D*68
$GNRMC,212301.00,A,3114.50729,N,12117.64414,E,0.014,,091217,,,D*68
$GNRMC,212302.00,A,3114.50729,N,12117.64413,E,0.017,,091217,,,D*6F
$GNRMC,212303.00,A,3114.50728,N,12117.64413,E,0.003,,091217,,,D*6A
$GNRMC,212304.00,A,3114.50728,N,12117.64413,E,0.004,,091217,,,D*6A
$GNRMC,212305.00,A,3114.50727,N,12117.64413,E,0.012,,091217,,,D*63
$GNRMC,212306.00,A,3114.50726,N,12117.64415,E,0.009,,091217,,,D*6D
$GNRMC,212307.00,A,3114.50723,N,12117.64418,E,0.006,,091217,,,D*6B
$GNRMC,212308.00,A,3114.50722,N,12117.64420,E,0.008,,091217,,,D*60
$GNRMC,212309.00,A,3114.50720,N,12117.64422,E,0.005,,091217,,,D*6C
$GNRMC,212310.00,A,3114.50719,N,12117.64423,E,0.005,,091217,,,D*6F
$GNRMC,212311.00,A,3114.50718,N,12117.64424,E,0.013,,091217,,,D*6F
$GNRMC,212312.00,A,3114.50717,N,12117.64426,E,0.005,,091217,,,D*66
$GNRMC,212313.00,A,3114.50718,N,12117.64427,E,0.020,,091217,,,D*6E
$GNRMC,212314.00,A,3114.50718,N,12117.64428,E,0.010,,091217,,,D*65
$GNRMC,212315.00,A,3114.50718,N,12117.64428,E,0.012,,091217,,,D*66
$GNRMC,212316.00,A,3114.50719,N,12117.64429,E,0.013,,091217,,,D*64
$GNRMC,212317.00,A,3114.50720,N,12117.64429,E,0.007,,091217,,,D*6A
$GNRMC,212318.00,A,3114.50721,N,12117.64429,E,0.010,,091217,,,D*62
$GNRMC,212319.00,A,3114.50722,N,12117.64429,E,0.004,,091217,,,D*65
$GNRMC,212320.00,A,3114.50723,N,12117.64428,E,0.006,,091217,,,D*6D
$GNRMC,212321.00,A,3114.50725,N,12117.64427,E,0.008,,091217,,,D*6B
$GNRMC,212322.00,A,3114.50726,N,12117.64426,E,0.009,,091217,,,D*6B
$GNRMC,212323.00,A,3114.50728,N,12117.64425,E,0.011,,091217,,,D*6E
$GNRMC,212324.00,A,3114.50729,N,12117.64424,E,0.010,,091217,,,D*68
$GNRMC,212325.00,A,3114.50730,N,12117.64423,E,0.003,,091217,,,D*64
$GNRMC,212326.00,A,3114.50732,N,12117.64422,E,0.005,,091217,,,D*62
$GNRMC,212327.00,A,3114.50733,N,12117.64420,E,0.009,,091217,,,D*6C
$GNRMC,212328.00,A,3114.50735,N,12117.64419,E,0.008,,091217,,,D*6E
$GNRMC,212329.00,A,3114.50736,N,12117.64417,E,0.008,,091217,,,D*62
$GNRMC,212330.00,A,3114.50739,N,12117.64414,E,0.010,,091217,,,D*6F
$GNRMC,212331.00,A,3114.50742,N,12117.64411,E,0.002,,091217,,,D*64
$GNRMC,212332.00,A,3114.50744,N,12117.64408,E,0.009,,091217,,,D*62
$GNRMC,212333.00,A,3114.50746,N,12117.64407,E,0.005,,091217,,,D*62
$GNRMC,212334.00,A,3114.50748,N,12117.64406,E,0.017,,091217,,,D*69
$GNRMC,212335.00,A,3114.50749,N,12117.64405,E,0.015,,091217,,,D*68
$GNRMC,212336.00,A,3114.50750,N,12117.64404,E,0.016,,091217,,,D*61
$GNRMC,212337.00,A,3114.50752,N,12117.64404,E,0.012,,091217,,,D*66
$GNRMC,212338.00,A,3114.50753,N,12117.64404,E,0.007,,091217,,,D*6C
$GNRMC,212339.00,A,3114.50754,N,12117.64404,E,0.009,,091217,,,D*64
$GNRMC,212340.00,A,3114.50756,N,12117.64404,E,0.005,,091217,,,D*64
$GNRMC,212341.00,A,3114.50758,N,12117.64404,E,0.006,,091217,,,D*68
$GNRMC,212342.00,A,3114.50760,N,12117.64404,E,0.012,,091217,,,D*65
$GNRMC,212343.00,A,3114.50761,N,12117.64404,E,0.007,,091217,,,D*61
$GNRMC,212344.00,A,3114.50763,N,12117.64404,E,0.006,,091217,,,D*65
$GNRMC,212345.00,A,3114.50764,N,12117.64404,E,0.005,,091217,,,D*60
$GNRMC,212346.00,A,3114.50764,N,12117.64404,E,0.009,,091217,,,D*6F
$GNRMC,212347.00,A,3114.50765,N,12117.64404,E,0.011,,091217,,,D*66
$GNRMC,212348.00,A,3114.50765,N,12117.64405,E,0.001,,091217,,,D*69
$GNRMC,212349.00,A,3114.50766,N,12117.64404,E,0.013,,091217,,,D*69
$GNRMC,212350.00,A,3114.50767,N,12117.64404,E,0.009,,091217,,,D*6B
$GNRMC,212351.00,A,3114.50767,N,12117.64405,E,0.004,,091217,,,D*66
$GNRMC,212352.00,A,3114.50768,N,12117.64404,E,0.011,,091217,,,D*6F
$GNRMC,212353.00,A,3114.50769,N,12117.64404,E,0.005,,091217,,,D*6A
$GNRMC,212354.00,A,3114.50770,N,12117.64404,E,0.013,,091217,,,D*62
$GNRMC,212355.00,A,3114.50772,N,12117.64403,E,0.010,,091217,,,D*65
$GNRMC,212356.00,A,3114.50774,N,12117.64401,E,0.005,,091217,,,D*66
$GNRMC,212357.00,A,3114.50775,N,12117.64401,E,0.004,,091217,,,D*67
$GNRMC,212358.00,A,3114.50776,N,12117.64401,E,0.004,,091217,,,D*6B
$GNRMC,212359.00,A,3114.50777,N,12117.64400,E,0.009,,091217,,,D*67
$GNRMC,212400.00,A,3114.50778,N,12117.64400,E,0.008,,091217,,,D*62
$GNRMC,212401.00,A,3114.50779,N,12117.64399,E,0.007,,091217,,,D*6A
$GNRMC,212402.00,A,3114.50780,N,12117.64399,E,0.011,,091217,,,D*68
$GNRMC,212403.00,A,3114.50782,N,12117.64399,E,0.005,,091217,,,D*6E
$GNRMC,212404.00,A,3114.50784,N,12117.64398,E,0.008,,091217,,,D*63
$GNRMC,212405.00,A,3114.50786,N,12117.64398,E,0.011,,091217,,,D*68
$GNRMC,212406.00,A,3114.50788,N,12117.64397,E,0.010,,091217,,,D*6B
$GNRMC,212407.00,A,3114.50790,N,12117.64397,E,0.014,,091217,,,D*67
$GNRMC,212408.00,A,3114.50791,N,12117.64397,E,0.008,,091217,,,D*64
$GNRMC,212409.00,A,3114.50793,N,12117.64397,E,0.008,,091217,,,D*67
$GNRMC,212410.00,A,3114.50794,N,12117.64397,E,0.010,,091217,,,D*61
$GNRMC,212411.00,A,3114.50796,N,12117.64396,E,0.002,,091217,,,D*60
$GNRMC,212412.00,A,3114.50798,N,12117.64396,E,0.013,,091217,,,D*6D
$GNRMC,212413.00,A,3114.50799,N,12117.64396,E,0.014,,091217,,,D*6A
$GNRMC,212414.00,A,3114.50801,N,12117.64397,E,0.007,,091217,,,D*60
$GNRMC,212415.00,A,3114.50802,N,12117.64399,E,0.007,,091217,,,D*6C
$GNRMC,212416.00,A,3114.50802,N,12117.64401,E,0.004,,091217,,,D*6A
$GNRMC,212417.00,A,3114.50803,N,12117.64403,E,0.006,,091217,,,D*6A
$GNRMC,212418.00,A,3114.50803,N,12117.64406,E,0.007,,091217,,,D*61
$GNRMC,212419.00,A,3114.50804,N,12117.64409,E,0.008,,091217,,,D*67
$GNRMC,212420.00,A,3114.50804,N,12117.64412,E,0.003,,091217,,,D*6C
$GNRMC,212421.00,A,3114.50804,N,12117.64414,E,0.005,,091217,,,D*6D
$GNRMC,212422.00,A,3114.50804,N,12117.64416,E,0.008,,091217,,,D*61
$GNRMC,212423.00,A,3114.50804,N,12117.64417,E,0.007,,091217,,,D*6E
$GNRMC,212424.00,A,3114.50805,N,12117.64417,E,0.010,,091217,,,D*6E
$GNRMC,212425.00,A,3114.50806,N,12117.64418,E,0.008,,091217,,,D*6A
$GNRMC,212426.00,A,3114.50808,N,12117.64418,E,0.007,,091217,,,D*68
$GNRMC,212427.00,A,3114.50809,N,12117.64419,E,0.009,,091217,,,D*67
$GNRMC,212428.00,A,3114.50811,N,12117.64419,E,0.010,,091217,,,D*69
$GNRMC,212429.00,A,3114.50814,N,12117.64419,E,0.012,,091217,,,D*6F
$GNRMC,212430.00,A,3114.50817,N,12117.64418,E,0.004,,091217,,,D*62
$GNRMC,212431.00,A,3114.50820,N,12117.64417,E,0.012,,091217,,,D*6F
$GNRMC,212432.00,A,3114.50822,N,12117.64417,E,0.002,,091217,,,D*6F
$GNRMC,212433.00,A,3114.50824,N,12117.64418,E,0.013,,091217,,,D*67
$GNRMC,212434.00,A,3114.50826,N,12117.64418,E,0.011,,091217,,,D*60
$GNRMC,212435.00,A,3114.50828,N,12117.64419,E,0.006,,091217,,,D*68
$GNRMC,212436.00,A,3114.50830,N,12117.64420,E,0.001,,091217,,,D*6F
$GNRMC,212437.00,A,3114.50831,N,12117.64421,E,0.006,,091217,,,D*69
$GNRMC,212438.00,A,3114.50833,N,12117.64422,E,0.012,,091217,,,D*62
$GNRMC,212439.00,A,3114.50834,N,12117.64423,E,0.011,,091217,,,D*66
$GNRMC,212440.00,A,3114.50835,N,12117.64424,E,0.005,,091217,,,D*6B
$GNRMC,212441.00,A,3114.50836,N,12117.64426,E,0.015,,091217,,,D*6A
$GNRMC,212442.00,A,3114.50836,N,12117.64429,E,0.008,,091217,,,D*6A
$GNRMC,212443.00,A,3114.50837,N,12117.64432,E,0.011,,091217,,,D*68
$GNRMC,212444.00,A,3114.50837,N,12117.64435,E,0.004,,091217,,,D*6C
$GNRMC,212445.00,A,3114.50837,N,12117.64439,E,0.007,,091217,,,D*62
$GNRMC,212446.00,A,3114.50838,N,12117.64442,E,0.004,,091217,,,D*61
$GNRMC,212447.00,A,3114.50838,N,12117.64445,E,0.009,,091217,,,D*6A
$GNRMC,212448.00,A,3114.50839,N,12117.64448,E,0.009,,091217,,,D*69
$GNRMC,212449.00,A,3114.50840,N,12117.64449,E,0.001,,091217,,,D*6F
$GNRMC,212450.00,A,3114.50842,N,12117.64451,E,0.002,,091217,,,D*6F
$GNRMC,212451.00,A,3114.50843,N,12117.64452,E,0.014,,091217,,,D*6B
$GNRMC,212452.00,A,3114.50843,N,12117.64453,E,0.012,,091217,,,D*6F
$GNRMC,212453.00,A,3114.50844,N,12117.64455,E,0.016,,091217,,,D*6B
$GNRMC,212454.00,A,3114.50844,N,12117.64457,E,0.016,,091217,,,D*6E
$GNRMC,212455.00,A,3114.50845,N,12117.64458,E,0.003,,091217,,,D*65
$GNRMC,212456.00,A,3114.50845,N,12117.64459,E,0.006,,091217,,,D*62
$GNRMC,212457.00,A,3114.50846,N,12117.64460,E,0.007,,091217,,,D*6B
$GNRMC,212458.00,A,3114.50847,N,12117.64461,E,0.013,,091217,,,D*61
$GNRMC,212459.00,A,3114.50848,N,12117.64461,E,0.010,,091217,,,D*6C
$GNRMC,212500.00,A,3114.50849,N,12117.64461,E,0.005,,091217,,,D*64
$GNRMC,212501.00,A,3114.50849,N,12117.64461,E,0.006,,091217,,,D*66
$GNRMC,212502.00,A,3114.50849,N,12117.64462,E,0.015,,091217,,,D*64
$GNRMC,212503.00,A,3114.50849,N,12117.64463,E,0.009,,091217,,,D*69
$GNRMC,212504.00,A,3114.50848,N,12117.64464,E,0.009,,091217,,,D*68
$GNRMC,212505.00,A,3114.50847,N,12117.64465,E,0.007,,091217,,,D*69
$GNRMC,212506.00,A,3114.50846,N,12117.64466,E,0.008,,091217,,,D*67
$GNRMC,212507.00,A,3114.50844,N,12117.64468,E,0.006,,091217,,,D*64
$GNRMC,212508.00,A,3114.50841,N,12117.64469,E,0.007,,091217,,,D*6E
$GNRMC,212509.00,A,3114.50839,N,12117.64471,E,0.010,,091217,,,D*6F
$GNRMC,212510.00,A,3114.50836,N,12117.64472,E,0.012,,091217,,,D*69
$GNRMC,212511.00,A,3114.50834,N,12117.64474,E,0.007,,091217,,,D*68
$GNRMC,212512.00,A,3114.50831,N,12117.64475,E,0.006,,091217,,,D*6E
$GNRMC,212513.00,A,3114.50828,N,12117.64477,E,0.009,,091217,,,D*6A
$GNRMC,212514.00,A,3114.50825,N,12117.64479,E,0.003,,091217,,,D*64
$GNRMC,212515.00,A,3114.50822,N,12117.64480,E,0.011,,091217,,,D*67
$GNRMC,212516.00,A,3114.50820,N,12117.64481,E,0.007,,091217,,,D*60
$GNRMC,212517.00,A,3114.50818,N,12117.64481,E,0.006,,091217,,,D*6B
$GNRMC,212518.00,A,3114.50817,N,12117.64482,E,0.004,,091217,,,D*6A
$GNRMC,212519.00,A,3114.50815,N,12117.64482,E,0.006,,091217,,,D*6B
$GNRMC,212520.00,A,3114.50813,N,12117.64482,E,0.006,,091217,,,D*67
$GNRMC,212521.00,A,3114.50811,N,12117.64482,E,0.011,,091217,,,D*62
$GNRMC,212522.00,A,3114.50810,N,12117.64482,E,0.011,,091217,,,D*60
$GNRMC,212523.00,A,3114.50809,N,12117.64482,E,0.013,,091217,,,D*6B
$GNRMC,212524.00,A,3114.50808,N,12117.64482,E,0.011,,091217,,,D*6F
$GNRMC,212525.00,A,3114.50807,N,12117.64480,E,0.002,,091217,,,D*61
$GNRMC,212526.00,A,3114.50807,N,12117.64478,E,0.019,,091217,,,D*6F
$GNRMC,212527.00,A,3114.50808,N,12117.64476,E,0.014,,091217,,,D*62
$GNRMC,212528.00,A,3114.50809,N,12117.64474,E,0.008,,091217,,,D*63
$GNRMC,212529.00,A,3114.50809,N,12117.64472,E,0.007,,091217,,,D*6B
$GNRMC,212530.00,A,3114.50810,N,12117.64470,E,0.012,,091217,,,D*6D
$GNRMC,212531.00,A,3114.50811,N,12117.64467,E,0.015,,091217,,,D*6C
$GNRMC,212532.00,A,3114.50812,N,12117.64465,E,0.001,,091217,,,D*6B
$GNRMC,212533.00,A,3114.50812,N,12117.64463,E,0.007,,091217,,,D*6A
$GNRMC,212534.00,A,3114.50812,N,12117.64462,E,0.005,,091217,,,D*6E
$GNRMC,212535.00,A,3114.50811,N,12117.64461,E,0.011,,091217,,,D*6A
$GNRMC,212536.00,A,3114.50810,N,12117.64459,E,0.004,,091217,,,D*67
$GNRMC,212537.00,A,3114.50809,N,12117.64458,E,0.011,,091217,,,D*6B
$GNRMC,212538.00,A,3114.50809,N,12117.64457,E,0.012,,091217,,,D*68
$GNRMC,212539.00,A,3114.50808,N,12117.64455,E,0.018,,091217,,,D*60
$GNRMC,212540.00,A,3114.50808,N,12117.64453,E,0.018,,091217,,,D*68
$GNRMC,212541.00,A,3114.50808,N,12117.64452,E,0.009,,091217,,,D*68
$GNRMC,212542.00,A,3114.50809,N,12117.64450,E,0.011,,091217,,,D*61
$GNRMC,212543.00,A,3114.50808,N,12117.64450,E,0.008,,091217,,,D*69
$GNRMC,212544.00,A,3114.50807,N,12117.64450,E,0.007,,091217,,,D*6E
$GNRMC,212545.00,A,3114.50806,N,12117.64449,E,0.015,,091217,,,D*65
$GNRMC,212546.00,A,3114.50806,N,12117.64449,E,0.014,,091217,,,D*67
$GNRMC,212547.00,A,3114.50806,N,12117.64449,E,0.003,,091217,,,D*60
$GNRMC,212548.00,A,3114.50805,N,12117.64449,E,0.010,,091217,,,D*6E
$GNRMC,212549.00,A,3114.50805,N,12117.64449,E,0.008,,091217,,,D*66
$GNRMC,212550.00,A,3114.50805,N,12117.64449,E,0.011,,091217,,,D*66
$GNRMC,212551.00,A,3114.50805,N,12117.64448,E,0.006,,091217,,,D*60
$GNRMC,212552.00,A,3114.50804,N,12117.64448,E,0.010,,091217,,,D*65
$GNRMC,212553.00,A,3114.50804,N,12117.64448,E,0.007,,091217,,,D*62
$GNRMC,212554.00,A,3114.50804,N,12117.64447,E,0.015,,091217,,,D*69
$GNRMC,212555.00,A,3114.50806,N,12117.64446,E,0.008,,091217,,,D*67
$GNRMC,212556.00,A,3114.50806,N,12117.64444,E,0.007,,091217,,,D*69
$GNRMC,212557.00,A,3114.50807,N,12117.64442,E,0.010,,091217,,,D*69
$GNRMC,212558.00,A,3114.50808,N,12117.64440,E,0.012,,091217,,,D*69
$GNRMC,212559.00,A,3114.50808,N,12117.64438,E,0.011,,091217,,,D*64
$GNRMC,212600.00,A,3114.50808,N,12117.64436,E,0.008,,091217,,,D*6D
$GNRMC,212601.00,A,3114.50808,N,12117.64436,E,0.002,,091217,,,D*66
$GNRMC,212602.00,A,3114.50807,N,12117.64435,E,0.011,,091217,,,D*6B
$GNRMC,212603.00,A,3114.50806,N,12117.64435,E,0.002,,091217,,,D*69
$GNRMC,212604.00,A,3114.50805,N,12117.64435,E,0.004,,091217,,,D*6B
$GNRMC,212605.00,A,3114.50805,N,12117.64435,E,0.009,,091217,,,D*67
$GNRMC,212606.00,A,3114.50804,N,12117.64436,E,0.005,,091217,,,D*6A
$GNRMC,212607.00,A,3114.50803,N,12117.64436,E,0.011,,091217,,,D*69
$GNRMC,212608.00,A,3114.50802,N,12117.64436,E,0.006,,091217,,,D*61
$GNRMC,212609.00,A,3114.50801,N,12117.64435,E,0.006,,091217,,,D*60
$GNRMC,212610.00,A,3114.50801,N,12117.64435,E,0.016,,091217,,,D*69
$GNRMC,212611.00,A,3114.50801,N,12117.64434,E,0.008,,091217,,,D*66
$GNRMC,212612.00,A,3114.50800,N,12117.64434,E,0.011,,091217,,,D*6C
$GNRMC,212613.00,A,3114.50800,N,12117.64433,E,0.004,,091217,,,D*6E
$GNRMC,212614.00,A,3114.50799,N,12117.64433,E,0.022,,091217,,,D*62
$GNRMC,212615.00,A,3114.50798,N,12117.64432,E,0.001,,091217,,,D*62
$GNRMC,212616.00,A,3114.50796,N,12117.64433,E,0.008,,091217,,,D*67
$GNRMC,212617.00,A,3114.50795,N,12117.64433,E,0.013,,091217,,,D*6F
$GNRMC,212618.00,A,3114.50793,N,12117.64434,E,0.007,,091217,,,D*64
$GNRMC,212619.00,A,3114.50791,N,12117.64436,E,0.009,,091217,,,D*6B
$GNRMC,212620.00,A,3114.50789,N,12117.64437,E,0.007,,091217,,,D*67
$GNRMC,212621.00,A,3114.50787,N,12117.64439,E,0.010,,091217,,,D*60
$GNRMC,212622.00,A,3114.50786,N,12117.64440,E,0.008,,091217,,,D*65
$GNRMC,212623.00,A,3114.50785,N,12117.64441,E,0.003,,091217,,,D*6D
$GNRMC,212624.00,A,3114.50784,N,12117.64442,E,0.005,,091217,,,D*6E
$GNRMC,212625.00,A,3114.50783,N,12117.64443,E,0.004,,091217,,,D*68
$GNRMC,212626.00,A,3114.50783,N,12117.64444,E,0.005,,091217,,,D*6D
$GNRMC,212627.00,A,3114.50782,N,12117.64445,E,0.009,,091217,,,D*60
$GNRMC,212628.00,A,3114.50781,N,12117.64447,E,0.009,,091217,,,D*6E
$GNRMC,212629.00,A,3114.50781,N,12117.64449,E,0.011,,091217,,,D*68
$GNRMC,212630.00,A,3114.50780,N,12117.64450,E,0.010,,091217,,,D*68
$GNRMC,212631.00,A,3114.50780,N,12117.64452,E,0.004,,091217,,,D*6E
$GNRMC,212632.00,A,3114.50779,N,12117.64454,E,0.011,,091217,,,D*69
$GNRMC,212633.00,A,3114.50779,N,12117.64456,E,0.011,,091217,,,D*6A
$GNRMC,212634.00,A,3114.50779,N,12117.64457,E,0.009,,091217,,,D*65
$GNRMC,212635.00,A,3114.50780,N,12117.64457,E,0.004,,091217,,,D*6F
$GNRMC,212636.00,A,3114.50780,N,12117.64457,E,0.012,,091217,,,D*6B
$GNRMC,212637.00,A,3114.50781,N,12117.64457,E,0.007,,091217,,,D*6F
$GNRMC,212638.00,A,3114.50781,N,12117.64457,E,0.020,,091217,,,D*65
$GNRMC,212639.00,A,3114.50781,N,12117.64457,E,0.003,,091217,,,D*65
$GNRMC,212640.00,A,3114.50780,N,12117.64457,E,0.003,,091217,,,D*6A
$GNRMC,212641.00,A,3114.50781,N,12117.64457,E,0.002,,091217,,,D*6B
$GNRMC,212642.00,A,3114.50781,N,12117.64457,E,0.005,,091217,,,D*6F
$GNRMC,212643.00,A,3114.50781,N,12117.64457,E,0.012,,091217,,,D*68
$GNRMC,212644.00,A,3114.50780,N,12117.64457,E,0.008,,091217,,,D*65
$GNRMC,212645.00,A,3114.50780,N,12117.64458,E,0.005,,091217,,,D*66
$GNRMC,212646.00,A,3114.50779,N,12117.64458,E,0.005,,091217,,,D*63
$GNRMC,212647.00,A,3114.50779,N,12117.64459,E,0.007,,091217,,,D*61
$GNRMC,212648.00,A,3114.50778,N,12117.64459,E,0.011,,091217,,,D*68
$GNRMC,212649.00,A,3114.50778,N,12117.64460,E,0.007,,091217,,,D*64
