$GNRMC,101023.00,A,3951.85141,N,11622.42184,E,0.047,,071217,,,A*64
$GNRMC,101024.00,A,3951.85130,N,11622.42187,E,0.021,,071217,,,A*66
$GNRMC,101025.00,A,3951.85137,N,11622.42190,E,0.004,,071217,,,A*61
$GNRMC,101026.00,A,3951.85140,N,11622.42197,E,0.012,,071217,,,A*62
$GNRMC,101027.00,A,3951.85144,N,11622.42204,E,0.018,,071217,,,A*64
$GNRMC,101028.00,A,3951.85145,N,11622.42210,E,0.021,,071217,,,A*65
$GNRMC,101029.00,A,3951.85147,N,11622.42210,E,0.057,,071217,,,A*67
$GNRMC,101030.00,A,3951.85144,N,11622.42213,E,0.028,,071217,,,A*67
$GNRMC,101031.00,A,3951.85140,N,11622.42214,E,0.017,,071217,,,A*69
$GNRMC,101032.00,A,3951.85133,N,11622.42213,E,0.012,,071217,,,A*6C
$GNRMC,101033.00,A,3951.85128,N,11622.42207,E,0.012,,071217,,,A*62
$GNRMC,101034.00,A,3951.85124,N,11622.42197,E,0.024,,071217,,,A*66
$GNRMC,101035.00,A,3951.85126,N,11622.42179,E,0.030,,071217,,,A*60
$GNRMC,101036.00,A,3951.85122,N,11622.42163,E,0.019,,071217,,,A*67
$GNRMC,101037.00,A,3951.85123,N,11622.42146,E,0.037,,071217,,,A*6C
$GNRMC,101038.00,A,3951.85126,N,11622.42127,E,0.035,,071217,,,A*63
$GNRMC,101039.00,A,3951.85130,N,11622.42115,E,0.007,,071217,,,A*65
$GNRMC,101040.00,A,3951.85133,N,11622.42117,E,0.046,,071217,,,A*6F
$GNRMC,101041.00,A,3951.85128,N,11622.42113,E,0.056,,071217,,,A*61
$GNRMC,101042.00,A,3951.85131,N,11622.42101,E,0.037,,071217,,,A*6E
$GNRMC,101043.00,A,3951.85132,N,11622.42092,E,0.025,,071217,,,A*64
$GNRMC,101044.00,A,3951.85127,N,11622.42082,E,0.039,,071217,,,A*6B
$GNRMC,101045.00,A,3951.85130,N,11622.42078,E,0.017,,071217,,,A*65
$GNRMC,101046.00,A,3951.85129,N,11622.42078,E,0.024,,071217,,,A*6E
$GNRMC,101047.00,A,3951.85123,N,11622.42077,E,0.041,,071217,,,A*69
$GNRMC,101048.00,A,3951.85114,N,11622.42080,E,0.034,,071217,,,A*68
$GNRMC,101049.00,A,3951.85100,N,11622.42091,E,0.034,,071217,,,A*6C
$GNRMC,101050.00,A,3951.85087,N,11622.42100,E,0.032,,071217,,,A*65
$GNRMC,101051.00,A,3951.85074,N,11622.42104,E,0.040,,071217,,,A*69
$GNRMC,101052.00,A,3951.85062,N,11622.42109,E,0.092,,071217,,,A*6F
$GNRMC,101053.00,A,3951.85046,N,11622.42109,E,0.023,,071217,,,A*62
$GNRMC,101054.00,A,3951.85035,N,11622.42115,E,0.025,,071217,,,A*6A
$GNRMC,101055.00,A,3951.85029,N,11622.42127,E,0.030,,071217,,,A*63
$GNRMC,101056.00,A,3951.85023,N,11622.42139,E,0.063,,071217,,,A*63
$GNRMC,101057.00,A,3951.85017,N,11622.42161,E,0.073,,071217,,,A*69
$GNRMC,101058.00,A,3951.85009,N,11622.42187,E,0.026,,071217,,,A*61
$GNRMC,101059.00,A,3951.85003,N,11622.42213,E,0.013,,071217,,,A*62
$GNRMC,101100.00,A,3951.85000,N,11622.42244,E,0.035,,071217,,,A*6A
$GNRMC,101101.00,A,3951.85008,N,11622.42259,E,0.043,,071217,,,A*6E
$GNRMC,101102.00,A,3951.85013,N,11622.42273,E,0.039,,071217,,,A*62
$GNRMC,101103.00,A,3951.85020,N,11622.42286,E,0.013,,071217,,,A*61
$GNRMC,101104.00,A,3951.85028,N,11622.42301,E,0.041,,071217,,,A*67
$GNRMC,101105.00,A,3951.85034,N,11622.42315,E,0.037,,071217,,,A*6F
$GNRMC,101106.00,A,3951.85039,N,11622.42324,E,0.017,,071217,,,A*61
$GNRMC,101107.00,A,3951.85040,N,11622.42341,E,0.034,,071217,,,A*6C
$GNRMC,101108.00,A,3951.85038,N,11622.42348,E,0.050,,071217,,,A*67
$GNRMC,101109.00,A,3951.85041,N,11622.42350,E,0.016,,071217,,,A*63
$GNRMC,101110.00,A,3951.85046,N,11622.42360,E,0.021,,071217,,,A*6B
$GNRMC,101111.00,A,3951.85051,N,11622.42371,E,0.055,,071217,,,A*6F
$GNRMC,101112.00,A,3951.85056,N,11622.42382,E,0.033,,071217,,,A*67
$GNRMC,101113.00,A,3951.85062,N,11622.42394,E,0.006,,071217,,,A*60
$GNRMC,101114.00,A,3951.85068,N,11622.42406,E,0.053,,071217,,,A*61
$GNRMC,101115.00,A,3951.85079,N,11622.42416,E,0.058,,071217,,,A*6A
$GNRMC,101116.00,A,3951.85086,N,11622.42432,E,0.042,,071217,,,A*64
$GNRMC,101117.00,A,3951.85092,N,11622.42447,E,0.056,,071217,,,A*67
$GNRMC,101118.00,A,3951.85102,N,11622.42456,E,0.024,,071217,,,A*65
$GNRMC,101119.00,A,3951.85112,N,11622.42464,E,0.106,,071217,,,A*65
$GNRMC,101120.00,A,3951.85124,N,11622.42473,E,0.027,,071217,,,A*6E
$GNRMC,101121.00,A,3951.85134,N,11622.42485,E,0.043,,071217,,,A*65
$GNRMC,101122.00,A,3951.85151,N,11622.42496,E,0.022,,071217,,,A*60
$GNRMC,101123.00,A,3951.85166,N,11622.42505,E,0.046,,071217,,,A*6C
$GNRMC,101124.00,A,3951.85182,N,11622.42508,E,0.041,,071217,,,A*6B
$GNRMC,101125.00,A,3951.85201,N,11622.42516,E,0.045,,071217,,,A*69
$GNRMC,101126.00,A,3951.85212,N,11622.42527,E,0.067,,071217,,,A*6A
$GNRMC,101127.00,A,3951.85225,N,11622.42540,E,0.056,,071217,,,A*6C
$GNRMC,101128.00,A,3951.85237,N,11622.42550,E,0.018,,071217,,,A*6B
$GNRMC,101129.00,A,3951.85248,N,11622.42575,E,0.036,,071217,,,A*69
$GNRMC,101130.00,A,3951.85261,N,11622.42598,E,0.071,,071217,,,A*6A
$GNRMC,101131.00,A,3951.85272,N,11622.42615,E,0.052,,071217,,,A*6E
$GNRMC,101132.00,A,3951.85282,N,11622.42637,E,0.038,,071217,,,A*6E
$GNRMC,101133.00,A,3951.85286,N,11622.42656,E,0.074,,071217,,,A*64
$GNRMC,101134.00,A,3951.85296,N,11622.42680,E,0.135,,071217,,,A*6D
$GNRMC,101135.00,A,3951.85296,N,11622.42700,E,0.112,,071217,,,A*60
$GNRMC,101136.00,A,3951.85300,N,11622.42713,E,0.070,,071217,,,A*6A
$GNRMC,101137.00,A,3951.85295,N,11622.42729,E,0.088,,071217,,,A*68
$GNRMC,101138.00,A,3951.85297,N,11622.42746,E,0.032,,071217,,,A*6D
$GNRMC,101139.00,A,3951.85303,N,11622.42763,E,0.037,,071217,,,A*62
$GNRMC,101140.00,A,3951.85300,N,11622.42788,E,0.029,,071217,,,A*65
$GNRMC,101141.00,A,3951.85300,N,11622.42808,E,0.059,,071217,,,A*64
$GNRMC,101142.00,A,3951.85302,N,11622.42832,E,0.033,,071217,,,A*60
$GNRMC,101143.00,A,3951.85304,N,11622.42848,E,0.066,,071217,,,A*6A
$GNRMC,101144.00,A,3951.85306,N,11622.42861,E,0.029,,071217,,,A*6F
$GNRMC,101145.00,A,3951.85310,N,11622.42867,E,0.064,,071217,,,A*66
$GNRMC,101146.00,A,3951.85312,N,11622.42873,E,0.049,,071217,,,A*6D
$GNRMC,101147.00,A,3951.85310,N,11622.42877,E,0.066,,071217,,,A*67
$GNRMC,101148.00,A,3951.85304,N,11622.42879,E,0.022,,071217,,,A*63
$GNRMC,101149.00,A,3951.85291,N,11622.42878,E,0.042,,071217,,,A*68
$GNRMC,101150.00,A,3951.85281,N,11622.42877,E,0.029,,071217,,,A*63
$GNRMC,101151.00,A,3951.85273,N,11622.42870,E,0.090,,071217,,,A*6A
$GNRMC,101152.00,A,3951.85263,N,11622.42863,E,0.027,,071217,,,A*66
$GNRMC,101153.00,A,3951.85259,N,11622.42864,E,0.064,,071217,,,A*6E
$GNRMC,101154.00,A,3951.85253,N,11622.42866,E,0.093,,071217,,,A*69
$GNRMC,101155.00,A,3951.85248,N,11622.42866,E,0.055,,071217,,,A*68
$GNRMC,101156.00,A,3951.85249,N,11622.42866,E,0.058,,071217,,,A*67
$GNRMC,101157.00,A,3951.85257,N,11622.42862,E,0.047,,071217,,,A*63
$GNRMC,101158.00,A,3951.85265,N,11622.42854,E,0.035,,071217,,,A*6D
$GNRMC,101159.00,A,3951.85266,N,11622.42848,E,0.111,,071217,,,A*65
$GNRMC,101200.00,A,3951.85254,N,11622.42846,E,0.179,,071217,,,A*6B
$GNRMC,101201.00,A,3951.85249,N,11622.42838,E,0.077,,071217,,,A*60
$GNRMC,101202.00,A,3951.85241,N,11622.42836,E,0.034,,071217,,,A*62
$GNRMC,101203.00,A,3951.85223,N,11622.42849,E,0.130,,071217,,,A*6A
$GNRMC,101204.00,A,3951.85203,N,11622.42862,E,0.048,,071217,,,A*68
$GNRMC,101205.00,A,3951.85179,N,11622.42883,E,0.080,,071217,,,A*6C
$GNRMC,101206.00,A,3951.85167,N,11622.42907,E,0.037,,071217,,,A*61
$GNRMC,101207.00,A,3951.85154,N,11622.42939,E,0.055,,071217,,,A*69
$GNRMC,101208.00,A,3951.85151,N,11622.42970,E,0.033,,071217,,,A*6E
$GNRMC,101209.00,A,3951.85147,N,11622.43000,E,0.020,,071217,,,A*65
$GNRMC,101210.00,A,3951.85149,N,11622.43023,E,0.098,,071217,,,A*61
$GNRMC,101211.00,A,3951.85146,N,11622.43044,E,0.099,,071217,,,A*6F
$GNRMC,101212.00,A,3951.85145,N,11622.43062,E,0.008,,071217,,,A*63
$GNRMC,101213.00,A,3951.85149,N,11622.43075,E,0.024,,071217,,,A*66
$GNRMC,101214.00,A,3951.85151,N,11622.43089,E,0.094,,071217,,,A*60
$GNRMC,101215.00,A,3951.85148,N,11622.43102,E,0.059,,071217,,,A*6A
$GNRMC,101216.00,A,3951.85152,N,11622.43109,E,0.093,,071217,,,A*6F
$GNRMC,101217.00,A,3951.85153,N,11622.43115,E,0.049,,071217,,,A*65
$GNRMC,101218.00,A,3951.85173,N,11622.43100,E,0.081,,071217,,,A*68
$GNRMC,101219.00,A,3951.85184,N,11622.43103,E,0.088,,071217,,,A*6B
$GNRMC,101220.00,A,3951.85211,N,11622.43096,E,0.140,,071217,,,A*66
$GNRMC,101221.00,A,3951.85222,N,11622.43097,E,0.106,,071217,,,A*64
$GNRMC,101222.00,A,3951.85245,N,11622.43086,E,0.103,,071217,,,A*63
$GNRMC,101223.00,A,3951.85263,N,11622.43084,E,0.048,,071217,,,A*6A
$GNRMC,101224.00,A,3951.85280,N,11622.43078,E,0.013,,071217,,,A*6D
$GNRMC,101225.00,A,3951.85302,N,11622.43062,E,0.050,,071217,,,A*6B
$GNRMC,101226.00,A,3951.85326,N,11622.43051,E,0.100,,071217,,,A*6A
$GNRMC,101227.00,A,3951.85358,N,11622.43031,E,0.064,,071217,,,A*67
$GNRMC,101228.00,A,3951.85375,N,11622.43019,E,0.059,,071217,,,A*63
$GNRMC,101229.00,A,3951.85401,N,11622.43000,E,0.050,,071217,,,A*67
$GNRMC,101230.00,A,3951.85421,N,11622.42986,E,0.045,,071217,,,A*6F
$GNRMC,101231.00,A,3951.85426,N,11622.42986,E,0.024,,071217,,,A*6E
$GNRMC,101232.00,A,3951.85427,N,11622.42991,E,0.026,,071217,,,A*68
$GNRMC,101233.00,A,3951.85439,N,11622.42982,E,0.051,,071217,,,A*64
$GNRMC,101234.00,A,3951.85448,N,11622.42976,E,0.052,,071217,,,A*6D
$GNRMC,101235.00,A,3951.85453,N,11622.42966,E,0.011,,071217,,,A*60
$GNRMC,101236.00,A,3951.85454,N,11622.42964,E,0.088,,071217,,,A*66
$GNRMC,101237.00,A,3951.85465,N,11622.42957,E,0.095,,071217,,,A*69
$GNRMC,101238.00,A,3951.85477,N,11622.42952,E,0.036,,071217,,,A*69
$GNRMC,101239.00,A,3951.85489,N,11622.42947,E,0.110,,071217,,,A*68
$GNRMC,101240.00,A,3951.85491,N,11622.42945,E,0.052,,071217,,,A*6A
$GNRMC,101241.00,A,3951.85490,N,11622.42949,E,0.033,,071217,,,A*61
$GNRMC,101242.00,A,3951.85484,N,11622.42960,E,0.035,,071217,,,A*6A
$GNRMC,101243.00,A,3951.85476,N,11622.42970,E,0.027,,071217,,,A*64
$GNRMC,101244.00,A,3951.85468,N,11622.42975,E,0.025,,071217,,,A*6B
$GNRMC,101245.00,A,3951.85457,N,11622.42975,E,0.021,,071217,,,A*62
$GNRMC,101246.00,A,3951.85448,N,11622.42979,E,0.024,,071217,,,A*66
$GNRMC,101247.00,A,3951.85434,N,11622.42990,E,0.036,,071217,,,A*68
$GNRMC,101248.00,A,3951.85419,N,11622.43006,E,0.044,,071217,,,A*6A
$GNRMC,101249.00,A,3951.85404,N,11622.43016,E,0.057,,071217,,,A*64
$GNRMC,101250.00,A,3951.85390,N,11622.43026,E,0.015,,071217,,,A*63
$GNRMC,101251.00,A,3951.85381,N,11622.43033,E,0.058,,071217,,,A*6F
$GNRMC,101252.00,A,3951.85387,N,11622.43036,E,0.032,,071217,,,A*63
$GNRMC,101253.00,A,3951.85385,N,11622.43047,E,0.021,,071217,,,A*64
$GNRMC,101254.00,A,3951.85391,N,11622.43057,E,0.025,,071217,,,A*63
$GNRMC,101255.00,A,3951.85395,N,11622.43075,E,0.053,,071217,,,A*67
$GNRMC,101256.00,A,3951.85400,N,11622.43089,E,0.045,,071217,,,A*6B
$GNRMC,101257.00,A,3951.85406,N,11622.43102,E,0.035,,071217,,,A*69
$GNRMC,101258.00,A,3951.85417,N,11622.43111,E,0.011,,071217,,,A*62
$GNRMC,101259.00,A,3951.85427,N,11622.43119,E,0.048,,071217,,,A*64
$GNRMC,101300.00,A,3951.85425,N,11622.43138,E,0.141,,071217,,,A*60
$GNRMC,101301.00,A,3951.85425,N,11622.43143,E,0.058,,071217,,,A*64
$GNRMC,101302.00,A,3951.85424,N,11622.43143,E,0.036,,071217,,,A*6E
$GNRMC,101303.00,A,3951.85432,N,11622.43146,E,0.077,,071217,,,A*68
$GNRMC,101304.00,A,3951.85437,N,11622.43151,E,0.039,,071217,,,A*66
$GNRMC,101305.00,A,3951.85447,N,11622.43151,E,0.082,,071217,,,A*60
$GNRMC,101306.00,A,3951.85456,N,11622.43154,E,0.043,,071217,,,A*6B
$GNRMC,101307.00,A,3951.85477,N,11622.43142,E,0.120,,071217,,,A*6A
$GNRMC,101308.00,A,3951.85482,N,11622.43136,E,0.092,,071217,,,A*64
$GNRMC,101309.00,A,3951.85498,N,11622.43133,E,0.052,,071217,,,A*67
$GNRMC,101310.00,A,3951.85506,N,11622.43119,E,0.039,,071217,,,A*6C
$GNRMC,101311.00,A,3951.85530,N,11622.43109,E,0.031,,071217,,,A*61
$GNRMC,101312.00,A,3951.85545,N,11622.43107,E,0.069,,071217,,,A*63
$GNRMC,101313.00,A,3951.85556,N,11622.43096,E,0.041,,071217,,,A*63
$GNRMC,101314.00,A,3951.85573,N,11622.43099,E,0.130,,071217,,,A*6B
$GNRMC,101315.00,A,3951.85574,N,11622.43117,E,0.084,,071217,,,A*64
$GNRMC,101316.00,A,3951.85591,N,11622.43129,E,0.090,,071217,,,A*64
$GNRMC,101317.00,A,3951.85591,N,11622.43149,E,0.028,,071217,,,A*60
$GNRMC,101318.00,A,3951.85590,N,11622.43169,E,0.015,,071217,,,A*62
$GNRMC,101319.00,A,3951.85585,N,11622.43189,E,0.046,,071217,,,A*6F
$GNRMC,101320.00,A,3951.85567,N,11622.43216,E,0.031,,071217,,,A*6C
$GNRMC,101321.00,A,3951.85551,N,11622.43235,E,0.007,,071217,,,A*6C
$GNRMC,101322.00,A,3951.85545,N,11622.43244,E,0.020,,071217,,,A*69
$GNRMC,101323.00,A,3951.85525,N,11622.43260,E,0.053,,071217,,,A*6C
$GNRMC,101324.00,A,3951.85511,N,11622.43279,E,0.018,,071217,,,A*6B
$GNRMC,101325.00,A,3951.85494,N,11622.43300,E,0.040,,071217,,,A*64
$GNRMC,101326.00,A,3951.85484,N,11622.43311,E,0.051,,071217,,,A*66
$GNRMC,101327.00,A,3951.85475,N,11622.43330,E,0.020,,071217,,,A*6C
$GNRMC,101328.00,A,3951.85469,N,11622.43331,E,0.008,,071217,,,A*65
$GNRMC,101329.00,A,3951.85477,N,11622.43331,E,0.029,,071217,,,A*68
$GNRMC,101330.00,A,3951.85479,N,11622.43338,E,0.018,,071217,,,A*65
$GNRMC,101331.00,A,3951.85477,N,11622.43345,E,0.024,,071217,,,A*6F
$GNRMC,101332.00,A,3951.85474,N,11622.43348,E,0.021,,071217,,,A*67
$GNRMC,101333.00,A,3951.85479,N,11622.43343,E,0.019,,071217,,,A*6B
$GNRMC,101334.00,A,3951.85473,N,11622.43341,E,0.018,,071217,,,A*65
$GNRMC,101335.00,A,3951.85466,N,11622.43340,E,0.014,,071217,,,A*6D
$GNRMC,101336.00,A,3951.85459,N,11622.43338,E,0.049,,071217,,,A*65
$GNRMC,101337.00,A,3951.85451,N,11622.43336,E,0.034,,071217,,,A*68
$GNRMC,101338.00,A,3951.85433,N,11622.43323,E,0.041,,071217,,,A*65
$GNRMC,101339.00,A,3951.85421,N,11622.43294,E,0.030,,071217,,,A*6C
$GNRMC,101340.00,A,3951.85406,N,11622.43254,E,0.130,,071217,,,A*6A
$GNRMC,101341.00,A,3951.85387,N,11622.43210,E,0.019,,071217,,,A*6F
$GNRMC,101342.00,A,3951.85376,N,11622.43178,E,0.037,,071217,,,A*63
$GNRMC,101343.00,A,3951.85365,N,11622.43148,E,0.025,,071217,,,A*60
$GNRMC,101344.00,A,3951.85345,N,11622.43125,E,0.064,,071217,,,A*6B
$GNRMC,101345.00,A,3951.85330,N,11622.43101,E,0.022,,071217,,,A*6C
$GNRMC,101346.00,A,3951.85309,N,11622.43095,E,0.046,,071217,,,A*6B
$GNRMC,101347.00,A,3951.85287,N,11622.43088,E,0.019,,071217,,,A*6B
$GNRMC,101348.00,A,3951.85266,N,11622.43072,E,0.026,,071217,,,A*62
$GNRMC,101349.00,A,3951.85238,N,11622.43072,E,0.032,,071217,,,A*6D
$GNRMC,101350.00,A,3951.85217,N,11622.43067,E,0.037,,071217,,,A*69
$GNRMC,101351.00,A,3951.85204,N,11622.43056,E,0.032,,071217,,,A*6D
$GNRMC,101352.00,A,3951.85190,N,11622.43041,E,0.045,,071217,,,A*66
$GNRMC,101353.00,A,3951.85175,N,11622.43030,E,0.033,,071217,,,A*6B
$GNRMC,101354.00,A,3951.85166,N,11622.43010,E,0.039,,071217,,,A*66
$GNRMC,101355.00,A,3951.85153,N,11622.42996,E,0.070,,071217,,,A*6A
$GNRMC,101356.00,A,3951.85136,N,11622.42980,E,0.104,,071217,,,A*6F
$GNRMC,101357.00,A,3951.85113,N,11622.42970,E,0.019,,071217,,,A*6B
$GNRMC,101358.00,A,3951.85100,N,11622.42954,E,0.068,,071217,,,A*66
$GNRMC,101359.00,A,3951.85086,N,11622.42937,E,0.043,,071217,,,A*64
$GNRMC,101400.00,A,3951.85075,N,11622.42914,E,0.046,,071217,,,A*67
$GNRMC,101401.00,A,3951.85061,N,11622.42910,E,0.070,,071217,,,A*62
$GNRMC,101402.00,A,3951.85052,N,11622.42919,E,0.087,,071217,,,A*60
$GNRMC,101403.00,A,3951.85037,N,11622.42925,E,0.030,,071217,,,A*61
$GNRMC,101404.00,A,3951.85021,N,11622.42922,E,0.039,,071217,,,A*6F
$GNRMC,101405.00,A,3951.85001,N,11622.42922,E,0.047,,071217,,,A*65
$GNRMC,101406.00,A,3951.84985,N,11622.42921,E,0.066,,071217,,,A*62
$GNRMC,101407.00,A,3951.84965,N,11622.42913,E,0.098,,071217,,,A*6D
$GNRMC,101408.00,A,3951.84964,N,11622.42892,E,0.059,,071217,,,A*66
$GNRMC,101409.00,A,3951.84960,N,11622.42883,E,0.010,,071217,,,A*6E
$GNRMC,101410.00,A,3951.84959,N,11622.42868,E,0.091,,071217,,,A*60
$GNRMC,101411.00,A,3951.84947,N,11622.42860,E,0.031,,071217,,,A*6C
$GNRMC,101412.00,A,3951.84946,N,11622.42847,E,0.052,,071217,,,A*6E
$GNRMC,101413.00,A,3951.84937,N,11622.42844,E,0.043,,071217,,,A*6A
$GNRMC,101414.00,A,3951.84935,N,11622.42835,E,0.088,,071217,,,A*6E
$GNRMC,101415.00,A,3951.84928,N,11622.42839,E,0.038,,071217,,,A*64
$GNRMC,101416.00,A,3951.84915,N,11622.42848,E,0.035,,071217,,,A*62
$GNRMC,101417.00,A,3951.84895,N,11622.42870,E,0.092,,071217,,,A*6C
$GNRMC,101418.00,A,3951.84869,N,11622.42890,E,0.072,,071217,,,A*60
$GNRMC,101419.00,A,3951.84842,N,11622.42905,E,0.064,,071217,,,A*62
$GNRMC,101420.00,A,3951.84809,N,11622.42909,E,0.057,,071217,,,A*6B
$GNRMC,101421.00,A,3951.84781,N,11622.42921,E,0.015,,071217,,,A*69
$GNRMC,101422.00,A,3951.84764,N,11622.42921,E,0.042,,071217,,,A*63
$GNRMC,101423.00,A,3951.84760,N,11622.42936,E,0.023,,071217,,,A*67
$GNRMC,101424.00,A,3951.84752,N,11622.42950,E,0.041,,071217,,,A*65
$GNRMC,101425.00,A,3951.84749,N,11622.42966,E,0.044,,071217,,,A*6E
$GNRMC,101426.00,A,3951.84759,N,11622.42992,E,0.008,,071217,,,A*6F
$GNRMC,101427.00,A,3951.84768,N,11622.43013,E,0.044,,071217,,,A*65
$GNRMC,101428.00,A,3951.84781,N,11622.43036,E,0.047,,071217,,,A*69
$GNRMC,101429.00,A,3951.84779,N,11622.43060,E,0.027,,071217,,,A*6A
$GNRMC,101430.00,A,3951.84776,N,11622.43084,E,0.047,,071217,,,A*61
$GNRMC,101431.00,A,3951.84779,N,11622.43095,E,0.025,,071217,,,A*6B
$GNRMC,101432.00,A,3951.84779,N,11622.43107,E,0.031,,071217,,,A*67
$GNRMC,101433.00,A,3951.84775,N,11622.43116,E,0.018,,071217,,,A*61
$GNRMC,101434.00,A,3951.84769,N,11622.43123,E,0.059,,071217,,,A*68
$GNRMC,101435.00,A,3951.84772,N,11622.43123,E,0.062,,071217,,,A*6B
$GNRMC,101436.00,A,3951.84774,N,11622.43129,E,0.033,,071217,,,A*60
$GNRMC,101437.00,A,3951.84769,N,11622.43136,E,0.059,,071217,,,A*6F
$GNRMC,101438.00,A,3951.84770,N,11622.43141,E,0.038,,071217,,,A*6F
$GNRMC,101439.00,A,3951.84775,N,11622.43145,E,0.036,,071217,,,A*61
$GNRMC,101440.00,A,3951.84787,N,11622.43160,E,0.014,,071217,,,A*65
$GNRMC,101441.00,A,3951.84790,N,11622.43168,E,0.046,,071217,,,A*6D
$GNRMC,101442.00,A,3951.84796,N,11622.43171,E,0.044,,071217,,,A*62
$GNRMC,101443.00,A,3951.84810,N,11622.43169,E,0.015,,071217,,,A*6F
$GNRMC,101444.00,A,3951.84824,N,11622.43173,E,0.042,,071217,,,A*66
$GNRMC,101445.00,A,3951.84839,N,11622.43177,E,0.023,,071217,,,A*68
$GNRMC,101446.00,A,3951.84862,N,11622.43178,E,0.081,,071217,,,A*62
$GNRMC,101447.00,A,3951.84877,N,11622.43180,E,0.046,,071217,,,A*6B
$GNRMC,101448.00,A,3951.84887,N,11622.43177,E,0.015,,071217,,,A*65
$GNRMC,101449.00,A,3951.84899,N,11622.43174,E,0.039,,071217,,,A*66
$GNRMC,101450.00,A,3951.84908,N,11622.43176,E,0.016,,071217,,,A*68
$GNRMC,101451.00,A,3951.84920,N,11622.43184,E,0.032,,071217,,,A*68
$GNRMC,101452.00,A,3951.84934,N,11622.43183,E,0.053,,071217,,,A*6E
$GNRMC,101453.00,A,3951.84946,N,11622.43181,E,0.057,,071217,,,A*6C
$GNRMC,101454.00,A,3951.84959,N,11622.43173,E,0.024,,071217,,,A*6C
$GNRMC,101455.00,A,3951.84972,N,11622.43159,E,0.031,,071217,,,A*68
$GNRMC,101456.00,A,3951.84985,N,11622.43157,E,0.008,,071217,,,A*67
$GNRMC,101457.00,A,3951.84990,N,11622.43151,E,0.030,,071217,,,A*6F
$GNRMC,101458.00,A,3951.84997,N,11622.43155,E,0.039,,071217,,,A*6A
$GNRMC,101459.00,A,3951.85010,N,11622.43163,E,0.020,,071217,,,A*61
$GNRMC,101500.00,A,3951.85023,N,11622.43174,E,0.028,,071217,,,A*62
$GNRMC,101501.00,A,3951.85040,N,11622.43186,E,0.049,,071217,,,A*6C
$GNRMC,101502.00,A,3951.85054,N,11622.43201,E,0.063,,071217,,,A*6E
$GNRMC,101503.00,A,3951.85069,N,11622.43216,E,0.078,,071217,,,A*6D
$GNRMC,101504.00,A,3951.85082,N,11622.43233,E,0.036,,071217,,,A*62
$GNRMC,101505.00,A,3951.85099,N,11622.43240,E,0.023,,071217,,,A*69
$GNRMC,101506.00,A,3951.85118,N,11622.43244,E,0.015,,071217,,,A*63
$GNRMC,101507.00,A,3951.85142,N,11622.43242,E,0.038,,071217,,,A*64
$GNRMC,101508.00,A,3951.85162,N,11622.43248,E,0.027,,071217,,,A*6D
$GNRMC,101509.00,A,3951.85177,N,11622.43244,E,0.013,,071217,,,A*63
$GNRMC,101510.00,A,3951.85192,N,11622.43242,E,0.058,,071217,,,A*69
$GNRMC,101511.00,A,3951.85209,N,11622.43240,E,0.049,,071217,,,A*6B
$GNRMC,101512.00,A,3951.85231,N,11622.43240,E,0.028,,071217,,,A*64
$GNRMC,101513.00,A,3951.85252,N,11622.43245,E,0.036,,071217,,,A*6A
$GNRMC,101514.00,A,3951.85273,N,11622.43248,E,0.038,,071217,,,A*6D
$GNRMC,101515.00,A,3951.85292,N,11622.43252,E,0.043,,071217,,,A*64
$GNRMC,101516.00,A,3951.85308,N,11622.43254,E,0.013,,071217,,,A*66
$GNRMC,101517.00,A,3951.85322,N,11622.43258,E,0.043,,071217,,,A*66
$GNRMC,101518.00,A,3951.85335,N,11622.43265,E,0.040,,071217,,,A*62
$GNRMC,101519.00,A,3951.85353,N,11622.43271,E,0.028,,071217,,,A*68
$GNRMC,101520.00,A,3951.85365,N,11622.43282,E,0.042,,071217,,,A*67
$GNRMC,101521.00,A,3951.85379,N,11622.43284,E,0.072,,071217,,,A*6E
$GNRMC,101522.00,A,3951.85387,N,11622.43284,E,0.071,,071217,,,A*6F
$GNRMC,101523.00,A,3951.85397,N,11622.43280,E,0.057,,071217,,,A*6F
$GNRMC,101524.00,A,3951.85411,N,11622.43274,E,0.032,,071217,,,A*69
$GNRMC,101525.00,A,3951.85433,N,11622.43265,E,0.091,,071217,,,A*61
$GNRMC,101526.00,A,3951.85442,N,11622.43269,E,0.052,,071217,,,A*67
$GNRMC,101527.00,A,3951.85453,N,11622.43276,E,0.074,,071217,,,A*6C
$GNRMC,101528.00,A,3951.85461,N,11622.43297,E,0.035,,071217,,,A*68
$GNRMC,101529.00,A,3951.85464,N,11622.43319,E,0.044,,071217,,,A*6D
$GNRMC,101530.00,A,3951.85467,N,11622.43339,E,0.065,,071217,,,A*67
$GNRMC,101531.00,A,3951.85471,N,11622.43353,E,0.103,,071217,,,A*6C
$GNRMC,101532.00,A,3951.85472,N,11622.43367,E,0.027,,071217,,,A*6C
$GNRMC,101533.00,A,3951.85471,N,11622.43381,E,0.028,,071217,,,A*69
$GNRMC,101534.00,A,3951.85472,N,11622.43394,E,0.040,,071217,,,A*67
$GNRMC,101535.00,A,3951.85469,N,11622.43408,E,0.077,,071217,,,A*6A
$GNRMC,101536.00,A,3951.85467,N,11622.43430,E,0.043,,071217,,,A*6B
$GNRMC,101537.00,A,3951.85472,N,11622.43438,E,0.076,,071217,,,A*60
$GNRMC,101538.00,A,3951.85475,N,11622.43454,E,0.126,,071217,,,A*66
$GNRMC,101539.00,A,3951.85474,N,11622.43477,E,0.117,,071217,,,A*65
$GNRMC,101540.00,A,3951.85477,N,11622.43480,E,0.074,,071217,,,A*64
$GNRMC,101541.00,A,3951.85481,N,11622.43486,E,0.078,,071217,,,A*66
$GNRMC,101542.00,A,3951.85484,N,11622.43489,E,0.030,,071217,,,A*63
$GNRMC,101543.00,A,3951.85484,N,11622.43519,E,0.101,,071217,,,A*69
$GNRMC,101544.00,A,3951.85483,N,11622.43543,E,0.120,,071217,,,A*65
$GNRMC,101545.00,A,3951.85479,N,11622.43578,E,0.098,,071217,,,A*6B
$GNRMC,101546.00,A,3951.85483,N,11622.43615,E,0.102,,071217,,,A*67
$GNRMC,101547.00,A,3951.85483,N,11622.43649,E,0.153,,071217,,,A*6B
$GNRMC,101548.00,A,3951.85478,N,11622.43669,E,0.172,,071217,,,A*61
$GNRMC,101549.00,A,3951.85489,N,11622.43687,E,0.122,,071217,,,A*6B
$GNRMC,101550.00,A,3951.85488,N,11622.43711,E,0.179,,071217,,,A*62
$GNRMC,101551.00,A,3951.85490,N,11622.43730,E,0.163,,071217,,,A*62
$GNRMC,101552.00,A,3951.85482,N,11622.43765,E,0.162,,071217,,,A*63
$GNRMC,101553.00,A,3951.85474,N,11622.43800,E,0.064,,071217,,,A*60
$GNRMC,101554.00,A,3951.85473,N,11622.43828,E,0.055,,071217,,,A*68
$GNRMC,101555.00,A,3951.85472,N,11622.43861,E,0.070,,071217,,,A*62
$GNRMC,101556.00,A,3951.85472,N,11622.43888,E,0.024,,071217,,,A*67
$GNRMC,101557.00,A,3951.85475,N,11622.43919,E,0.033,,071217,,,A*6E
$GNRMC,101558.00,A,3951.85484,N,11622.43948,E,0.093,,071217,,,A*61
$GNRMC,101559.00,A,3951.85479,N,11622.43976,E,0.162,,071217,,,A*60
$GNRMC,101600.00,A,3951.85473,N,11622.43996,E,0.100,,071217,,,A*6F
$GNRMC,101601.00,A,3951.85478,N,11622.43995,E,0.065,,071217,,,A*64
$GNRMC,101602.00,A,3951.85481,N,11622.44002,E,0.023,,071217,,,A*63
$GNRMC,101603.00,A,3951.85483,N,11622.44020,E,0.076,,071217,,,A*60
$GNRMC,101604.00,A,3951.85488,N,11622.44047,E,0.043,,071217,,,A*6B
$GNRMC,101605.00,A,3951.85491,N,11622.44073,E,0.123,,071217,,,A*62
$GNRMC,101606.00,A,3951.85492,N,11622.44107,E,0.123,,071217,,,A*60
$GNRMC,101607.00,A,3951.85496,N,11622.44138,E,0.056,,071217,,,A*6A
$GNRMC,101608.00,A,3951.85493,N,11622.44176,E,0.083,,071217,,,A*62
$GNRMC,101609.00,A,3951.85482,N,11622.44214,E,0.066,,071217,,,A*6F
$GNRMC,101610.00,A,3951.85480,N,11622.44240,E,0.015,,071217,,,A*60
$GNRMC,101611.00,A,3951.85470,N,11622.44263,E,0.060,,071217,,,A*6D
$GNRMC,101612.00,A,3951.85472,N,11622.44271,E,0.092,,071217,,,A*62
$GNRMC,101613.00,A,3951.85468,N,11622.44295,E,0.157,,071217,,,A*6A
$GNRMC,101614.00,A,3951.85461,N,11622.44317,E,0.149,,071217,,,A*60
$GNRMC,101615.00,A,3951.85454,N,11622.44342,E,0.144,,071217,,,A*6A
$GNRMC,101616.00,A,3951.85434,N,11622.44363,E,0.069,,071217,,,A*62
$GNRMC,101617.00,A,3951.85422,N,11622.44387,E,0.016,,071217,,,A*66
$GNRMC,101618.00,A,3951.85411,N,11622.44416,E,0.043,,071217,,,A*66
$GNRMC,101619.00,A,3951.85392,N,11622.44442,E,0.005,,071217,,,A*68
$GNRMC,101620.00,A,3951.85382,N,11622.44457,E,0.018,,071217,,,A*6B
$GNRMC,101621.00,A,3951.85364,N,11622.44480,E,0.036,,071217,,,A*64
$GNRMC,101622.00,A,3951.85343,N,11622.44502,E,0.086,,071217,,,A*62
$GNRMC,101623.00,A,3951.85333,N,11622.44510,E,0.046,,071217,,,A*6B
$GNRMC,101624.00,A,3951.85329,N,11622.44505,E,0.067,,071217,,,A*60
$GNRMC,101625.00,A,3951.85328,N,11622.44510,E,0.081,,071217,,,A*6C
$GNRMC,101626.00,A,3951.85325,N,11622.44501,E,0.078,,071217,,,A*64
$GNRMC,101627.00,A,3951.85325,N,11622.44506,E,0.068,,071217,,,A*63
$GNRMC,101628.00,A,3951.85316,N,11622.44526,E,0.138,,071217,,,A*6A
$GNRMC,101629.00,A,3951.85319,N,11622.44555,E,0.183,,071217,,,A*60
$GNRMC,101630.00,A,3951.85320,N,11622.44583,E,0.082,,071217,,,A*69
$GNRMC,101631.00,A,3951.85322,N,11622.44601,E,0.130,,071217,,,A*6B
$GNRMC,101632.00,A,3951.85332,N,11622.44618,E,0.048,,071217,,,A*6F
$GNRMC,101633.00,A,3951.85338,N,11622.44625,E,0.086,,071217,,,A*68
$GNRMC,101634.00,A,3951.85344,N,11622.44639,E,0.060,,071217,,,A*61
$GNRMC,101635.00,A,3951.85358,N,11622.44645,E,0.044,,071217,,,A*60
$GNRMC,101636.00,A,3951.85362,N,11622.44663,E,0.080,,071217,,,A*66
$GNRMC,101637.00,A,3951.85367,N,11622.44673,E,0.045,,071217,,,A*6A
$GNRMC,101638.00,A,3951.85375,N,11622.44681,E,0.005,,071217,,,A*6F
$GNRMC,101639.00,A,3951.85390,N,11622.44693,E,0.037,,071217,,,A*67
$GNRMC,101640.00,A,3951.85407,N,11622.44699,E,0.056,,071217,,,A*6D
$GNRMC,101641.00,A,3951.85416,N,11622.44702,E,0.032,,071217,,,A*6D
$GNRMC,101642.00,A,3951.85429,N,11622.44705,E,0.017,,071217,,,A*62
$GNRMC,101643.00,A,3951.85435,N,11622.44715,E,0.038,,071217,,,A*62
$GNRMC,101644.00,A,3951.85448,N,11622.44719,E,0.061,,071217,,,A*6F
$GNRMC,101645.00,A,3951.85441,N,11622.44728,E,0.096,,071217,,,A*6D
$GNRMC,101646.00,A,3951.85431,N,11622.44741,E,0.034,,071217,,,A*6E
$GNRMC,101647.00,A,3951.85419,N,11622.44763,E,0.033,,071217,,,A*62
$GNRMC,101648.00,A,3951.85406,N,11622.44786,E,0.105,,071217,,,A*6C
$GNRMC,101649.00,A,3951.85388,N,11622.44816,E,0.124,,071217,,,A*69
$GNRMC,101650.00,A,3951.85374,N,11622.44843,E,0.030,,071217,,,A*66
$GNRMC,101651.00,A,3951.85356,N,11622.44869,E,0.060,,071217,,,A*6A
$GNRMC,101652.00,A,3951.85338,N,11622.44894,E,0.055,,071217,,,A*65
$GNRMC,101653.00,A,3951.85323,N,11622.44916,E,0.119,,071217,,,A*6C
$GNRMC,101654.00,A,3951.85315,N,11622.44931,E,0.207,,071217,,,A*67
$GNRMC,101655.00,A,3951.85303,N,11622.44956,E,0.228,,071217,,,A*6D
$GNRMC,101656.00,A,3951.85303,N,11622.44955,E,0.182,,071217,,,A*6E
$GNRMC,101657.00,A,3951.85312,N,11622.44968,E,0.037,,071217,,,A*6E
$GNRMC,101658.00,A,3951.85325,N,11622.44959,E,0.120,,071217,,,A*60
$GNRMC,101659.00,A,3951.85332,N,11622.44959,E,0.112,,071217,,,A*66
$GNRMC,101700.00,A,3951.85342,N,11622.44941,E,0.040,,071217,,,A*63
$GNRMC,101701.00,A,3951.85354,N,11622.44922,E,0.056,,071217,,,A*67
$GNRMC,101702.00,A,3951.85360,N,11622.44907,E,0.030,,071217,,,A*64
$GNRMC,101703.00,A,3951.85367,N,11622.44882,E,0.058,,071217,,,A*60
$GNRMC,101704.00,A,3951.85373,N,11622.44858,E,0.179,,071217,,,A*67
$GNRMC,101705.00,A,3951.85392,N,11622.44836,E,0.119,,071217,,,A*67
$GNRMC,101706.00,A,3951.85412,N,11622.44812,E,0.125,,071217,,,A*62
$GNRMC,101707.00,A,3951.85434,N,11622.44783,E,0.028,,071217,,,A*6C
$GNRMC,101708.00,A,3951.85464,N,11622.44741,E,0.039,,071217,,,A*68
$GNRMC,101709.00,A,3951.85489,N,11622.44690,E,0.044,,071217,,,A*6D
$GNRMC,101710.00,A,3951.85519,N,11622.44636,E,0.007,,071217,,,A*66
$GNRMC,101711.00,A,3951.85535,N,11622.44582,E,0.041,,071217,,,A*67
$GNRMC,101712.00,A,3951.85552,N,11622.44533,E,0.067,,071217,,,A*6B
$GNRMC,101713.00,A,3951.85568,N,11622.44501,E,0.045,,071217,,,A*62
$GNRMC,101714.00,A,3951.85592,N,11622.44450,E,0.040,,071217,,,A*60
$GNRMC,101715.00,A,3951.85611,N,11622.44395,E,0.045,,071217,,,A*62
$GNRMC,101716.00,A,3951.85640,N,11622.44340,E,0.034,,071217,,,A*6B
$GNRMC,101717.00,A,3951.85661,N,11622.44290,E,0.006,,071217,,,A*64
$GNRMC,101718.00,A,3951.85681,N,11622.44247,E,0.016,,071217,,,A*6E
$GNRMC,101719.00,A,3951.85705,N,11622.44195,E,0.093,,071217,,,A*63
$GNRMC,101720.00,A,3951.85730,N,11622.44140,E,0.044,,071217,,,A*6D
$GNRMC,101721.00,A,3951.85745,N,11622.44096,E,0.027,,071217,,,A*61
$GNRMC,101722.00,A,3951.85761,N,11622.44064,E,0.023,,071217,,,A*6D
$GNRMC,101723.00,A,3951.85786,N,11622.44051,E,0.034,,071217,,,A*65
$GNRMC,101724.00,A,3951.85810,N,11622.44034,E,0.028,,071217,,,A*6C
$GNRMC,101725.00,A,3951.85829,N,11622.44030,E,0.022,,071217,,,A*69
$GNRMC,101726.00,A,3951.85840,N,11622.44018,E,0.017,,071217,,,A*69
$GNRMC,101727.00,A,3951.85851,N,11622.44014,E,0.021,,071217,,,A*61
$GNRMC,101728.00,A,3951.85861,N,11622.44008,E,0.033,,071217,,,A*63
$GNRMC,101729.00,A,3951.85873,N,11622.43995,E,0.048,,071217,,,A*67
$GNRMC,101730.00,A,3951.85882,N,11622.43981,E,0.022,,071217,,,A*68
$GNRMC,101731.00,A,3951.85890,N,11622.43968,E,0.034,,071217,,,A*6A
$GNRMC,101732.00,A,3951.85897,N,11622.43967,E,0.025,,071217,,,A*61
$GNRMC,101733.00,A,3951.85902,N,11622.43974,E,0.090,,071217,,,A*61
$GNRMC,101734.00,A,3951.85907,N,11622.43982,E,0.007,,071217,,,A*64
$GNRMC,101735.00,A,3951.85906,N,11622.43996,E,0.015,,071217,,,A*62
$GNRMC,101736.00,A,3951.85914,N,11622.43995,E,0.064,,071217,,,A*67
$GNRMC,101737.00,A,3951.85914,N,11622.44010,E,0.039,,071217,,,A*6D
$GNRMC,101738.00,A,3951.85915,N,11622.44016,E,0.017,,071217,,,A*69
$GNRMC,101739.00,A,3951.85918,N,11622.44009,E,0.027,,071217,,,A*68
$GNRMC,101740.00,A,3951.85925,N,11622.44015,E,0.045,,071217,,,A*61
$GNRMC,101741.00,A,3951.85933,N,11622.44017,E,0.073,,071217,,,A*60
$GNRMC,101742.00,A,3951.85939,N,11622.44018,E,0.053,,071217,,,A*64
$GNRMC,101743.00,A,3951.85946,N,11622.44016,E,0.053,,071217,,,A*63
$GNRMC,101744.00,A,3951.85956,N,11622.44008,E,0.041,,071217,,,A*69
$GNRMC,101745.00,A,3951.85970,N,11622.43991,E,0.019,,071217,,,A*6F
$GNRMC,101746.00,A,3951.85973,N,11622.43983,E,0.099,,071217,,,A*64
$GNRMC,101747.00,A,3951.85972,N,11622.43994,E,0.037,,071217,,,A*66
$GNRMC,101748.00,A,3951.85962,N,11622.44007,E,0.044,,071217,,,A*68
$GNRMC,101749.00,A,3951.85951,N,11622.44011,E,0.012,,071217,,,A*6D
$GNRMC,101750.00,A,3951.85934,N,11622.44030,E,0.095,,071217,,,A*6A
$GNRMC,101751.00,A,3951.85923,N,11622.44042,E,0.071,,071217,,,A*62
$GNRMC,101752.00,A,3951.85909,N,11622.44062,E,0.079,,071217,,,A*63
$GNRMC,101753.00,A,3951.85897,N,11622.44073,E,0.085,,071217,,,A*67
$GNRMC,101754.00,A,3951.85879,N,11622.44087,E,0.081,,071217,,,A*6F
$GNRMC,101755.00,A,3951.85863,N,11622.44099,E,0.112,,071217,,,A*61
$GNRMC,101756.00,A,3951.85853,N,11622.44107,E,0.039,,071217,,,A*6F
$GNRMC,101757.00,A,3951.85840,N,11622.44118,E,0.030,,071217,,,A*6B
$GNRMC,101758.00,A,3951.85828,N,11622.44134,E,0.026,,071217,,,A*63
$GNRMC,101759.00,A,3951.85818,N,11622.44139,E,0.029,,071217,,,A*63
$GNRMC,101800.00,A,3951.85806,N,11622.44147,E,0.023,,071217,,,A*6C
$GNRMC,101801.00,A,3951.85796,N,11622.44155,E,0.014,,071217,,,A*6C
$GNRMC,101802.00,A,3951.85788,N,11622.44162,E,0.030,,071217,,,A*62
$GNRMC,101803.00,A,3951.85777,N,11622.44183,E,0.119,,071217,,,A*66
$GNRMC,101804.00,A,3951.85777,N,11622.44181,E,0.034,,071217,,,A*6D
$GNRMC,101805.00,A,3951.85771,N,11622.44210,E,0.059,,071217,,,A*6A
$GNRMC,101806.00,A,3951.85757,N,11622.44257,E,0.015,,071217,,,A*66
$GNRMC,101807.00,A,3951.85742,N,11622.44276,E,0.009,,071217,,,A*6D
$GNRMC,101808.00,A,3951.85721,N,11622.44309,E,0.021,,071217,,,A*64
$GNRMC,101809.00,A,3951.85700,N,11622.44339,E,0.011,,071217,,,A*66
$GNRMC,101810.00,A,3951.85678,N,11622.44382,E,0.028,,071217,,,A*6A
$GNRMC,101811.00,A,3951.85655,N,11622.44420,E,0.028,,071217,,,A*6B
$GNRMC,101812.00,A,3951.85635,N,11622.44453,E,0.033,,071217,,,A*60
$GNRMC,101813.00,A,3951.85613,N,11622.44495,E,0.031,,071217,,,A*6D
$GNRMC,101814.00,A,3951.85590,N,11622.44535,E,0.034,,071217,,,A*6C
$GNRMC,101815.00,A,3951.85569,N,11622.44563,E,0.057,,071217,,,A*6D
$GNRMC,101816.00,A,3951.85549,N,11622.44591,E,0.083,,071217,,,A*68
$GNRMC,101817.00,A,3951.85535,N,11622.44627,E,0.043,,071217,,,A*60
$GNRMC,101818.00,A,3951.85521,N,11622.44654,E,0.044,,071217,,,A*69
$GNRMC,101819.00,A,3951.85505,N,11622.44668,E,0.052,,071217,,,A*66
$GNRMC,101820.00,A,3951.85500,N,11622.44674,E,0.029,,071217,,,A*68
$GNRMC,101821.00,A,3951.85488,N,11622.44681,E,0.015,,071217,,,A*6D
$GNRMC,101822.00,A,3951.85480,N,11622.44664,E,0.022,,071217,,,A*69
$GNRMC,101823.00,A,3951.85472,N,11622.44626,E,0.027,,071217,,,A*66
$GNRMC,101824.00,A,3951.85461,N,11622.44558,E,0.026,,071217,,,A*68
$GNRMC,101825.00,A,3951.85450,N,11622.44518,E,0.043,,071217,,,A*6C
$GNRMC,101826.00,A,3951.85455,N,11622.44482,E,0.039,,071217,,,A*65
$GNRMC,101827.00,A,3951.85458,N,11622.44434,E,0.041,,071217,,,A*6B
$GNRMC,101828.00,A,3951.85454,N,11622.44408,E,0.032,,071217,,,A*63
$GNRMC,101829.00,A,3951.85459,N,11622.44384,E,0.041,,071217,,,A*68
$GNRMC,101830.00,A,3951.85463,N,11622.44360,E,0.044,,071217,,,A*66
$GNRMC,101831.00,A,3951.85467,N,11622.44337,E,0.047,,071217,,,A*62
$GNRMC,101832.00,A,3951.85483,N,11622.44297,E,0.028,,071217,,,A*69
$GNRMC,101833.00,A,3951.85491,N,11622.44274,E,0.033,,071217,,,A*6C
$GNRMC,101834.00,A,3951.85492,N,11622.44254,E,0.023,,071217,,,A*6B
$GNRMC,101835.00,A,3951.85495,N,11622.44234,E,0.015,,071217,,,A*6E
$GNRMC,101836.00,A,3951.85497,N,11622.44222,E,0.019,,071217,,,A*64
$GNRMC,101837.00,A,3951.85505,N,11622.44204,E,0.007,,071217,,,A*64
$GNRMC,101838.00,A,3951.85517,N,11622.44176,E,0.012,,071217,,,A*6A
$GNRMC,101839.00,A,3951.85531,N,11622.44152,E,0.037,,071217,,,A*6E
$GNRMC,101840.00,A,3951.85544,N,11622.44128,E,0.020,,071217,,,A*69
$GNRMC,101841.00,A,3951.85555,N,11622.44107,E,0.024,,071217,,,A*61
$GNRMC,101842.00,A,3951.85567,N,11622.44089,E,0.007,,071217,,,A*65
$GNRMC,101843.00,A,3951.85575,N,11622.44074,E,0.026,,071217,,,A*66
$GNRMC,101844.00,A,3951.85581,N,11622.44069,E,0.020,,071217,,,A*60
$GNRMC,101845.00,A,3951.85592,N,11622.44060,E,0.037,,071217,,,A*6C
$GNRMC,101846.00,A,3951.85595,N,11622.44057,E,0.043,,071217,,,A*6F
$GNRMC,101847.00,A,3951.85601,N,11622.44064,E,0.016,,071217,,,A*60
$GNRMC,101848.00,A,3951.85604,N,11622.44073,E,0.033,,071217,,,A*6B
$GNRMC,101849.00,A,3951.85604,N,11622.44083,E,0.012,,071217,,,A*66
$GNRMC,101850.00,A,3951.85604,N,11622.44098,E,0.057,,071217,,,A*65
$GNRMC,101851.00,A,3951.85599,N,11622.44107,E,0.066,,071217,,,A*66
$GNRMC,101852.00,A,3951.85598,N,11622.44114,E,0.057,,071217,,,A*64
$GNRMC,101853.00,A,3951.85599,N,11622.44117,E,0.106,,071217,,,A*62
$GNRMC,101854.00,A,3951.85599,N,11622.44120,E,0.034,,071217,,,A*61
$GNRMC,101855.00,A,3951.85603,N,11622.44095,E,0.048,,071217,,,A*64
$GNRMC,101856.00,A,3951.85608,N,11622.44064,E,0.097,,071217,,,A*60
$GNRMC,101857.00,A,3951.85620,N,11622.44034,E,0.075,,071217,,,A*62
$GNRMC,101858.00,A,3951.85627,N,11622.44014,E,0.042,,071217,,,A*6C
$GNRMC,101859.00,A,3951.85634,N,11622.43996,E,0.019,,071217,,,A*65
$GNRMC,101900.00,A,3951.85651,N,11622.43975,E,0.043,,071217,,,A*69
$GNRMC,101901.00,A,3951.85658,N,11622.43969,E,0.013,,071217,,,A*69
$GNRMC,101902.00,A,3951.85667,N,11622.43964,E,0.039,,071217,,,A*63
$GNRMC,101903.00,A,3951.85683,N,11622.43947,E,0.055,,071217,,,A*63
$GNRMC,101904.00,A,3951.85701,N,11622.43945,E,0.031,,071217,,,A*6F
$GNRMC,101905.00,A,3951.85722,N,11622.43939,E,0.010,,071217,,,A*67
$GNRMC,101906.00,A,3951.85748,N,11622.43937,E,0.027,,071217,,,A*62
$GNRMC,101907.00,A,3951.85765,N,11622.43949,E,0.055,,071217,,,A*60
$GNRMC,101908.00,A,3951.85783,N,11622.43954,E,0.069,,071217,,,A*64
$GNRMC,101909.00,A,3951.85800,N,11622.43963,E,0.137,,071217,,,A*6F
$GNRMC,101910.00,A,3951.85817,N,11622.43970,E,0.093,,071217,,,A*6C
$GNRMC,101911.00,A,3951.85822,N,11622.43989,E,0.055,,071217,,,A*67
$GNRMC,101912.00,A,3951.85839,N,11622.43989,E,0.067,,071217,,,A*6F
$GNRMC,101913.00,A,3951.85847,N,11622.44007,E,0.074,,071217,,,A*6D
$GNRMC,101914.00,A,3951.85857,N,11622.44010,E,0.101,,071217,,,A*6E
$GNRMC,101915.00,A,3951.85860,N,11622.44028,E,0.060,,071217,,,A*66
$GNRMC,101916.00,A,3951.85865,N,11622.44038,E,0.070,,071217,,,A*60
$GNRMC,101917.00,A,3951.85867,N,11622.44049,E,0.044,,071217,,,A*62
$GNRMC,101918.00,A,3951.85854,N,11622.44078,E,0.054,,071217,,,A*6E
$GNRMC,101919.00,A,3951.85832,N,11622.44110,E,0.004,,071217,,,A*65
$GNRMC,101920.00,A,3951.85809,N,11622.44137,E,0.044,,071217,,,A*66
$GNRMC,101921.00,A,3951.85797,N,11622.44135,E,0.074,,071217,,,A*6E
$GNRMC,101922.00,A,3951.85780,N,11622.44137,E,0.051,,071217,,,A*6E
$GNRMC,101923.00,A,3951.85777,N,11622.44109,E,0.049,,071217,,,A*63
$GNRMC,101924.00,A,3951.85768,N,11622.44094,E,0.028,,071217,,,A*68
$GNRMC,101925.00,A,3951.85763,N,11622.44097,E,0.052,,071217,,,A*6C
$GNRMC,101926.00,A,3951.85759,N,11622.44098,E,0.019,,071217,,,A*66
$GNRMC,101927.00,A,3951.85756,N,11622.44102,E,0.079,,071217,,,A*6C
$GNRMC,101928.00,A,3951.85750,N,11622.44103,E,0.013,,071217,,,A*68
$GNRMC,101929.00,A,3951.85748,N,11622.44103,E,0.013,,071217,,,A*60
$GNRMC,101930.00,A,3951.85747,N,11622.44110,E,0.033,,071217,,,A*67
$GNRMC,101931.00,A,3951.85745,N,11622.44100,E,0.016,,071217,,,A*62
$GNRMC,101932.00,A,3951.85748,N,11622.44093,E,0.055,,071217,,,A*60
$GNRMC,101933.00,A,3951.85754,N,11622.44083,E,0.062,,071217,,,A*69
$GNRMC,101934.00,A,3951.85757,N,11622.44097,E,0.010,,071217,,,A*6D
$GNRMC,101935.00,A,3951.85769,N,11622.44090,E,0.039,,071217,,,A*6D
$GNRMC,101936.00,A,3951.85783,N,11622.44084,E,0.023,,071217,,,A*64
$GNRMC,101937.00,A,3951.85806,N,11622.44081,E,0.013,,071217,,,A*61
$GNRMC,101938.00,A,3951.85826,N,11622.44090,E,0.045,,071217,,,A*6F
$GNRMC,101939.00,A,3951.85843,N,11622.44094,E,0.060,,071217,,,A*6E
$GNRMC,101940.00,A,3951.85862,N,11622.44102,E,0.050,,071217,,,A*6E
$GNRMC,101941.00,A,3951.85876,N,11622.44113,E,0.025,,071217,,,A*68
$GNRMC,101942.00,A,3951.85893,N,11622.44122,E,0.023,,071217,,,A*64
$GNRMC,101943.00,A,3951.85913,N,11622.44125,E,0.036,,071217,,,A*6F
$GNRMC,101944.00,A,3951.85929,N,11622.44130,E,0.043,,071217,,,A*67
$GNRMC,101945.00,A,3951.85945,N,11622.44124,E,0.052,,071217,,,A*69
$GNRMC,101946.00,A,3951.85964,N,11622.44126,E,0.051,,071217,,,A*68
$GNRMC,101947.00,A,3951.85979,N,11622.44119,E,0.029,,071217,,,A*66
$GNRMC,101948.00,A,3951.85991,N,11622.44112,E,0.032,,071217,,,A*6E
$GNRMC,101949.00,A,3951.86012,N,11622.44109,E,0.023,,071217,,,A*64
$GNRMC,101950.00,A,3951.86033,N,11622.44107,E,0.055,,071217,,,A*60
$GNRMC,101951.00,A,3951.86053,N,11622.44101,E,0.038,,071217,,,A*6A
$GNRMC,101952.00,A,3951.86072,N,11622.44092,E,0.020,,071217,,,A*68
$GNRMC,101953.00,A,3951.86095,N,11622.44083,E,0.035,,071217,,,A*64
$GNRMC,101954.00,A,3951.86113,N,11622.44081,E,0.022,,071217,,,A*68
$GNRMC,101955.00,A,3951.86134,N,11622.44066,E,0.037,,071217,,,A*61
$GNRMC,101956.00,A,3951.86153,N,11622.44042,E,0.026,,071217,,,A*65
$GNRMC,101957.00,A,3951.86176,N,11622.44015,E,0.008,,071217,,,A*6D
$GNRMC,101958.00,A,3951.86200,N,11622.43995,E,0.024,,071217,,,A*68
$GNRMC,101959.00,A,3951.86225,N,11622.43985,E,0.030,,071217,,,A*6A
$GNRMC,102000.00,A,3951.86247,N,11622.43978,E,0.063,,071217,,,A*6C
$GNRMC,102001.00,A,3951.86271,N,11622.43969,E,0.012,,071217,,,A*6E
$GNRMC,102002.00,A,3951.86287,N,11622.43956,E,0.019,,071217,,,A*63
$GNRMC,102003.00,A,3951.86298,N,11622.43947,E,0.024,,071217,,,A*62
$GNRMC,102004.00,A,3951.86317,N,11622.43937,E,0.034,,071217,,,A*65
$GNRMC,102005.00,A,3951.86333,N,11622.43924,E,0.024,,071217,,,A*61
$GNRMC,102006.00,A,3951.86343,N,11622.43911,E,0.008,,071217,,,A*6D
$GNRMC,102007.00,A,3951.86357,N,11622.43900,E,0.027,,071217,,,A*64
$GNRMC,102008.00,A,3951.86366,N,11622.43887,E,0.003,,071217,,,A*61
$GNRMC,102009.00,A,3951.86373,N,11622.43869,E,0.033,,071217,,,A*67
$GNRMC,102010.00,A,3951.86383,N,11622.43859,E,0.014,,071217,,,A*66
$GNRMC,102011.00,A,3951.86385,N,11622.43862,E,0.052,,071217,,,A*6B
$GNRMC,102012.00,A,3951.86390,N,11622.43859,E,0.027,,071217,,,A*66
$GNRMC,102013.00,A,3951.86394,N,11622.43866,E,0.030,,071217,,,A*69
$GNRMC,102014.00,A,3951.86391,N,11622.43866,E,0.072,,071217,,,A*6D
$GNRMC,102015.00,A,3951.86387,N,11622.43862,E,0.043,,071217,,,A*6D
$GNRMC,102016.00,A,3951.86383,N,11622.43853,E,0.064,,071217,,,A*6D
$GNRMC,102017.00,A,3951.86373,N,11622.43844,E,0.042,,071217,,,A*61
$GNRMC,102018.00,A,3951.86364,N,11622.43837,E,0.041,,071217,,,A*6F
$GNRMC,102019.00,A,3951.86342,N,11622.43848,E,0.042,,071217,,,A*61
$GNRMC,102020.00,A,3951.86306,N,11622.43841,E,0.110,,071217,,,A*64
$GNRMC,102021.00,A,3951.86296,N,11622.43839,E,0.046,,071217,,,A*60
$GNRMC,102022.00,A,3951.86276,N,11622.43843,E,0.037,,071217,,,A*66
$GNRMC,102023.00,A,3951.86243,N,11622.43847,E,0.051,,071217,,,A*65
$GNRMC,102024.00,A,3951.86197,N,11622.43852,E,0.024,,071217,,,A*6E
$GNRMC,102025.00,A,3951.86147,N,11622.43865,E,0.056,,071217,,,A*63
$GNRMC,102026.00,A,3951.86100,N,11622.43879,E,0.011,,071217,,,A*6D
$GNRMC,102027.00,A,3951.86055,N,11622.43887,E,0.022,,071217,,,A*6C
$GNRMC,102028.00,A,3951.86012,N,11622.43893,E,0.054,,071217,,,A*64
$GNRMC,102029.00,A,3951.85968,N,11622.43897,E,0.008,,071217,,,A*6F
$GNRMC,102030.00,A,3951.85929,N,11622.43899,E,0.021,,071217,,,A*67
$GNRMC,102031.00,A,3951.85889,N,11622.43884,E,0.057,,071217,,,A*60
$GNRMC,102032.00,A,3951.85851,N,11622.43875,E,0.003,,071217,,,A*69
$GNRMC,102033.00,A,3951.85812,N,11622.43877,E,0.026,,071217,,,A*6A
$GNRMC,102034.00,A,3951.85773,N,11622.43883,E,0.058,,071217,,,A*67
$GNRMC,102035.00,A,3951.85735,N,11622.43888,E,0.038,,071217,,,A*69
$GNRMC,102036.00,A,3951.85697,N,11622.43891,E,0.032,,071217,,,A*61
$GNRMC,102037.00,A,3951.85660,N,11622.43892,E,0.028,,071217,,,A*60
$GNRMC,102038.00,A,3951.85624,N,11622.43892,E,0.014,,071217,,,A*60
$GNRMC,102039.00,A,3951.85590,N,11622.43893,E,0.011,,071217,,,A*69
$GNRMC,102040.00,A,3951.85550,N,11622.43903,E,0.030,,071217,,,A*60
$GNRMC,102041.00,A,3951.85516,N,11622.43915,E,0.060,,071217,,,A*61
$GNRMC,102042.00,A,3951.85483,N,11622.43937,E,0.044,,071217,,,A*69
$GNRMC,102043.00,A,3951.85449,N,11622.43950,E,0.021,,071217,,,A*6C
$GNRMC,102044.00,A,3951.85419,N,11622.43974,E,0.034,,071217,,,A*6C
$GNRMC,102045.00,A,3951.85382,N,11622.43985,E,0.079,,071217,,,A*6F
$GNRMC,102046.00,A,3951.85354,N,11622.43989,E,0.039,,071217,,,A*6F
$GNRMC,102047.00,A,3951.85328,N,11622.43994,E,0.062,,071217,,,A*67
$GNRMC,102048.00,A,3951.85304,N,11622.44005,E,0.092,,071217,,,A*6F
$GNRMC,102049.00,A,3951.85289,N,11622.44016,E,0.095,,071217,,,A*6F
$GNRMC,102050.00,A,3951.85276,N,11622.44025,E,0.069,,071217,,,A*64
$GNRMC,102051.00,A,3951.85263,N,11622.44034,E,0.092,,071217,,,A*65
$GNRMC,102052.00,A,3951.85251,N,11622.44031,E,0.027,,071217,,,A*6C
$GNRMC,102053.00,A,3951.85239,N,11622.44026,E,0.030,,071217,,,A*63
$GNRMC,102054.00,A,3951.85225,N,11622.44022,E,0.022,,071217,,,A*6E
$GNRMC,102055.00,A,3951.85209,N,11622.44027,E,0.021,,071217,,,A*67
$GNRMC,102056.00,A,3951.85203,N,11622.44030,E,0.031,,071217,,,A*69
$GNRMC,102057.00,A,3951.85202,N,11622.44027,E,0.023,,071217,,,A*6C
$GNRMC,102058.00,A,3951.85202,N,11622.44028,E,0.037,,071217,,,A*69
$GNRMC,102059.00,A,3951.85200,N,11622.44036,E,0.008,,071217,,,A*69
$GNRMC,102100.00,A,3951.85200,N,11622.44043,E,0.082,,071217,,,A*64
$GNRMC,102101.00,A,3951.85190,N,11622.44055,E,0.140,,071217,,,A*67
$GNRMC,102102.00,A,3951.85176,N,11622.44047,E,0.048,,071217,,,A*66
$GNRMC,102103.00,A,3951.85166,N,11622.44024,E,0.029,,071217,,,A*64
$GNRMC,102104.00,A,3951.85153,N,11622.43994,E,0.047,,071217,,,A*68
$GNRMC,102105.00,A,3951.85141,N,11622.43964,E,0.065,,071217,,,A*65
$GNRMC,102106.00,A,3951.85135,N,11622.43915,E,0.088,,071217,,,A*60
$GNRMC,102107.00,A,3951.85138,N,11622.43865,E,0.042,,071217,,,A*6C
$GNRMC,102108.00,A,3951.85141,N,11622.43821,E,0.054,,071217,,,A*6A
$GNRMC,102109.00,A,3951.85147,N,11622.43769,E,0.036,,071217,,,A*6A
$GNRMC,102110.00,A,3951.85156,N,11622.43723,E,0.037,,071217,,,A*6D
$GNRMC,102111.00,A,3951.85163,N,11622.43674,E,0.062,,071217,,,A*69
$GNRMC,102112.00,A,3951.85164,N,11622.43633,E,0.026,,071217,,,A*6E
$GNRMC,102113.00,A,3951.85165,N,11622.43606,E,0.070,,071217,,,A*6B
$GNRMC,102114.00,A,3951.85172,N,11622.43569,E,0.065,,071217,,,A*64
$GNRMC,102115.00,A,3951.85177,N,11622.43538,E,0.048,,071217,,,A*6B
$GNRMC,102116.00,A,3951.85178,N,11622.43509,E,0.015,,071217,,,A*6D
$GNRMC,102117.00,A,3951.85184,N,11622.43481,E,0.085,,071217,,,A*67
$GNRMC,102118.00,A,3951.85182,N,11622.43452,E,0.045,,071217,,,A*6C
$GNRMC,102119.00,A,3951.85177,N,11622.43442,E,0.047,,071217,,,A*64
$GNRMC,102120.00,A,3951.85174,N,11622.43432,E,0.044,,071217,,,A*69
$GNRMC,102121.00,A,3951.85163,N,11622.43436,E,0.025,,071217,,,A*6D
$GNRMC,102122.00,A,3951.85153,N,11622.43429,E,0.031,,071217,,,A*66
$GNRMC,102123.00,A,3951.85143,N,11622.43420,E,0.023,,071217,,,A*6C
$GNRMC,102124.00,A,3951.85138,N,11622.43413,E,0.039,,071217,,,A*6C
$GNRMC,102125.00,A,3951.85134,N,11622.43397,E,0.025,,071217,,,A*67
$GNRMC,102126.00,A,3951.85121,N,11622.43387,E,0.018,,071217,,,A*6F
$GNRMC,102127.00,A,3951.85109,N,11622.43377,E,0.048,,071217,,,A*6E
$GNRMC,102128.00,A,3951.85093,N,11622.43371,E,0.030,,071217,,,A*6A
$GNRMC,102129.00,A,3951.85079,N,11622.43370,E,0.018,,071217,,,D*61
$GNRMC,102130.00,A,3951.85069,N,11622.43378,E,0.026,,071217,,,D*6D
$GNRMC,102131.00,A,3951.85056,N,11622.43385,E,0.013,,071217,,,D*64
$GNRMC,102132.00,A,3951.85051,N,11622.43384,E,0.021,,071217,,,D*60
$GNRMC,102133.00,A,3951.85042,N,11622.43380,E,0.030,,071217,,,D*67
$GNRMC,102134.00,A,3951.85036,N,11622.43373,E,0.065,,071217,,,D*6F
$GNRMC,102135.00,A,3951.85026,N,11622.43354,E,0.029,,071217,,,D*62
$GNRMC,102136.00,A,3951.85012,N,11622.43325,E,0.020,,071217,,,D*69
$GNRMC,102137.00,A,3951.85004,N,11622.43304,E,0.033,,071217,,,D*6E
$GNRMC,102138.00,A,3951.84991,N,11622.43286,E,0.019,,071217,,,D*66
$GNRMC,102139.00,A,3951.84976,N,11622.43276,E,0.020,,071217,,,D*6B
$GNRMC,102140.00,A,3951.84962,N,11622.43281,E,0.031,,071217,,,D*68
$GNRMC,102141.00,A,3951.84955,N,11622.43284,E,0.036,,071217,,,D*6F
$GNRMC,102142.00,A,3951.84949,N,11622.43282,E,0.041,,071217,,,D*67
$GNRMC,102143.00,A,3951.84944,N,11622.43276,E,0.072,,071217,,,D*60
$GNRMC,102144.00,A,3951.84942,N,11622.43274,E,0.005,,071217,,,D*63
$GNRMC,102145.00,A,3951.84940,N,11622.43273,E,0.024,,071217,,,D*64
$GNRMC,102146.00,A,3951.84939,N,11622.43275,E,0.043,,071217,,,D*6E
$GNRMC,102147.00,A,3951.84929,N,11622.43284,E,0.038,,071217,,,D*6C
$GNRMC,102148.00,A,3951.84919,N,11622.43293,E,0.050,,071217,,,D*68
$GNRMC,102149.00,A,3951.84905,N,11622.43308,E,0.010,,071217,,,D*63
$GNRMC,102150.00,A,3951.84884,N,11622.43330,E,0.018,,071217,,,D*60
$GNRMC,102151.00,A,3951.84870,N,11622.43338,E,0.018,,071217,,,D*62
$GNRMC,102152.00,A,3951.84852,N,11622.43355,E,0.048,,071217,,,D*6F
$GNRMC,102153.00,A,3951.84838,N,11622.43370,E,0.031,,071217,,,D*6B
$GNRMC,102154.00,A,3951.84824,N,11622.43385,E,0.023,,071217,,,D*68
$GNRMC,102155.00,A,3951.84812,N,11622.43397,E,0.065,,071217,,,D*6D
$GNRMC,102156.00,A,3951.84803,N,11622.43411,E,0.048,,071217,,,D*68
$GNRMC,102157.00,A,3951.84792,N,11622.43429,E,0.047,,071217,,,D*6A
$GNRMC,102158.00,A,3951.84786,N,11622.43445,E,0.016,,071217,,,D*6E
$GNRMC,102159.00,A,3951.84784,N,11622.43455,E,0.058,,071217,,,D*66
$GNRMC,102200.00,A,3951.84782,N,11622.43465,E,0.032,,071217,,,D*60
$GNRMC,102201.00,A,3951.84781,N,11622.43473,E,0.046,,071217,,,D*66
$GNRMC,102202.00,A,3951.84781,N,11622.43482,E,0.018,,071217,,,D*60
$GNRMC,102203.00,A,3951.84778,N,11622.43488,E,0.019,,071217,,,D*6C
$GNRMC,102204.00,A,3951.84778,N,11622.43487,E,0.046,,071217,,,D*6E
$GNRMC,102205.00,A,3951.84781,N,11622.43483,E,0.042,,071217,,,D*69
$GNRMC,102206.00,A,3951.84785,N,11622.43478,E,0.024,,071217,,,D*6A
$GNRMC,102207.00,A,3951.84785,N,11622.43478,E,0.059,,071217,,,D*61
$GNRMC,102208.00,A,3951.84789,N,11622.43479,E,0.088,,071217,,,D*6F
$GNRMC,102209.00,A,3951.84786,N,11622.43487,E,0.063,,071217,,,D*65
$GNRMC,102210.00,A,3951.84782,N,11622.43493,E,0.018,,071217,,,D*60
$GNRMC,102211.00,A,3951.84780,N,11622.43501,E,0.053,,071217,,,D*66
$GNRMC,102212.00,A,3951.84780,N,11622.43507,E,0.032,,071217,,,D*64
$GNRMC,102213.00,A,3951.84784,N,11622.43510,E,0.014,,071217,,,D*63
$GNRMC,102214.00,A,3951.84781,N,11622.43528,E,0.025,,071217,,,D*68
$GNRMC,102215.00,A,3951.84781,N,11622.43543,E,0.037,,071217,,,D*67
$GNRMC,102216.00,A,3951.84783,N,11622.43556,E,0.038,,071217,,,D*6D
$GNRMC,102217.00,A,3951.84785,N,11622.43573,E,0.015,,071217,,,D*62
$GNRMC,102218.00,A,3951.84786,N,11622.43589,E,0.039,,071217,,,D*65
$GNRMC,102219.00,A,3951.84789,N,11622.43600,E,0.020,,071217,,,D*61
$GNRMC,102220.00,A,3951.84787,N,11622.43609,E,0.012,,071217,,,D*6D
$GNRMC,102221.00,A,3951.84795,N,11622.43603,E,0.027,,071217,,,D*63
$GNRMC,102222.00,A,3951.84797,N,11622.43605,E,0.019,,071217,,,D*69
$GNRMC,102223.00,A,3951.84801,N,11622.43604,E,0.014,,071217,,,D*64
$GNRMC,102224.00,A,3951.84797,N,11622.43594,E,0.022,,071217,,,D*6C
$GNRMC,102225.00,A,3951.84796,N,11622.43580,E,0.022,,071217,,,D*69
$GNRMC,102226.00,A,3951.84794,N,11622.43563,E,0.037,,071217,,,D*61
$GNRMC,102227.00,A,3951.84784,N,11622.43560,E,0.023,,071217,,,D*67
$GNRMC,102228.00,A,3951.84780,N,11622.43561,E,0.073,,071217,,,D*68
$GNRMC,102229.00,A,3951.84787,N,11622.43560,E,0.032,,071217,,,D*6A
$GNRMC,102230.00,A,3951.84789,N,11622.43557,E,0.043,,071217,,,D*6E
$GNRMC,102231.00,A,3951.84797,N,11622.43556,E,0.017,,071217,,,D*60
$GNRMC,102232.00,A,3951.84792,N,11622.43559,E,0.047,,071217,,,D*6C
$GNRMC,102233.00,A,3951.84795,N,11622.43560,E,0.062,,071217,,,D*67
$GNRMC,102234.00,A,3951.84792,N,11622.43554,E,0.025,,071217,,,D*63
$GNRMC,102235.00,A,3951.84787,N,11622.43536,E,0.018,,071217,,,D*6C
$GNRMC,102236.00,A,3951.84785,N,11622.43512,E,0.029,,071217,,,D*69
$GNRMC,102237.00,A,3951.84789,N,11622.43491,E,0.032,,071217,,,D*64
$GNRMC,102238.00,A,3951.84794,N,11622.43464,E,0.020,,071217,,,D*6E
$GNRMC,102239.00,A,3951.84796,N,11622.43444,E,0.043,,071217,,,D*6A
$GNRMC,102240.00,A,3951.84788,N,11622.43432,E,0.033,,071217,,,D*6D
$GNRMC,102241.00,A,3951.84787,N,11622.43422,E,0.065,,071217,,,D*61
$GNRMC,102242.00,A,3951.84785,N,11622.43413,E,0.037,,071217,,,D*65
$GNRMC,102243.00,A,3951.84784,N,11622.43411,E,0.039,,071217,,,D*69
$GNRMC,102244.00,A,3951.84772,N,11622.43414,E,0.126,,071217,,,D*6D
$GNRMC,102245.00,A,3951.84763,N,11622.43413,E,0.051,,071217,,,D*6A
$GNRMC,102246.00,A,3951.84745,N,11622.43408,E,0.053,,071217,,,D*65
$GNRMC,102247.00,A,3951.84733,N,11622.43393,E,0.049,,071217,,,D*6B
$GNRMC,102248.00,A,3951.84719,N,11622.43372,E,0.050,,071217,,,D*6B
$GNRMC,102249.00,A,3951.84706,N,11622.43349,E,0.024,,071217,,,D*6F
$GNRMC,102250.00,A,3951.84699,N,11622.43322,E,0.046,,071217,,,D*69
$GNRMC,102251.00,A,3951.84690,N,11622.43299,E,0.103,,071217,,,D*60
$GNRMC,102252.00,A,3951.84688,N,11622.43280,E,0.077,,071217,,,D*60
$GNRMC,102253.00,A,3951.84693,N,11622.43252,E,0.030,,071217,,,A*62
$GNRMC,102254.00,A,3951.84685,N,11622.43238,E,0.030,,071217,,,D*6B
$GNRMC,102255.00,A,3951.84677,N,11622.43216,E,0.030,,071217,,,D*6B
$GNRMC,102256.00,A,3951.84683,N,11622.43190,E,0.105,,071217,,,D*69
$GNRMC,102257.00,A,3951.84692,N,11622.43169,E,0.100,,071217,,,D*6B
$GNRMC,102258.00,A,3951.84693,N,11622.43155,E,0.091,,071217,,,A*66
$GNRMC,102259.00,A,3951.84693,N,11622.43150,E,0.029,,071217,,,D*64
$GNRMC,102300.00,A,3951.84697,N,11622.43150,E,0.016,,071217,,,D*61
$GNRMC,102301.00,A,3951.84710,N,11622.43144,E,0.115,,071217,,,A*6C
$GNRMC,102302.00,A,3951.84715,N,11622.43138,E,0.030,,071217,,,A*67
$GNRMC,102303.00,A,3951.84725,N,11622.43134,E,0.054,,071217,,,D*6E
$GNRMC,102304.00,A,3951.84727,N,11622.43136,E,0.059,,071217,,,D*64
$GNRMC,102305.00,A,3951.84722,N,11622.43150,E,0.020,,071217,,,D*6E
$GNRMC,102306.00,A,3951.84723,N,11622.43161,E,0.029,,071217,,,D*67
$GNRMC,102307.00,A,3951.84732,N,11622.43164,E,0.039,,071217,,,D*62
$GNRMC,102308.00,A,3951.84729,N,11622.43168,E,0.066,,071217,,,D*61
$GNRMC,102309.00,A,3951.84730,N,11622.43169,E,0.012,,071217,,,D*6A
$GNRMC,102310.00,A,3951.84740,N,11622.43162,E,0.041,,071217,,,D*68
$GNRMC,102311.00,A,3951.84760,N,11622.43153,E,0.079,,071217,,,D*62
$GNRMC,102312.00,A,3951.84763,N,11622.43158,E,0.102,,071217,,,D*64
$GNRMC,102313.00,A,3951.84765,N,11622.43166,E,0.011,,071217,,,D*6D
$GNRMC,102314.00,A,3951.84756,N,11622.43181,E,0.022,,071217,,,D*63
$GNRMC,102315.00,A,3951.84754,N,11622.43187,E,0.057,,071217,,,D*64
$GNRMC,102316.00,A,3951.84768,N,11622.43180,E,0.011,,071217,,,D*6D
$GNRMC,102317.00,A,3951.84772,N,11622.43187,E,0.012,,071217,,,D*63
$GNRMC,102318.00,A,3951.84782,N,11622.43177,E,0.015,,071217,,,D*6B
$GNRMC,102319.00,A,3951.84785,N,11622.43173,E,0.059,,071217,,,D*61
$GNRMC,102320.00,A,3951.84787,N,11622.43170,E,0.017,,071217,,,D*60
$GNRMC,102321.00,A,3951.84802,N,11622.43159,E,0.020,,071217,,,D*6C
$GNRMC,102322.00,A,3951.84804,N,11622.43160,E,0.029,,071217,,,D*6A
$GNRMC,102323.00,A,3951.84801,N,11622.43160,E,0.036,,071217,,,D*60
$GNRMC,102324.00,A,3951.84798,N,11622.43161,E,0.063,,071217,,,D*69
$GNRMC,102325.00,A,3951.84790,N,11622.43166,E,0.013,,071217,,,D*60
$GNRMC,102326.00,A,3951.84787,N,11622.43160,E,0.039,,071217,,,D*6B
$GNRMC,102327.00,A,3951.84790,N,11622.43161,E,0.029,,071217,,,D*6C
$GNRMC,102328.00,A,3951.84788,N,11622.43157,E,0.042,,071217,,,D*62
$GNRMC,102329.00,A,3951.84784,N,11622.43152,E,0.041,,071217,,,D*69
$GNRMC,102330.00,A,3951.84780,N,11622.43146,E,0.004,,071217,,,D*61
$GNRMC,102331.00,A,3951.84770,N,11622.43144,E,0.011,,071217,,,D*69
$GNRMC,102332.00,A,3951.84760,N,11622.43144,E,0.017,,071217,,,D*6D
$GNRMC,102333.00,A,3951.84747,N,11622.43147,E,0.019,,071217,,,D*64
$GNRMC,102334.00,A,3951.84738,N,11622.43144,E,0.101,,071217,,,D*60
$GNRMC,102335.00,A,3951.84727,N,11622.43135,E,0.117,,071217,,,D*6E
$GNRMC,102336.00,A,3951.84726,N,11622.43118,E,0.041,,071217,,,D*61
$GNRMC,102337.00,A,3951.84726,N,11622.43103,E,0.088,,071217,,,D*6F
$GNRMC,102338.00,A,3951.84723,N,11622.43090,E,0.065,,071217,,,D*6D
$GNRMC,102339.00,A,3951.84707,N,11622.43094,E,0.081,,071217,,,D*64
$GNRMC,102340.00,A,3951.84692,N,11622.43104,E,0.061,,071217,,,D*61
$GNRMC,102341.00,A,3951.84677,N,11622.43119,E,0.032,,071217,,,D*61
$GNRMC,102342.00,A,3951.84662,N,11622.43133,E,0.013,,071217,,,D*6D
$GNRMC,102343.00,A,3951.84645,N,11622.43152,E,0.031,,071217,,,D*6E
$GNRMC,102344.00,A,3951.84628,N,11622.43174,E,0.015,,071217,,,D*60
$GNRMC,102345.00,A,3951.84615,N,11622.43191,E,0.055,,071217,,,D*60
$GNRMC,102346.00,A,3951.84595,N,11622.43209,E,0.007,,071217,,,D*6D
$GNRMC,102347.00,A,3951.84573,N,11622.43227,E,0.064,,071217,,,D*6D
$GNRMC,102348.00,A,3951.84551,N,11622.43239,E,0.054,,071217,,,D*6E
$GNRMC,102349.00,A,3951.84523,N,11622.43253,E,0.044,,071217,,,D*67
$GNRMC,102350.00,A,3951.84511,N,11622.43258,E,0.018,,071217,,,D*6C
$GNRMC,102351.00,A,3951.84494,N,11622.43262,E,0.040,,071217,,,D*65
$GNRMC,102352.00,A,3951.84475,N,11622.43265,E,0.022,,071217,,,D*6A
$GNRMC,102353.00,A,3951.84467,N,11622.43261,E,0.015,,071217,,,D*68
$GNRMC,102354.00,A,3951.84458,N,11622.43252,E,0.028,,071217,,,D*6D
$GNRMC,102355.00,A,3951.84450,N,11622.43240,E,0.027,,071217,,,D*68
$GNRMC,102356.00,A,3951.84447,N,11622.43232,E,0.027,,071217,,,A*6D
$GNRMC,102357.00,A,3951.84441,N,11622.43220,E,0.042,,071217,,,A*6A
$GNRMC,102358.00,A,3951.84440,N,11622.43204,E,0.015,,071217,,,A*60
$GNRMC,102359.00,A,3951.84431,N,11622.43199,E,0.024,,071217,,,A*62
$GNRMC,102400.00,A,3951.84422,N,11622.43197,E,0.022,,071217,,,A*63
$GNRMC,102401.00,A,3951.84414,N,11622.43193,E,0.030,,071217,,,A*60
$GNRMC,102402.00,A,3951.84407,N,11622.43191,E,0.016,,071217,,,A*67
$GNRMC,102403.00,A,3951.84394,N,11622.43194,E,0.004,,071217,,,A*6D
$GNRMC,102404.00,A,3951.84383,N,11622.43191,E,0.037,,071217,,,A*69
$GNRMC,102405.00,A,3951.84370,N,11622.43195,E,0.037,,071217,,,A*60
$GNRMC,102406.00,A,3951.84360,N,11622.43195,E,0.032,,071217,,,A*67
$GNRMC,102407.00,A,3951.84345,N,11622.43196,E,0.052,,071217,,,A*64
$GNRMC,102408.00,A,3951.84330,N,11622.43190,E,0.041,,071217,,,A*6D
$GNRMC,102409.00,A,3951.84316,N,11622.43182,E,0.031,,071217,,,A*6C
$GNRMC,102410.00,A,3951.84303,N,11622.43174,E,0.051,,071217,,,A*6F
$GNRMC,102411.00,A,3951.84290,N,11622.43167,E,0.025,,071217,,,A*64
$GNRMC,102412.00,A,3951.84287,N,11622.43162,E,0.009,,071217,,,A*6A
$GNRMC,102413.00,A,3951.84277,N,11622.43166,E,0.016,,071217,,,A*6E
$GNRMC,102414.00,A,3951.84269,N,11622.43163,E,0.030,,071217,,,A*67
$GNRMC,102415.00,A,3951.84256,N,11622.43156,E,0.023,,071217,,,A*6E
$GNRMC,102416.00,A,3951.84242,N,11622.43152,E,0.029,,071217,,,A*66
$GNRMC,102417.00,A,3951.84226,N,11622.43141,E,0.018,,071217,,,A*65
$GNRMC,102418.00,A,3951.84223,N,11622.43125,E,0.038,,071217,,,A*6F
$GNRMC,102419.00,A,3951.84225,N,11622.43104,E,0.037,,071217,,,D*61
$GNRMC,102420.00,A,3951.84222,N,11622.43081,E,0.048,,071217,,,D*68
$GNRMC,102421.00,A,3951.84220,N,11622.43053,E,0.028,,071217,,,D*62
$GNRMC,102422.00,A,3951.84223,N,11622.43020,E,0.012,,071217,,,D*6F
$GNRMC,102423.00,A,3951.84215,N,11622.42996,E,0.017,,071217,,,D*6B
$GNRMC,102424.00,A,3951.84212,N,11622.42970,E,0.017,,071217,,,D*63
$GNRMC,102425.00,A,3951.84213,N,11622.42950,E,0.027,,071217,,,D*62
$GNRMC,102426.00,A,3951.84204,N,11622.42935,E,0.045,,071217,,,D*60
$GNRMC,102427.00,A,3951.84195,N,11622.42917,E,0.031,,071217,,,D*69
$GNRMC,102428.00,A,3951.84184,N,11622.42904,E,0.079,,071217,,,D*68
$GNRMC,102429.00,A,3951.84172,N,11622.42884,E,0.070,,071217,,,D*60
$GNRMC,102430.00,A,3951.84161,N,11622.42859,E,0.025,,071217,,,D*6A
$GNRMC,102431.00,A,3951.84164,N,11622.42835,E,0.034,,071217,,,D*64
$GNRMC,102432.00,A,3951.84160,N,11622.42814,E,0.051,,071217,,,D*63
$GNRMC,102433.00,A,3951.84155,N,11622.42789,E,0.019,,071217,,,D*63
$GNRMC,102434.00,A,3951.84148,N,11622.42766,E,0.018,,071217,,,D*68
$GNRMC,102435.00,A,3951.84136,N,11622.42743,E,0.005,,071217,,,D*6B
$GNRMC,102436.00,A,3951.84125,N,11622.42719,E,0.034,,071217,,,D*67
$GNRMC,102437.00,A,3951.84115,N,11622.42694,E,0.019,,071217,,,D*6E
$GNRMC,102438.00,A,3951.84111,N,11622.42669,E,0.024,,071217,,,D*69
$GNRMC,102439.00,A,3951.84106,N,11622.42646,E,0.009,,071217,,,D*6C
$GNRMC,102440.00,A,3951.84097,N,11622.42630,E,0.024,,071217,,,D*65
$GNRMC,102441.00,A,3951.84090,N,11622.42609,E,0.018,,071217,,,D*66
$GNRMC,102442.00,A,3951.84083,N,11622.42594,E,0.052,,071217,,,D*6E
$GNRMC,102443.00,A,3951.84075,N,11622.42576,E,0.052,,071217,,,D*6A
$GNRMC,102444.00,A,3951.84066,N,11622.42563,E,0.031,,071217,,,D*6E
$GNRMC,102445.00,A,3951.84055,N,11622.42551,E,0.078,,071217,,,D*63
$GNRMC,102446.00,A,3951.84050,N,11622.42535,E,0.006,,071217,,,D*6E
$GNRMC,102447.00,A,3951.84045,N,11622.42515,E,0.021,,071217,,,D*6C
$GNRMC,102448.00,A,3951.84044,N,11622.42494,E,0.069,,071217,,,D*66
$GNRMC,102449.00,A,3951.84047,N,11622.42470,E,0.027,,071217,,,D*64
$GNRMC,102450.00,A,3951.84046,N,11622.42450,E,0.037,,071217,,,D*6E
$GNRMC,102451.00,A,3951.84052,N,11622.42427,E,0.023,,071217,,,D*6F
$GNRMC,102452.00,A,3951.84061,N,11622.42402,E,0.022,,071217,,,D*6A
$GNRMC,102453.00,A,3951.84074,N,11622.42377,E,0.061,,071217,,,D*6D
$GNRMC,102454.00,A,3951.84083,N,11622.42358,E,0.069,,071217,,,D*67
$GNRMC,102455.00,A,3951.84091,N,11622.42342,E,0.073,,071217,,,D*65
$GNRMC,102456.00,A,3951.84097,N,11622.42328,E,0.075,,071217,,,D*6A
$GNRMC,102457.00,A,3951.84105,N,11622.42309,E,0.064,,071217,,,D*62
$GNRMC,102458.00,A,3951.84111,N,11622.42292,E,0.068,,071217,,,D*67
$GNRMC,102459.00,A,3951.84127,N,11622.42279,E,0.079,,071217,,,D*66
$GNRMC,102500.00,A,3951.84132,N,11622.42280,E,0.041,,071217,,,D*62
$GNRMC,102501.00,A,3951.84153,N,11622.42268,E,0.034,,071217,,,D*60
$GNRMC,102502.00,A,3951.84170,N,11622.42263,E,0.015,,071217,,,D*6A
$GNRMC,102503.00,A,3951.84186,N,11622.42257,E,0.080,,071217,,,D*69
$GNRMC,102504.00,A,3951.84205,N,11622.42243,E,0.045,,071217,,,D*6A
