$GNRMC,185426.00,V,,,,,,,111217,,,N*6A
$GNRMC,185427.00,V,,,,,,,111217,,,N*6B
$GNRMC,185428.00,V,,,,,,,111217,,,N*64
$GNRMC,185429.00,V,,,,,,,111217,,,N*65
$GNRMC,185430.00,V,,,,,,,111217,,,N*6D
$GNRMC,185431.00,A,3947.62324,N,11616.73253,E,0.070,,111217,,,A*6F
$GNRMC,185432.00,A,3947.62311,N,11616.73264,E,0.040,,111217,,,A*6D
$GNRMC,185433.00,A,3947.62324,N,11616.73273,E,0.031,,111217,,,A*6A
$GNRMC,185434.00,A,3947.62326,N,11616.73275,E,0.008,,111217,,,A*63
$GNRMC,185435.00,A,3947.62341,N,11616.73280,E,0.016,,111217,,,A*66
$GNRMC,185436.00,A,3947.62348,N,11616.73282,E,0.021,,111217,,,A*6A
$GNRMC,185437.00,A,3947.62354,N,11616.73284,E,0.021,,111217,,,A*60
$GNRMC,185438.00,A,3947.62356,N,11616.73284,E,0.012,,111217,,,A*6D
$GNRMC,185439.00,A,3947.62357,N,11616.73283,E,0.012,,111217,,,A*6A
$GNRMC,185440.00,A,3947.62363,N,11616.73284,E,0.025,,111217,,,A*60
$GNRMC,185441.00,A,3947.62369,N,11616.73284,E,0.030,,111217,,,A*6F
$GNRMC,185442.00,A,3947.62375,N,11616.73285,E,0.024,,111217,,,A*65
$GNRMC,185443.00,A,3947.62380,N,11616.73286,E,0.027,,111217,,,A*6E
$GNRMC,185444.00,A,3947.62384,N,11616.73287,E,0.029,,111217,,,A*62
$GNRMC,185445.00,A,3947.62389,N,11616.73290,E,0.021,,111217,,,A*60
$GNRMC,185446.00,A,3947.62392,N,11616.73292,E,0.030,,111217,,,A*6B
$GNRMC,185447.00,A,3947.62394,N,11616.73294,E,0.025,,111217,,,A*6E
$GNRMC,185448.00,A,3947.62396,N,11616.73297,E,0.026,,111217,,,A*63
$GNRMC,185449.00,A,3947.62396,N,11616.73297,E,0.026,,111217,,,A*62
$GNRMC,185450.00,A,3947.62396,N,11616.73299,E,0.027,,111217,,,A*65
$GNRMC,185451.00,A,3947.62398,N,11616.73301,E,0.028,,111217,,,A*65
$GNRMC,185452.00,A,3947.62400,N,11616.73304,E,0.036,,111217,,,A*6A
$GNRMC,185453.00,A,3947.62404,N,11616.73309,E,0.025,,111217,,,A*60
$GNRMC,185454.00,A,3947.62407,N,11616.73315,E,0.019,,111217,,,A*66
$GNRMC,185455.00,A,3947.62410,N,11616.73319,E,0.027,,111217,,,A*60
$GNRMC,185456.00,A,3947.62413,N,11616.73322,E,0.030,,111217,,,A*6E
$GNRMC,185457.00,A,3947.62415,N,11616.73327,E,0.023,,111217,,,A*6E
$GNRMC,185458.00,A,3947.62417,N,11616.73330,E,0.032,,111217,,,A*65
$GNRMC,185459.00,A,3947.62418,N,11616.73331,E,0.031,,111217,,,A*69
$GNRMC,185500.00,A,3947.62417,N,11616.73332,E,0.033,,111217,,,A*6A
$GNRMC,185501.00,A,3947.62416,N,11616.73332,E,0.020,,111217,,,A*68
$GNRMC,185502.00,A,3947.62415,N,11616.73331,E,0.022,,111217,,,A*69
$GNRMC,185503.00,A,3947.62414,N,11616.73332,E,0.026,,111217,,,A*6E
$GNRMC,185504.00,A,3947.62413,N,11616.73332,E,0.024,,111217,,,A*6C
$GNRMC,185505.00,A,3947.62413,N,11616.73333,E,0.028,,111217,,,A*60
$GNRMC,185506.00,A,3947.62414,N,11616.73333,E,0.018,,111217,,,A*67
$GNRMC,185507.00,A,3947.62414,N,11616.73334,E,0.022,,111217,,,A*68
$GNRMC,185508.00,A,3947.62414,N,11616.73335,E,0.040,,111217,,,A*62
$GNRMC,185509.00,A,3947.62414,N,11616.73336,E,0.032,,111217,,,A*65
$GNRMC,185510.00,A,3947.62415,N,11616.73337,E,0.029,,111217,,,A*67
$GNRMC,185511.00,A,3947.62416,N,11616.73338,E,0.017,,111217,,,A*67
$GNRMC,185512.00,A,3947.62417,N,11616.73341,E,0.024,,111217,,,A*6B
$GNRMC,185513.00,A,3947.62418,N,11616.73343,E,0.024,,111217,,,A*67
$GNRMC,185514.00,A,3947.62418,N,11616.73344,E,0.024,,111217,,,A*67
$GNRMC,185515.00,A,3947.62420,N,11616.73346,E,0.034,,111217,,,A*6E
$GNRMC,185516.00,A,3947.62420,N,11616.73345,E,0.030,,111217,,,A*6A
$GNRMC,185517.00,A,3947.62421,N,11616.73345,E,0.016,,111217,,,A*6E
$GNRMC,185518.00,A,3947.62420,N,11616.73344,E,0.027,,111217,,,A*63
$GNRMC,185519.00,A,3947.62420,N,11616.73343,E,0.025,,111217,,,A*67
$GNRMC,185520.00,A,3947.62418,N,11616.73341,E,0.024,,111217,,,A*65
$GNRMC,185521.00,A,3947.62418,N,11616.73339,E,0.028,,111217,,,A*67
$GNRMC,185522.00,A,3947.62416,N,11616.73336,E,0.016,,111217,,,A*68
$GNRMC,185523.00,A,3947.62415,N,11616.73332,E,0.019,,111217,,,A*61
$GNRMC,185524.00,A,3947.62412,N,11616.73328,E,0.012,,111217,,,A*61
$GNRMC,185525.00,A,3947.62410,N,11616.73324,E,0.026,,111217,,,A*69
$GNRMC,185526.00,A,3947.62406,N,11616.73318,E,0.026,,111217,,,A*62
$GNRMC,185527.00,A,3947.62404,N,11616.73313,E,0.022,,111217,,,A*6E
$GNRMC,185528.00,A,3947.62401,N,11616.73308,E,0.031,,111217,,,A*6C
$GNRMC,185529.00,A,3947.62398,N,11616.73303,E,0.031,,111217,,,A*61
$GNRMC,185530.00,A,3947.62395,N,11616.73297,E,0.029,,111217,,,A*61
$GNRMC,185531.00,A,3947.62392,N,11616.73291,E,0.022,,111217,,,A*6A
$GNRMC,185532.00,A,3947.62389,N,11616.73286,E,0.009,,111217,,,A*6C
$GNRMC,185533.00,A,3947.62385,N,11616.73281,E,0.013,,111217,,,A*6D
$GNRMC,185534.00,A,3947.62382,N,11616.73275,E,0.019,,111217,,,A*6C
$GNRMC,185535.00,A,3947.62379,N,11616.73271,E,0.017,,111217,,,A*63
$GNRMC,185536.00,A,3947.62377,N,11616.73266,E,0.014,,111217,,,A*6B
$GNRMC,185537.00,A,3947.62373,N,11616.73261,E,0.007,,111217,,,A*6B
$GNRMC,185538.00,A,3947.62369,N,11616.73256,E,0.012,,111217,,,A*6F
$GNRMC,185539.00,A,3947.62366,N,11616.73252,E,0.020,,111217,,,A*64
$GNRMC,185540.00,A,3947.62362,N,11616.73249,E,0.020,,111217,,,A*64
$GNRMC,185541.00,A,3947.62359,N,11616.73245,E,0.024,,111217,,,A*65
$GNRMC,185542.00,A,3947.62356,N,11616.73242,E,0.010,,111217,,,A*69
$GNRMC,185543.00,A,3947.62353,N,11616.73239,E,0.015,,111217,,,A*64
$GNRMC,185544.00,A,3947.62349,N,11616.73236,E,0.011,,111217,,,A*63
$GNRMC,185545.00,A,3947.62346,N,11616.73233,E,0.015,,111217,,,A*6C
$GNRMC,185546.00,A,3947.62343,N,11616.73231,E,0.017,,111217,,,D*6F
$GNRMC,185547.00,A,3947.62341,N,11616.73230,E,0.003,,111217,,,D*68
$GNRMC,185548.00,A,3947.62339,N,11616.73229,E,0.014,,111217,,,D*66
$GNRMC,185549.00,A,3947.62336,N,11616.73228,E,0.025,,111217,,,D*6B
$GNRMC,185550.00,A,3947.62334,N,11616.73227,E,0.018,,111217,,,D*60
$GNRMC,185551.00,A,3947.62332,N,11616.73226,E,0.014,,111217,,,D*6A
$GNRMC,185552.00,A,3947.62329,N,11616.73226,E,0.014,,111217,,,D*63
$GNRMC,185553.00,A,3947.62326,N,11616.73225,E,0.011,,111217,,,D*6B
$GNRMC,185554.00,A,3947.62324,N,11616.73224,E,0.014,,111217,,,D*6A
$GNRMC,185555.00,A,3947.62321,N,11616.73224,E,0.013,,111217,,,D*69
$GNRMC,185556.00,A,3947.62319,N,11616.73224,E,0.007,,111217,,,D*64
$GNRMC,185557.00,A,3947.62316,N,11616.73223,E,0.013,,111217,,,D*68
$GNRMC,185558.00,A,3947.62314,N,11616.73221,E,0.017,,111217,,,D*63
$GNRMC,185559.00,A,3947.62313,N,11616.73220,E,0.019,,111217,,,D*6A
$GNRMC,185600.00,A,3947.62312,N,11616.73218,E,0.012,,111217,,,D*64
$GNRMC,185601.00,A,3947.62310,N,11616.73216,E,0.019,,111217,,,D*62
$GNRMC,185602.00,A,3947.62309,N,11616.73215,E,0.019,,111217,,,D*6A
$GNRMC,185603.00,A,3947.62308,N,11616.73214,E,0.013,,111217,,,D*61
$GNRMC,185604.00,A,3947.62306,N,11616.73213,E,0.013,,111217,,,D*6F
$GNRMC,185605.00,A,3947.62304,N,11616.73211,E,0.017,,111217,,,D*6A
$GNRMC,185606.00,A,3947.62302,N,11616.73209,E,0.012,,111217,,,D*63
$GNRMC,185607.00,A,3947.62301,N,11616.73208,E,0.018,,111217,,,D*6A
$GNRMC,185608.00,A,3947.62300,N,11616.73206,E,0.019,,111217,,,D*6B
$GNRMC,185609.00,A,3947.62300,N,11616.73205,E,0.019,,111217,,,D*69
$GNRMC,185610.00,A,3947.62299,N,11616.73204,E,0.025,,111217,,,D*6E
$GNRMC,185611.00,A,3947.62298,N,11616.73203,E,0.017,,111217,,,D*68
$GNRMC,185612.00,A,3947.62298,N,11616.73201,E,0.018,,111217,,,D*66
$GNRMC,185613.00,A,3947.62298,N,11616.73198,E,0.017,,111217,,,D*6B
$GNRMC,185614.00,A,3947.62297,N,11616.73196,E,0.011,,111217,,,D*6B
$GNRMC,185615.00,A,3947.62298,N,11616.73193,E,0.016,,111217,,,D*67
$GNRMC,185616.00,A,3947.62298,N,11616.73191,E,0.015,,111217,,,D*65
$GNRMC,185617.00,A,3947.62298,N,11616.73188,E,0.018,,111217,,,D*61
$GNRMC,185618.00,A,3947.62298,N,11616.73185,E,0.029,,111217,,,D*61
$GNRMC,185619.00,A,3947.62298,N,11616.73183,E,0.018,,111217,,,D*64
$GNRMC,185620.00,A,3947.62298,N,11616.73179,E,0.013,,111217,,,D*60
$GNRMC,185621.00,A,3947.62299,N,11616.73175,E,0.007,,111217,,,D*69
$GNRMC,185622.00,A,3947.62299,N,11616.73172,E,0.016,,111217,,,D*6D
$GNRMC,185623.00,A,3947.62299,N,11616.73168,E,0.020,,111217,,,D*62
$GNRMC,185624.00,A,3947.62300,N,11616.73164,E,0.023,,111217,,,D*6B
$GNRMC,185625.00,A,3947.62301,N,11616.73160,E,0.012,,111217,,,D*6D
$GNRMC,185626.00,A,3947.62301,N,11616.73156,E,0.009,,111217,,,D*61
$GNRMC,185627.00,A,3947.62301,N,11616.73152,E,0.010,,111217,,,D*6C
$GNRMC,185628.00,A,3947.62303,N,11616.73148,E,0.022,,111217,,,D*6B
$GNRMC,185629.00,A,3947.62304,N,11616.73145,E,0.022,,111217,,,D*60
$GNRMC,185630.00,A,3947.62304,N,11616.73140,E,0.019,,111217,,,D*65
$GNRMC,185631.00,A,3947.62305,N,11616.73136,E,0.022,,111217,,,D*6C
$GNRMC,185632.00,A,3947.62305,N,11616.73131,E,0.016,,111217,,,D*6F
$GNRMC,185633.00,A,3947.62306,N,11616.73126,E,0.021,,111217,,,D*6F
$GNRMC,185634.00,A,3947.62306,N,11616.73121,E,0.023,,111217,,,D*6D
$GNRMC,185635.00,A,3947.62307,N,11616.73116,E,0.019,,111217,,,D*60
$GNRMC,185636.00,A,3947.62307,N,11616.73111,E,0.024,,111217,,,D*6A
$GNRMC,185637.00,A,3947.62307,N,11616.73106,E,0.010,,111217,,,D*6A
$GNRMC,185638.00,A,3947.62308,N,11616.73101,E,0.019,,111217,,,D*64
$GNRMC,185639.00,A,3947.62308,N,11616.73096,E,0.023,,111217,,,D*63
$GNRMC,185640.00,A,3947.62308,N,11616.73092,E,0.020,,111217,,,D*6A
$GNRMC,185641.00,A,3947.62308,N,11616.73088,E,0.015,,111217,,,D*66
$GNRMC,185642.00,A,3947.62308,N,11616.73084,E,0.022,,111217,,,D*6D
$GNRMC,185643.00,A,3947.62307,N,11616.73081,E,0.017,,111217,,,D*60
$GNRMC,185644.00,A,3947.62308,N,11616.73078,E,0.022,,111217,,,D*68
$GNRMC,185645.00,A,3947.62309,N,11616.73076,E,0.021,,111217,,,D*65
$GNRMC,185646.00,A,3947.62310,N,11616.73074,E,0.012,,111217,,,D*6C
$GNRMC,185647.00,A,3947.62311,N,11616.73073,E,0.009,,111217,,,D*61
$GNRMC,185648.00,A,3947.62312,N,11616.73072,E,0.022,,111217,,,D*65
$GNRMC,185649.00,A,3947.62313,N,11616.73071,E,0.024,,111217,,,D*60
$GNRMC,185650.00,A,3947.62314,N,11616.73069,E,0.010,,111217,,,D*61
$GNRMC,185651.00,A,3947.62316,N,11616.73069,E,0.011,,111217,,,D*63
$GNRMC,185652.00,A,3947.62317,N,11616.73068,E,0.015,,111217,,,D*64
$GNRMC,185653.00,A,3947.62319,N,11616.73067,E,0.018,,111217,,,D*69
$GNRMC,185654.00,A,3947.62319,N,11616.73065,E,0.014,,111217,,,D*60
$GNRMC,185655.00,A,3947.62320,N,11616.73063,E,0.012,,111217,,,D*6B
$GNRMC,185656.00,A,3947.62321,N,11616.73060,E,0.016,,111217,,,D*6E
$GNRMC,185657.00,A,3947.62321,N,11616.73058,E,0.022,,111217,,,D*63
$GNRMC,185658.00,A,3947.62322,N,11616.73056,E,0.026,,111217,,,D*65
$GNRMC,185659.00,A,3947.62322,N,11616.73054,E,0.023,,111217,,,D*63
$GNRMC,185700.00,A,3947.62322,N,11616.73052,E,0.024,,111217,,,D*6F
$GNRMC,185701.00,A,3947.62322,N,11616.73051,E,0.015,,111217,,,D*6F
$GNRMC,185702.00,A,3947.62321,N,11616.73049,E,0.013,,111217,,,D*60
$GNRMC,185703.00,A,3947.62321,N,11616.73047,E,0.014,,111217,,,D*68
$GNRMC,185704.00,A,3947.62320,N,11616.73046,E,0.011,,111217,,,D*6A
$GNRMC,185705.00,A,3947.62319,N,11616.73044,E,0.022,,111217,,,D*63
$GNRMC,185706.00,A,3947.62318,N,11616.73042,E,0.020,,111217,,,D*65
$GNRMC,185707.00,A,3947.62317,N,11616.73040,E,0.009,,111217,,,D*62
$GNRMC,185708.00,A,3947.62316,N,11616.73038,E,0.017,,111217,,,D*6C
$GNRMC,185709.00,A,3947.62315,N,11616.73037,E,0.024,,111217,,,D*61
$GNRMC,185710.00,A,3947.62314,N,11616.73037,E,0.011,,111217,,,D*6E
$GNRMC,185711.00,A,3947.62313,N,11616.73036,E,0.013,,111217,,,D*6B
$GNRMC,185712.00,A,3947.62312,N,11616.73036,E,0.015,,111217,,,D*6F
$GNRMC,185713.00,A,3947.62312,N,11616.73035,E,0.012,,111217,,,D*6A
$GNRMC,185714.00,A,3947.62311,N,11616.73034,E,0.019,,111217,,,D*64
$GNRMC,185715.00,A,3947.62311,N,11616.73033,E,0.021,,111217,,,D*69
$GNRMC,185716.00,A,3947.62310,N,11616.73032,E,0.016,,111217,,,D*6E
$GNRMC,185717.00,A,3947.62310,N,11616.73031,E,0.010,,111217,,,D*6A
$GNRMC,185718.00,A,3947.62309,N,11616.73030,E,0.017,,111217,,,D*6B
$GNRMC,185719.00,A,3947.62308,N,11616.73029,E,0.026,,111217,,,D*61
$GNRMC,185720.00,A,3947.62308,N,11616.73028,E,0.016,,111217,,,D*69
$GNRMC,185721.00,A,3947.62307,N,11616.73028,E,0.014,,111217,,,D*65
$GNRMC,185722.00,A,3947.62306,N,11616.73027,E,0.014,,111217,,,D*68
$GNRMC,185723.00,A,3947.62306,N,11616.73025,E,0.018,,111217,,,D*67
$GNRMC,185724.00,A,3947.62306,N,11616.73024,E,0.012,,111217,,,D*6B
$GNRMC,185725.00,A,3947.62307,N,11616.73022,E,0.015,,111217,,,D*6A
$GNRMC,185726.00,A,3947.62307,N,11616.73020,E,0.017,,111217,,,D*69
$GNRMC,185727.00,A,3947.62307,N,11616.73019,E,0.007,,111217,,,D*63
$GNRMC,185728.00,A,3947.62308,N,11616.73017,E,0.018,,111217,,,D*63
$GNRMC,185729.00,A,3947.62308,N,11616.73016,E,0.027,,111217,,,D*6F
$GNRMC,185730.00,A,3947.62309,N,11616.73015,E,0.019,,111217,,,D*68
$GNRMC,185731.00,A,3947.62309,N,11616.73014,E,0.021,,111217,,,D*63
$GNRMC,185732.00,A,3947.62309,N,11616.73014,E,0.008,,111217,,,D*6B
$GNRMC,185733.00,A,3947.62309,N,11616.73014,E,0.022,,111217,,,D*62
$GNRMC,185734.00,A,3947.62310,N,11616.73014,E,0.018,,111217,,,D*64
$GNRMC,185735.00,A,3947.62310,N,11616.73014,E,0.014,,111217,,,D*69
$GNRMC,185736.00,A,3947.62310,N,11616.73015,E,0.015,,111217,,,D*6A
$GNRMC,185737.00,A,3947.62311,N,11616.73015,E,0.010,,111217,,,D*6F
$GNRMC,185738.00,A,3947.62312,N,11616.73016,E,0.013,,111217,,,D*63
$GNRMC,185739.00,A,3947.62313,N,11616.73017,E,0.020,,111217,,,D*62
$GNRMC,185740.00,A,3947.62314,N,11616.73018,E,0.023,,111217,,,D*67
$GNRMC,185741.00,A,3947.62315,N,11616.73019,E,0.008,,111217,,,D*6F
$GNRMC,185742.00,A,3947.62317,N,11616.73020,E,0.012,,111217,,,D*6F
$GNRMC,185743.00,A,3947.62318,N,11616.73021,E,0.021,,111217,,,D*60
$GNRMC,185744.00,A,3947.62319,N,11616.73022,E,0.013,,111217,,,D*64
$GNRMC,185745.00,A,3947.62321,N,11616.73024,E,0.024,,111217,,,D*6C
$GNRMC,185746.00,A,3947.62322,N,11616.73025,E,0.018,,111217,,,D*62
$GNRMC,185747.00,A,3947.62324,N,11616.73027,E,0.013,,111217,,,D*6C
$GNRMC,185748.00,A,3947.62325,N,11616.73029,E,0.019,,111217,,,D*66
$GNRMC,185749.00,A,3947.62326,N,11616.73030,E,0.021,,111217,,,D*67
$GNRMC,185750.00,A,3947.62327,N,11616.73032,E,0.022,,111217,,,D*6F
$GNRMC,185751.00,A,3947.62328,N,11616.73033,E,0.012,,111217,,,D*63
$GNRMC,185752.00,A,3947.62329,N,11616.73035,E,0.015,,111217,,,D*60
$GNRMC,185753.00,A,3947.62329,N,11616.73037,E,0.020,,111217,,,D*65
$GNRMC,185754.00,A,3947.62330,N,11616.73038,E,0.018,,111217,,,D*6E
$GNRMC,185755.00,A,3947.62331,N,11616.73040,E,0.016,,111217,,,D*6F
$GNRMC,185756.00,A,3947.62332,N,11616.73042,E,0.024,,111217,,,D*6C
$GNRMC,185757.00,A,3947.62333,N,11616.73043,E,0.010,,111217,,,D*6A
$GNRMC,185758.00,A,3947.62334,N,11616.73044,E,0.017,,111217,,,D*62
$GNRMC,185759.00,A,3947.62335,N,11616.73045,E,0.016,,111217,,,D*62
$GNRMC,185800.00,A,3947.62336,N,11616.73046,E,0.019,,111217,,,D*6E
$GNRMC,185801.00,A,3947.62339,N,11616.73048,E,0.016,,111217,,,D*61
$GNRMC,185802.00,A,3947.62340,N,11616.73049,E,0.016,,111217,,,D*6D
$GNRMC,185803.00,A,3947.62343,N,11616.73050,E,0.016,,111217,,,D*67
$GNRMC,185804.00,A,3947.62345,N,11616.73050,E,0.018,,111217,,,D*68
$GNRMC,185805.00,A,3947.62347,N,11616.73051,E,0.023,,111217,,,D*62
$GNRMC,185806.00,A,3947.62350,N,11616.73052,E,0.021,,111217,,,D*66
$GNRMC,185807.00,A,3947.62352,N,11616.73053,E,0.016,,111217,,,D*60
$GNRMC,185808.00,A,3947.62355,N,11616.73054,E,0.003,,111217,,,D*6B
$GNRMC,185809.00,A,3947.62358,N,11616.73055,E,0.026,,111217,,,D*61
$GNRMC,185810.00,A,3947.62360,N,11616.73057,E,0.026,,111217,,,D*60
$GNRMC,185811.00,A,3947.62363,N,11616.73059,E,0.019,,111217,,,D*60
$GNRMC,185812.00,A,3947.62365,N,11616.73062,E,0.019,,111217,,,D*6D
$GNRMC,185813.00,A,3947.62368,N,11616.73064,E,0.019,,111217,,,D*67
$GNRMC,185814.00,A,3947.62369,N,11616.73065,E,0.012,,111217,,,D*6B
$GNRMC,185815.00,A,3947.62370,N,11616.73067,E,0.018,,111217,,,D*6A
$GNRMC,185816.00,A,3947.62372,N,11616.73068,E,0.013,,111217,,,D*6F
$GNRMC,185817.00,A,3947.62374,N,11616.73068,E,0.006,,111217,,,D*6C
$GNRMC,185818.00,A,3947.62375,N,11616.73068,E,0.003,,111217,,,D*67
$GNRMC,185819.00,A,3947.62376,N,11616.73069,E,0.025,,111217,,,D*60
$GNRMC,185820.00,A,3947.62377,N,11616.73071,E,0.025,,111217,,,D*62
$GNRMC,185821.00,A,3947.62379,N,11616.73072,E,0.011,,111217,,,D*69
$GNRMC,185822.00,A,3947.62380,N,11616.73072,E,0.018,,111217,,,D*65
$GNRMC,185823.00,A,3947.62381,N,11616.73073,E,0.016,,111217,,,D*6A
$GNRMC,185824.00,A,3947.62383,N,11616.73075,E,0.018,,111217,,,D*67
$GNRMC,185825.00,A,3947.62386,N,11616.73077,E,0.006,,111217,,,D*6E
$GNRMC,185826.00,A,3947.62388,N,11616.73079,E,0.006,,111217,,,D*6D
$GNRMC,185827.00,A,3947.62391,N,11616.73081,E,0.014,,111217,,,D*60
$GNRMC,185828.00,A,3947.62394,N,11616.73083,E,0.016,,111217,,,D*6A
$GNRMC,185829.00,A,3947.62397,N,11616.73085,E,0.026,,111217,,,D*6D
$GNRMC,185830.00,A,3947.62400,N,11616.73088,E,0.024,,111217,,,D*63
$GNRMC,185831.00,A,3947.62402,N,11616.73090,E,0.007,,111217,,,D*68
$GNRMC,185832.00,A,3947.62404,N,11616.73092,E,0.012,,111217,,,D*6B
$GNRMC,185833.00,A,3947.62405,N,11616.73094,E,0.014,,111217,,,D*6B
$GNRMC,185834.00,A,3947.62406,N,11616.73096,E,0.016,,111217,,,D*6F
$GNRMC,185835.00,A,3947.62407,N,11616.73098,E,0.011,,111217,,,D*66
$GNRMC,185836.00,A,3947.62408,N,11616.73100,E,0.016,,111217,,,D*6D
$GNRMC,185837.00,A,3947.62410,N,11616.73102,E,0.012,,111217,,,D*63
$GNRMC,185838.00,A,3947.62412,N,11616.73104,E,0.012,,111217,,,D*68
$GNRMC,185839.00,A,3947.62414,N,11616.73105,E,0.027,,111217,,,D*68
$GNRMC,185840.00,A,3947.62416,N,11616.73106,E,0.027,,111217,,,D*67
$GNRMC,185841.00,A,3947.62419,N,11616.73107,E,0.018,,111217,,,D*64
$GNRMC,185842.00,A,3947.62421,N,11616.73107,E,0.017,,111217,,,D*63
$GNRMC,185843.00,A,3947.62424,N,11616.73108,E,0.018,,111217,,,D*67
$GNRMC,185844.00,A,3947.62426,N,11616.73108,E,0.011,,111217,,,D*6B
$GNRMC,185845.00,A,3947.62429,N,11616.73107,E,0.011,,111217,,,D*6A
$GNRMC,185846.00,A,3947.62431,N,11616.73106,E,0.022,,111217,,,D*61
$GNRMC,185847.00,A,3947.62433,N,11616.73104,E,0.010,,111217,,,D*61
$GNRMC,185848.00,A,3947.62435,N,11616.73105,E,0.004,,111217,,,D*6C
$GNRMC,185849.00,A,3947.62436,N,11616.73106,E,0.014,,111217,,,D*6C
$GNRMC,185850.00,A,3947.62438,N,11616.73107,E,0.021,,111217,,,D*6D
$GNRMC,185851.00,A,3947.62440,N,11616.73108,E,0.019,,111217,,,D*67
$GNRMC,185852.00,A,3947.62441,N,11616.73108,E,0.019,,111217,,,D*65
$GNRMC,185853.00,A,3947.62443,N,11616.73108,E,0.022,,111217,,,D*6E
$GNRMC,185854.00,A,3947.62444,N,11616.73108,E,0.017,,111217,,,D*68
$GNRMC,185855.00,A,3947.62446,N,11616.73108,E,0.018,,111217,,,D*64
$GNRMC,185856.00,A,3947.62447,N,11616.73108,E,0.020,,111217,,,D*6D
$GNRMC,185857.00,A,3947.62448,N,11616.73107,E,0.022,,111217,,,D*6E
$GNRMC,185858.00,A,3947.62450,N,11616.73105,E,0.007,,111217,,,D*6D
$GNRMC,185859.00,A,3947.62450,N,11616.73104,E,0.017,,111217,,,D*6C
$GNRMC,185900.00,A,3947.62451,N,11616.73103,E,0.021,,111217,,,D*62
$GNRMC,185901.00,A,3947.62452,N,11616.73102,E,0.020,,111217,,,D*60
$GNRMC,185902.00,A,3947.62453,N,11616.73101,E,0.019,,111217,,,D*6B
$GNRMC,185903.00,A,3947.62454,N,11616.73100,E,0.015,,111217,,,D*60
$GNRMC,185904.00,A,3947.62455,N,11616.73099,E,0.019,,111217,,,D*6B
$GNRMC,185905.00,A,3947.62455,N,11616.73097,E,0.021,,111217,,,D*6F
$GNRMC,185906.00,A,3947.62456,N,11616.73094,E,0.020,,111217,,,D*6D
$GNRMC,185907.00,A,3947.62457,N,11616.73091,E,0.016,,111217,,,D*6D
$GNRMC,185908.00,A,3947.62458,N,11616.73089,E,0.010,,111217,,,D*62
$GNRMC,185909.00,A,3947.62458,N,11616.73087,E,0.017,,111217,,,D*6A
$GNRMC,185910.00,A,3947.62458,N,11616.73085,E,0.023,,111217,,,D*67
$GNRMC,185911.00,A,3947.62457,N,11616.73083,E,0.019,,111217,,,D*66
$GNRMC,185912.00,A,3947.62457,N,11616.73082,E,0.016,,111217,,,D*6B
$GNRMC,185913.00,A,3947.62457,N,11616.73081,E,0.007,,111217,,,D*69
$GNRMC,185914.00,A,3947.62457,N,11616.73080,E,0.009,,111217,,,D*61
$GNRMC,185915.00,A,3947.62456,N,11616.73080,E,0.016,,111217,,,D*6F
$GNRMC,185916.00,A,3947.62456,N,11616.73079,E,0.025,,111217,,,D*6A
$GNRMC,185917.00,A,3947.62455,N,11616.73078,E,0.014,,111217,,,D*6B
$GNRMC,185918.00,A,3947.62455,N,11616.73077,E,0.020,,111217,,,D*6C
$GNRMC,185919.00,A,3947.62455,N,11616.73076,E,0.020,,111217,,,D*6C
$GNRMC,185920.00,A,3947.62454,N,11616.73075,E,0.020,,111217,,,D*64
$GNRMC,185921.00,A,3947.62454,N,11616.73074,E,0.022,,111217,,,D*66
$GNRMC,185922.00,A,3947.62454,N,11616.73073,E,0.016,,111217,,,D*65
$GNRMC,185923.00,A,3947.62455,N,11616.73072,E,0.007,,111217,,,D*64
$GNRMC,185924.00,A,3947.62454,N,11616.73072,E,0.015,,111217,,,D*61
$GNRMC,185925.00,A,3947.62455,N,11616.73072,E,0.020,,111217,,,D*67
$GNRMC,185926.00,A,3947.62456,N,11616.73073,E,0.011,,111217,,,D*64
$GNRMC,185927.00,A,3947.62457,N,11616.73073,E,0.018,,111217,,,D*6D
$GNRMC,185928.00,A,3947.62458,N,11616.73073,E,0.009,,111217,,,D*6D
$GNRMC,185929.00,A,3947.62458,N,11616.73074,E,0.018,,111217,,,D*6B
$GNRMC,185930.00,A,3947.62458,N,11616.73074,E,0.033,,111217,,,D*6A
$GNRMC,185931.00,A,3947.62459,N,11616.73074,E,0.022,,111217,,,D*6A
$GNRMC,185932.00,A,3947.62459,N,11616.73075,E,0.014,,111217,,,D*6D
$GNRMC,185933.00,A,3947.62459,N,11616.73076,E,0.020,,111217,,,D*68
$GNRMC,185934.00,A,3947.62460,N,11616.73077,E,0.016,,111217,,,D*61
$GNRMC,185935.00,A,3947.62461,N,11616.73079,E,0.010,,111217,,,D*69
$GNRMC,185936.00,A,3947.62461,N,11616.73081,E,0.017,,111217,,,D*6A
$GNRMC,185937.00,A,3947.62461,N,11616.73084,E,0.019,,111217,,,D*60
$GNRMC,185938.00,A,3947.62461,N,11616.73086,E,0.017,,111217,,,D*63
$GNRMC,185939.00,A,3947.62460,N,11616.73089,E,0.008,,111217,,,D*62
$GNRMC,185940.00,A,3947.62460,N,11616.73092,E,0.028,,111217,,,D*64
$GNRMC,185941.00,A,3947.62460,N,11616.73095,E,0.019,,111217,,,D*60
$GNRMC,185942.00,A,3947.62460,N,11616.73098,E,0.018,,111217,,,D*6F
$GNRMC,185943.00,A,3947.62460,N,11616.73101,E,0.014,,111217,,,D*63
$GNRMC,185944.00,A,3947.62460,N,11616.73103,E,0.020,,111217,,,D*61
$GNRMC,185945.00,A,3947.62459,N,11616.73106,E,0.011,,111217,,,D*6D
$GNRMC,185946.00,A,3947.62459,N,11616.73108,E,0.016,,111217,,,D*67
$GNRMC,185947.00,A,3947.62458,N,11616.73110,E,0.010,,111217,,,D*68
$GNRMC,185948.00,A,3947.62457,N,11616.73113,E,0.013,,111217,,,D*68
$GNRMC,185949.00,A,3947.62457,N,11616.73115,E,0.015,,111217,,,D*69
$GNRMC,185950.00,A,3947.62456,N,11616.73117,E,0.016,,111217,,,D*61
$GNRMC,185951.00,A,3947.62456,N,11616.73119,E,0.012,,111217,,,D*6A
$GNRMC,185952.00,A,3947.62455,N,11616.73120,E,0.008,,111217,,,D*6B
$GNRMC,185953.00,A,3947.62454,N,11616.73120,E,0.016,,111217,,,D*64
$GNRMC,185954.00,A,3947.62453,N,11616.73120,E,0.021,,111217,,,D*60
$GNRMC,185955.00,A,3947.62453,N,11616.73120,E,0.014,,111217,,,D*67
$GNRMC,185956.00,A,3947.62452,N,11616.73120,E,0.020,,111217,,,D*62
$GNRMC,185957.00,A,3947.62451,N,11616.73119,E,0.017,,111217,,,D*6E
$GNRMC,185958.00,A,3947.62450,N,11616.73119,E,0.010,,111217,,,D*67
$GNRMC,185959.00,A,3947.62450,N,11616.73118,E,0.017,,111217,,,D*60
$GNRMC,190000.00,A,3947.62450,N,11616.73117,E,0.021,,111217,,,D*6B
$GNRMC,190001.00,A,3947.62449,N,11616.73116,E,0.009,,111217,,,D*69
$GNRMC,190002.00,A,3947.62449,N,11616.73115,E,0.025,,111217,,,D*67
$GNRMC,190003.00,A,3947.62449,N,11616.73113,E,0.013,,111217,,,D*65
$GNRMC,190004.00,A,3947.62449,N,11616.73112,E,0.010,,111217,,,D*60
$GNRMC,190005.00,A,3947.62448,N,11616.73110,E,0.015,,111217,,,D*67
$GNRMC,190006.00,A,3947.62447,N,11616.73108,E,0.025,,111217,,,D*61
$GNRMC,190007.00,A,3947.62447,N,11616.73107,E,0.016,,111217,,,D*6F
$GNRMC,190008.00,A,3947.62448,N,11616.73105,E,0.013,,111217,,,D*68
$GNRMC,190009.00,A,3947.62448,N,11616.73103,E,0.016,,111217,,,D*6A
$GNRMC,190010.00,A,3947.62447,N,11616.73101,E,0.010,,111217,,,D*69
$GNRMC,190011.00,A,3947.62446,N,11616.73098,E,0.017,,111217,,,D*6F
$GNRMC,190012.00,A,3947.62445,N,11616.73095,E,0.017,,111217,,,D*62
$GNRMC,190013.00,A,3947.62444,N,11616.73093,E,0.014,,111217,,,D*67
$GNRMC,190014.00,A,3947.62443,N,11616.73091,E,0.011,,111217,,,D*60
$GNRMC,190015.00,A,3947.62442,N,11616.73089,E,0.020,,111217,,,D*6B
$GNRMC,190016.00,A,3947.62440,N,11616.73088,E,0.015,,111217,,,D*6D
$GNRMC,190017.00,A,3947.62438,N,11616.73087,E,0.012,,111217,,,D*6B
$GNRMC,190018.00,A,3947.62437,N,11616.73086,E,0.021,,111217,,,D*6A
$GNRMC,190019.00,A,3947.62435,N,11616.73086,E,0.021,,111217,,,D*69
$GNRMC,190020.00,A,3947.62433,N,11616.73086,E,0.018,,111217,,,D*6F
$GNRMC,190021.00,A,3947.62432,N,11616.73086,E,0.020,,111217,,,D*64
$GNRMC,190022.00,A,3947.62431,N,11616.73086,E,0.011,,111217,,,D*66
$GNRMC,190023.00,A,3947.62429,N,11616.73088,E,0.017,,111217,,,D*66
$GNRMC,190024.00,A,3947.62428,N,11616.73090,E,0.015,,111217,,,D*6B
$GNRMC,190025.00,A,3947.62428,N,11616.73092,E,0.018,,111217,,,D*65
$GNRMC,190026.00,A,3947.62427,N,11616.73094,E,0.016,,111217,,,D*61
$GNRMC,190027.00,A,3947.62426,N,11616.73096,E,0.017,,111217,,,D*62
$GNRMC,190028.00,A,3947.62425,N,11616.73099,E,0.010,,111217,,,D*66
$GNRMC,190029.00,A,3947.62424,N,11616.73101,E,0.006,,111217,,,D*61
$GNRMC,190030.00,A,3947.62423,N,11616.73104,E,0.028,,111217,,,D*67
$GNRMC,190031.00,A,3947.62422,N,11616.73106,E,0.014,,111217,,,D*6A
$GNRMC,190032.00,A,3947.62421,N,11616.73108,E,0.012,,111217,,,D*62
$GNRMC,190033.00,A,3947.62420,N,11616.73110,E,0.014,,111217,,,D*6D
$GNRMC,190034.00,A,3947.62419,N,11616.73111,E,0.012,,111217,,,D*67
$GNRMC,190035.00,A,3947.62418,N,11616.73112,E,0.021,,111217,,,D*64
$GNRMC,190036.00,A,3947.62417,N,11616.73113,E,0.023,,111217,,,D*6B
$GNRMC,190037.00,A,3947.62416,N,11616.73114,E,0.013,,111217,,,D*6F
$GNRMC,190038.00,A,3947.62415,N,11616.73114,E,0.012,,111217,,,D*62
$GNRMC,190039.00,A,3947.62414,N,11616.73115,E,0.017,,111217,,,D*66
$GNRMC,190040.00,A,3947.62413,N,11616.73116,E,0.022,,111217,,,D*6A
$GNRMC,190041.00,A,3947.62413,N,11616.73117,E,0.020,,111217,,,D*68
$GNRMC,190042.00,A,3947.62413,N,11616.73117,E,0.013,,111217,,,D*6B
$GNRMC,190043.00,A,3947.62413,N,11616.73117,E,0.014,,111217,,,D*6D
$GNRMC,190044.00,A,3947.62412,N,11616.73116,E,0.022,,111217,,,D*6F
$GNRMC,190045.00,A,3947.62412,N,11616.73115,E,0.011,,111217,,,D*6D
$GNRMC,190046.00,A,3947.62412,N,11616.73114,E,0.006,,111217,,,D*69
$GNRMC,190047.00,A,3947.62412,N,11616.73113,E,0.011,,111217,,,D*69
$GNRMC,190048.00,A,3947.62412,N,11616.73111,E,0.012,,111217,,,D*67
$GNRMC,190049.00,A,3947.62412,N,11616.73110,E,0.014,,111217,,,D*61
$GNRMC,190050.00,A,3947.62412,N,11616.73109,E,0.014,,111217,,,D*61
$GNRMC,190051.00,A,3947.62413,N,11616.73108,E,0.012,,111217,,,D*66
$GNRMC,190052.00,A,3947.62414,N,11616.73107,E,0.019,,111217,,,D*66
$GNRMC,190053.00,A,3947.62414,N,11616.73105,E,0.012,,111217,,,D*6E
$GNRMC,190054.00,A,3947.62414,N,11616.73104,E,0.010,,111217,,,D*6A
$GNRMC,190055.00,A,3947.62415,N,11616.73103,E,0.016,,111217,,,D*6B
$GNRMC,190056.00,A,3947.62415,N,11616.73101,E,0.017,,111217,,,D*6B
$GNRMC,190057.00,A,3947.62416,N,11616.73100,E,0.023,,111217,,,D*6F
$GNRMC,190058.00,A,3947.62417,N,11616.73099,E,0.020,,111217,,,D*63
$GNRMC,190059.00,A,3947.62419,N,11616.73098,E,0.018,,111217,,,D*66
$GNRMC,190100.00,A,3947.62420,N,11616.73098,E,0.017,,111217,,,D*6E
$GNRMC,190101.00,A,3947.62421,N,11616.73097,E,0.017,,111217,,,D*61
$GNRMC,190102.00,A,3947.62421,N,11616.73096,E,0.016,,111217,,,D*62
$GNRMC,190103.00,A,3947.62422,N,11616.73096,E,0.012,,111217,,,D*64
$GNRMC,190104.00,A,3947.62423,N,11616.73095,E,0.012,,111217,,,D*61
$GNRMC,190105.00,A,3947.62425,N,11616.73094,E,0.017,,111217,,,D*62
$GNRMC,190106.00,A,3947.62426,N,11616.73093,E,0.023,,111217,,,D*62
$GNRMC,190107.00,A,3947.62427,N,11616.73092,E,0.014,,111217,,,D*67
$GNRMC,190108.00,A,3947.62429,N,11616.73091,E,0.011,,111217,,,D*60
$GNRMC,190109.00,A,3947.62430,N,11616.73089,E,0.020,,111217,,,D*62
$GNRMC,190110.00,A,3947.62432,N,11616.73088,E,0.010,,111217,,,D*6A
$GNRMC,190111.00,A,3947.62433,N,11616.73086,E,0.017,,111217,,,D*63
$GNRMC,190112.00,A,3947.62435,N,11616.73085,E,0.020,,111217,,,D*61
$GNRMC,190113.00,A,3947.62436,N,11616.73085,E,0.011,,111217,,,D*61
$GNRMC,190114.00,A,3947.62437,N,11616.73084,E,0.005,,111217,,,D*63
$GNRMC,190115.00,A,3947.62438,N,11616.73084,E,0.016,,111217,,,D*6F
$GNRMC,190116.00,A,3947.62439,N,11616.73084,E,0.018,,111217,,,D*63
$GNRMC,190117.00,A,3947.62441,N,11616.73084,E,0.014,,111217,,,D*61
$GNRMC,190118.00,A,3947.62441,N,11616.73085,E,0.012,,111217,,,D*69
$GNRMC,190119.00,A,3947.62442,N,11616.73084,E,0.016,,111217,,,D*6E
$GNRMC,190120.00,A,3947.62443,N,11616.73085,E,0.016,,111217,,,D*64
$GNRMC,190121.00,A,3947.62445,N,11616.73086,E,0.016,,111217,,,D*60
$GNRMC,190122.00,A,3947.62446,N,11616.73088,E,0.011,,111217,,,D*69
$GNRMC,190123.00,A,3947.62447,N,11616.73090,E,0.017,,111217,,,D*66
$GNRMC,190124.00,A,3947.62449,N,11616.73092,E,0.018,,111217,,,D*62
$GNRMC,190125.00,A,3947.62450,N,11616.73095,E,0.014,,111217,,,D*60
$GNRMC,190126.00,A,3947.62451,N,11616.73097,E,0.010,,111217,,,D*64
$GNRMC,190127.00,A,3947.62452,N,11616.73098,E,0.016,,111217,,,D*6F
$GNRMC,190128.00,A,3947.62453,N,11616.73099,E,0.008,,111217,,,D*6F
$GNRMC,190129.00,A,3947.62453,N,11616.73100,E,0.014,,111217,,,D*62
$GNRMC,190130.00,A,3947.62454,N,11616.73101,E,0.020,,111217,,,D*6B
$GNRMC,190131.00,A,3947.62454,N,11616.73100,E,0.017,,111217,,,D*6F
$GNRMC,190132.00,A,3947.62454,N,11616.73100,E,0.015,,111217,,,D*6E
$GNRMC,190133.00,A,3947.62455,N,11616.73099,E,0.018,,111217,,,D*62
$GNRMC,190134.00,A,3947.62455,N,11616.73099,E,0.017,,111217,,,D*6A
$GNRMC,190135.00,A,3947.62455,N,11616.73098,E,0.015,,111217,,,D*68
$GNRMC,190136.00,A,3947.62455,N,11616.73099,E,0.013,,111217,,,D*6C
$GNRMC,190137.00,A,3947.62455,N,11616.73100,E,0.014,,111217,,,D*6B
$GNRMC,190138.00,A,3947.62455,N,11616.73101,E,0.013,,111217,,,D*62
$GNRMC,190139.00,A,3947.62456,N,11616.73102,E,0.018,,111217,,,D*68
$GNRMC,190140.00,A,3947.62455,N,11616.73102,E,0.017,,111217,,,D*6A
$GNRMC,190141.00,A,3947.62455,N,11616.73101,E,0.008,,111217,,,D*66
$GNRMC,190142.00,A,3947.62455,N,11616.73101,E,0.010,,111217,,,D*6C
$GNRMC,190143.00,A,3947.62455,N,11616.73101,E,0.022,,111217,,,D*6C
$GNRMC,190144.00,A,3947.62455,N,11616.73102,E,0.013,,111217,,,D*6A
$GNRMC,190145.00,A,3947.62454,N,11616.73102,E,0.017,,111217,,,D*6E
$GNRMC,190146.00,A,3947.62453,N,11616.73102,E,0.003,,111217,,,D*6F
$GNRMC,190147.00,A,3947.62453,N,11616.73102,E,0.019,,111217,,,D*65
$GNRMC,190148.00,A,3947.62452,N,11616.73102,E,0.013,,111217,,,D*61
$GNRMC,190149.00,A,3947.62451,N,11616.73103,E,0.012,,111217,,,D*63
$GNRMC,190150.00,A,3947.62450,N,11616.73103,E,0.011,,111217,,,D*69
$GNRMC,190151.00,A,3947.62449,N,11616.73103,E,0.026,,111217,,,D*64
$GNRMC,190152.00,A,3947.62447,N,11616.73103,E,0.016,,111217,,,D*6A
$GNRMC,190153.00,A,3947.62446,N,11616.73104,E,0.010,,111217,,,D*6B
$GNRMC,190154.00,A,3947.62444,N,11616.73105,E,0.005,,111217,,,D*6B
$GNRMC,190155.00,A,3947.62442,N,11616.73105,E,0.004,,111217,,,D*6D
$GNRMC,190156.00,A,3947.62441,N,11616.73106,E,0.019,,111217,,,D*62
$GNRMC,190157.00,A,3947.62440,N,11616.73107,E,0.022,,111217,,,D*6B
$GNRMC,190158.00,A,3947.62439,N,11616.73108,E,0.014,,111217,,,D*60
$GNRMC,190159.00,A,3947.62438,N,11616.73109,E,0.016,,111217,,,D*63
$GNRMC,190200.00,A,3947.62436,N,11616.73111,E,0.012,,111217,,,D*6F
$GNRMC,190201.00,A,3947.62435,N,11616.73113,E,0.014,,111217,,,D*69
$GNRMC,190202.00,A,3947.62434,N,11616.73115,E,0.016,,111217,,,D*6F
$GNRMC,190203.00,A,3947.62432,N,11616.73117,E,0.008,,111217,,,D*65
$GNRMC,190204.00,A,3947.62431,N,11616.73120,E,0.012,,111217,,,D*6E
$GNRMC,190205.00,A,3947.62430,N,11616.73123,E,0.012,,111217,,,D*6D
$GNRMC,190206.00,A,3947.62429,N,11616.73124,E,0.013,,111217,,,D*60
$GNRMC,190207.00,A,3947.62428,N,11616.73126,E,0.011,,111217,,,D*60
$GNRMC,190208.00,A,3947.62427,N,11616.73127,E,0.016,,111217,,,D*66
$GNRMC,190209.00,A,3947.62427,N,11616.73129,E,0.013,,111217,,,D*6C
$GNRMC,190210.00,A,3947.62426,N,11616.73130,E,0.017,,111217,,,D*69
$GNRMC,190211.00,A,3947.62425,N,11616.73132,E,0.019,,111217,,,D*67
$GNRMC,190212.00,A,3947.62424,N,11616.73133,E,0.015,,111217,,,D*68
$GNRMC,190213.00,A,3947.62424,N,11616.73134,E,0.016,,111217,,,D*6D
$GNRMC,190214.00,A,3947.62423,N,11616.73136,E,0.013,,111217,,,D*6A
$GNRMC,190215.00,A,3947.62422,N,11616.73136,E,0.006,,111217,,,D*6E
$GNRMC,190216.00,A,3947.62421,N,11616.73136,E,0.016,,111217,,,D*6F
$GNRMC,190217.00,A,3947.62420,N,11616.73135,E,0.010,,111217,,,D*6A
$GNRMC,190218.00,A,3947.62418,N,11616.73134,E,0.016,,111217,,,D*69
$GNRMC,190219.00,A,3947.62417,N,11616.73133,E,0.006,,111217,,,D*61
$GNRMC,190220.00,A,3947.62416,N,11616.73132,E,0.008,,111217,,,D*65
$GNRMC,190221.00,A,3947.62414,N,11616.73131,E,0.017,,111217,,,D*6B
$GNRMC,190222.00,A,3947.62414,N,11616.73131,E,0.019,,111217,,,D*66
$GNRMC,190223.00,A,3947.62413,N,11616.73130,E,0.021,,111217,,,D*6A
$GNRMC,190224.00,A,3947.62412,N,11616.73130,E,0.014,,111217,,,D*6A
$GNRMC,190225.00,A,3947.62411,N,11616.73129,E,0.014,,111217,,,D*60
$GNRMC,190226.00,A,3947.62409,N,11616.73129,E,0.010,,111217,,,D*6E
$GNRMC,190227.00,A,3947.62408,N,11616.73128,E,0.014,,111217,,,D*6B
$GNRMC,190228.00,A,3947.62406,N,11616.73127,E,0.009,,111217,,,D*69
$GNRMC,190229.00,A,3947.62405,N,11616.73127,E,0.011,,111217,,,D*62
$GNRMC,190230.00,A,3947.62403,N,11616.73126,E,0.003,,111217,,,D*6E
$GNRMC,190231.00,A,3947.62401,N,11616.73124,E,0.008,,111217,,,D*64
$GNRMC,190232.00,A,3947.62400,N,11616.73123,E,0.013,,111217,,,D*6B
$GNRMC,190233.00,A,3947.62399,N,11616.73121,E,0.016,,111217,,,D*6A
$GNRMC,190234.00,A,3947.62398,N,11616.73119,E,0.019,,111217,,,D*68
$GNRMC,190235.00,A,3947.62395,N,11616.73118,E,0.020,,111217,,,D*6F
$GNRMC,190236.00,A,3947.62394,N,11616.73117,E,0.013,,111217,,,D*62
$GNRMC,190237.00,A,3947.62393,N,11616.73116,E,0.015,,111217,,,D*63
$GNRMC,190238.00,A,3947.62393,N,11616.73115,E,0.024,,111217,,,D*6D
$GNRMC,190239.00,A,3947.62392,N,11616.73114,E,0.008,,111217,,,D*62
$GNRMC,190240.00,A,3947.62390,N,11616.73113,E,0.022,,111217,,,D*61
$GNRMC,190241.00,A,3947.62389,N,11616.73111,E,0.016,,111217,,,D*6D
$GNRMC,190242.00,A,3947.62387,N,11616.73109,E,0.011,,111217,,,D*6E
$GNRMC,190243.00,A,3947.62385,N,11616.73107,E,0.010,,111217,,,D*62
$GNRMC,190244.00,A,3947.62383,N,11616.73105,E,0.015,,111217,,,D*64
$GNRMC,190245.00,A,3947.62383,N,11616.73104,E,0.020,,111217,,,D*62
$GNRMC,190246.00,A,3947.62383,N,11616.73103,E,0.013,,111217,,,D*66
$GNRMC,190247.00,A,3947.62383,N,11616.73102,E,0.022,,111217,,,D*64
$GNRMC,190248.00,A,3947.62384,N,11616.73103,E,0.012,,111217,,,D*6E
$GNRMC,190249.00,A,3947.62384,N,11616.73103,E,0.014,,111217,,,D*69
$GNRMC,190250.00,A,3947.62384,N,11616.73103,E,0.022,,111217,,,D*64
$GNRMC,190251.00,A,3947.62384,N,11616.73104,E,0.023,,111217,,,D*63
$GNRMC,190252.00,A,3947.62386,N,11616.73105,E,0.016,,111217,,,D*65
$GNRMC,190253.00,A,3947.62388,N,11616.73107,E,0.011,,111217,,,D*6F
$GNRMC,190254.00,A,3947.62390,N,11616.73109,E,0.014,,111217,,,D*6A
$GNRMC,190255.00,A,3947.62391,N,11616.73111,E,0.021,,111217,,,D*65
$GNRMC,190256.00,A,3947.62392,N,11616.73113,E,0.009,,111217,,,D*6D
$GNRMC,190257.00,A,3947.62395,N,11616.73115,E,0.013,,111217,,,D*66
$GNRMC,190258.00,A,3947.62397,N,11616.73116,E,0.019,,111217,,,D*62
$GNRMC,190259.00,A,3947.62400,N,11616.73118,E,0.019,,111217,,,D*64
$GNRMC,190300.00,A,3947.62402,N,11616.73119,E,0.019,,111217,,,D*6A
$GNRMC,190301.00,A,3947.62404,N,11616.73119,E,0.013,,111217,,,D*67
$GNRMC,190302.00,A,3947.62405,N,11616.73121,E,0.015,,111217,,,D*68
$GNRMC,190303.00,A,3947.62405,N,11616.73122,E,0.011,,111217,,,D*6E
$GNRMC,190304.00,A,3947.62406,N,11616.73122,E,0.019,,111217,,,D*62
$GNRMC,190305.00,A,3947.62406,N,11616.73122,E,0.017,,111217,,,D*6D
$GNRMC,190306.00,A,3947.62406,N,11616.73122,E,0.010,,111217,,,D*69
$GNRMC,190307.00,A,3947.62407,N,11616.73121,E,0.018,,111217,,,D*62
$GNRMC,190308.00,A,3947.62407,N,11616.73121,E,0.015,,111217,,,D*60
$GNRMC,190309.00,A,3947.62407,N,11616.73120,E,0.008,,111217,,,D*6C
$GNRMC,190310.00,A,3947.62408,N,11616.73119,E,0.015,,111217,,,D*6D
$GNRMC,190311.00,A,3947.62408,N,11616.73118,E,0.014,,111217,,,D*6C
$GNRMC,190312.00,A,3947.62408,N,11616.73116,E,0.010,,111217,,,D*65
$GNRMC,190313.00,A,3947.62408,N,11616.73114,E,0.010,,111217,,,D*66
$GNRMC,190314.00,A,3947.62408,N,11616.73112,E,0.016,,111217,,,D*61
$GNRMC,190315.00,A,3947.62409,N,11616.73111,E,0.013,,111217,,,D*67
$GNRMC,190316.00,A,3947.62410,N,11616.73109,E,0.007,,111217,,,D*60
$GNRMC,190317.00,A,3947.62409,N,11616.73107,E,0.015,,111217,,,D*64
$GNRMC,190318.00,A,3947.62410,N,11616.73105,E,0.012,,111217,,,D*66
$GNRMC,190319.00,A,3947.62410,N,11616.73103,E,0.013,,111217,,,D*60
$GNRMC,190320.00,A,3947.62411,N,11616.73101,E,0.019,,111217,,,D*63
$GNRMC,190321.00,A,3947.62413,N,11616.73098,E,0.010,,111217,,,D*68
$GNRMC,190322.00,A,3947.62413,N,11616.73096,E,0.014,,111217,,,D*61
$GNRMC,190323.00,A,3947.62413,N,11616.73093,E,0.012,,111217,,,D*63
$GNRMC,190324.00,A,3947.62413,N,11616.73089,E,0.009,,111217,,,D*65
$GNRMC,190325.00,A,3947.62413,N,11616.73086,E,0.010,,111217,,,D*63
$GNRMC,190326.00,A,3947.62413,N,11616.73082,E,0.020,,111217,,,D*67
$GNRMC,190327.00,A,3947.62413,N,11616.73079,E,0.016,,111217,,,D*67
$GNRMC,190328.00,A,3947.62413,N,11616.73076,E,0.020,,111217,,,D*62
$GNRMC,190329.00,A,3947.62413,N,11616.73073,E,0.014,,111217,,,D*61
$GNRMC,190330.00,A,3947.62412,N,11616.73071,E,0.014,,111217,,,D*6A
$GNRMC,190331.00,A,3947.62412,N,11616.73069,E,0.017,,111217,,,D*61
$GNRMC,190332.00,A,3947.62412,N,11616.73068,E,0.011,,111217,,,D*65
$GNRMC,190333.00,A,3947.62411,N,11616.73067,E,0.017,,111217,,,D*6E
$GNRMC,190334.00,A,3947.62411,N,11616.73067,E,0.019,,111217,,,D*67
$GNRMC,190335.00,A,3947.62410,N,11616.73067,E,0.015,,111217,,,D*6B
$GNRMC,190336.00,A,3947.62409,N,11616.73067,E,0.016,,111217,,,D*63
$GNRMC,190337.00,A,3947.62408,N,11616.73067,E,0.009,,111217,,,D*6D
$GNRMC,190338.00,A,3947.62407,N,11616.73069,E,0.004,,111217,,,D*6E
$GNRMC,190339.00,A,3947.62406,N,11616.73071,E,0.014,,111217,,,D*66
$GNRMC,190340.00,A,3947.62406,N,11616.73072,E,0.011,,111217,,,D*6E
$GNRMC,190341.00,A,3947.62405,N,11616.73074,E,0.012,,111217,,,D*69
$GNRMC,190342.00,A,3947.62404,N,11616.73076,E,0.019,,111217,,,D*62
$GNRMC,190343.00,A,3947.62403,N,11616.73078,E,0.016,,111217,,,D*65
$GNRMC,190344.00,A,3947.62401,N,11616.73079,E,0.007,,111217,,,D*61
$GNRMC,190345.00,A,3947.62400,N,11616.73080,E,0.016,,111217,,,D*67
$GNRMC,190346.00,A,3947.62398,N,11616.73081,E,0.006,,111217,,,D*62
$GNRMC,190347.00,A,3947.62396,N,11616.73081,E,0.008,,111217,,,D*63
$GNRMC,190348.00,A,3947.62394,N,11616.73081,E,0.016,,111217,,,D*61
$GNRMC,190349.00,A,3947.62392,N,11616.73080,E,0.020,,111217,,,D*62
$GNRMC,190350.00,A,3947.62390,N,11616.73080,E,0.012,,111217,,,D*69
$GNRMC,190351.00,A,3947.62388,N,11616.73080,E,0.017,,111217,,,D*64
$GNRMC,190352.00,A,3947.62385,N,11616.73079,E,0.009,,111217,,,D*63
$GNRMC,190353.00,A,3947.62383,N,11616.73079,E,0.014,,111217,,,D*68
$GNRMC,190354.00,A,3947.62380,N,11616.73078,E,0.006,,111217,,,D*6E
$GNRMC,190355.00,A,3947.62378,N,11616.73077,E,0.012,,111217,,,D*62
$GNRMC,190356.00,A,3947.62375,N,11616.73076,E,0.014,,111217,,,D*6B
$GNRMC,190357.00,A,3947.62372,N,11616.73074,E,0.018,,111217,,,D*63
$GNRMC,190358.00,A,3947.62369,N,11616.73071,E,0.009,,111217,,,D*63
$GNRMC,190359.00,A,3947.62366,N,11616.73068,E,0.013,,111217,,,D*6E
$GNRMC,190400.00,A,3947.62363,N,11616.73066,E,0.005,,111217,,,D*69
$GNRMC,190401.00,A,3947.62361,N,11616.73065,E,0.022,,111217,,,D*6C
$GNRMC,190402.00,A,3947.62358,N,11616.73063,E,0.012,,111217,,,D*60
$GNRMC,190403.00,A,3947.62356,N,11616.73062,E,0.013,,111217,,,D*6F
$GNRMC,190404.00,A,3947.62354,N,11616.73062,E,0.009,,111217,,,D*61
$GNRMC,190405.00,A,3947.62352,N,11616.73061,E,0.008,,111217,,,D*64
$GNRMC,190406.00,A,3947.62350,N,11616.73061,E,0.008,,111217,,,D*65
$GNRMC,190407.00,A,3947.62348,N,11616.73061,E,0.011,,111217,,,D*65
$GNRMC,190408.00,A,3947.62347,N,11616.73062,E,0.012,,111217,,,D*65
$GNRMC,190409.00,A,3947.62346,N,11616.73063,E,0.020,,111217,,,D*65
$GNRMC,190410.00,A,3947.62345,N,11616.73063,E,0.013,,111217,,,D*6E
$GNRMC,190411.00,A,3947.62343,N,11616.73064,E,0.009,,111217,,,D*65
$GNRMC,190412.00,A,3947.62342,N,11616.73064,E,0.010,,111217,,,D*6F
$GNRMC,190413.00,A,3947.62341,N,11616.73065,E,0.012,,111217,,,D*6E
$GNRMC,190414.00,A,3947.62340,N,11616.73066,E,0.009,,111217,,,D*61
$GNRMC,190415.00,A,3947.62339,N,11616.73067,E,0.007,,111217,,,D*61
$GNRMC,190416.00,A,3947.62339,N,11616.73069,E,0.020,,111217,,,D*69
$GNRMC,190417.00,A,3947.62339,N,11616.73071,E,0.005,,111217,,,D*66
$GNRMC,190418.00,A,3947.62338,N,11616.73071,E,0.011,,111217,,,D*6D
$GNRMC,190419.00,A,3947.62339,N,11616.73073,E,0.008,,111217,,,D*67
$GNRMC,190420.00,A,3947.62339,N,11616.73076,E,0.011,,111217,,,D*60
$GNRMC,190421.00,A,3947.62341,N,11616.73079,E,0.017,,111217,,,D*67
$GNRMC,190422.00,A,3947.62342,N,11616.73081,E,0.016,,111217,,,D*61
$GNRMC,190423.00,A,3947.62343,N,11616.73084,E,0.009,,111217,,,D*6A
$GNRMC,190424.00,A,3947.62344,N,11616.73086,E,0.014,,111217,,,D*64
$GNRMC,190425.00,A,3947.62345,N,11616.73088,E,0.010,,111217,,,D*6E
$GNRMC,190426.00,A,3947.62346,N,11616.73089,E,0.012,,111217,,,D*6D
$GNRMC,190427.00,A,3947.62346,N,11616.73090,E,0.017,,111217,,,D*61
$GNRMC,190428.00,A,3947.62347,N,11616.73091,E,0.013,,111217,,,D*6A
$GNRMC,190429.00,A,3947.62348,N,11616.73091,E,0.008,,111217,,,D*6E
$GNRMC,190430.00,A,3947.62348,N,11616.73092,E,0.009,,111217,,,D*64
$GNRMC,190431.00,A,3947.62349,N,11616.73092,E,0.015,,111217,,,D*69
$GNRMC,190432.00,A,3947.62350,N,11616.73092,E,0.009,,111217,,,D*6F
$GNRMC,190433.00,A,3947.62350,N,11616.73091,E,0.015,,111217,,,D*60
$GNRMC,190434.00,A,3947.62351,N,11616.73091,E,0.013,,111217,,,D*60
$GNRMC,190435.00,A,3947.62351,N,11616.73091,E,0.011,,111217,,,D*63
$GNRMC,190436.00,A,3947.62350,N,11616.73090,E,0.013,,111217,,,D*62
$GNRMC,190437.00,A,3947.62350,N,11616.73089,E,0.018,,111217,,,D*60
$GNRMC,190438.00,A,3947.62349,N,11616.73088,E,0.011,,111217,,,D*6F
$GNRMC,190439.00,A,3947.62347,N,11616.73087,E,0.012,,111217,,,D*6C
$GNRMC,190440.00,A,3947.62347,N,11616.73086,E,0.021,,111217,,,D*63
$GNRMC,190441.00,A,3947.62346,N,11616.73085,E,0.014,,111217,,,D*66
$GNRMC,190442.00,A,3947.62346,N,11616.73085,E,0.016,,111217,,,D*67
$GNRMC,190443.00,A,3947.62345,N,11616.73084,E,0.013,,111217,,,D*61
$GNRMC,190444.00,A,3947.62345,N,11616.73083,E,0.013,,111217,,,D*61
$GNRMC,190445.00,A,3947.62344,N,11616.73083,E,0.011,,111217,,,D*63
$GNRMC,190446.00,A,3947.62344,N,11616.73084,E,0.017,,111217,,,D*61
$GNRMC,190447.00,A,3947.62344,N,11616.73084,E,0.011,,111217,,,D*66
$GNRMC,190448.00,A,3947.62345,N,11616.73085,E,0.020,,111217,,,D*6B
$GNRMC,190449.00,A,3947.62345,N,11616.73087,E,0.011,,111217,,,D*6A
$GNRMC,190450.00,A,3947.62346,N,11616.73088,E,0.006,,111217,,,D*68
$GNRMC,190451.00,A,3947.62347,N,11616.73088,E,0.010,,111217,,,D*6F
$GNRMC,190452.00,A,3947.62348,N,11616.73089,E,0.014,,111217,,,D*66
$GNRMC,190453.00,A,3947.62350,N,11616.73089,E,0.021,,111217,,,D*68
$GNRMC,190454.00,A,3947.62351,N,11616.73089,E,0.016,,111217,,,D*6A
$GNRMC,190455.00,A,3947.62353,N,11616.73090,E,0.013,,111217,,,D*64
$GNRMC,190456.00,A,3947.62354,N,11616.73090,E,0.013,,111217,,,D*60
$GNRMC,190457.00,A,3947.62356,N,11616.73091,E,0.014,,111217,,,D*65
$GNRMC,190458.00,A,3947.62357,N,11616.73091,E,0.013,,111217,,,D*6C
$GNRMC,190459.00,A,3947.62358,N,11616.73091,E,0.012,,111217,,,D*63
$GNRMC,190500.00,A,3947.62359,N,11616.73090,E,0.012,,111217,,,D*6E
$GNRMC,190501.00,A,3947.62360,N,11616.73090,E,0.009,,111217,,,D*6F
$GNRMC,190502.00,A,3947.62361,N,11616.73090,E,0.014,,111217,,,D*61
$GNRMC,190503.00,A,3947.62362,N,11616.73090,E,0.013,,111217,,,D*64
$GNRMC,190504.00,A,3947.62363,N,11616.73090,E,0.009,,111217,,,D*69
$GNRMC,190505.00,A,3947.62364,N,11616.73089,E,0.010,,111217,,,D*6F
$GNRMC,190506.00,A,3947.62364,N,11616.73088,E,0.012,,111217,,,D*6F
$GNRMC,190507.00,A,3947.62364,N,11616.73087,E,0.016,,111217,,,D*65
$GNRMC,190508.00,A,3947.62363,N,11616.73085,E,0.008,,111217,,,D*60
$GNRMC,190509.00,A,3947.62363,N,11616.73083,E,0.014,,111217,,,D*6A
$GNRMC,190510.00,A,3947.62362,N,11616.73081,E,0.014,,111217,,,D*61
$GNRMC,190511.00,A,3947.62362,N,11616.73079,E,0.013,,111217,,,D*60
$GNRMC,190512.00,A,3947.62361,N,11616.73077,E,0.005,,111217,,,D*69
$GNRMC,190513.00,A,3947.62360,N,11616.73076,E,0.018,,111217,,,D*64
$GNRMC,190514.00,A,3947.62359,N,11616.73073,E,0.016,,111217,,,D*62
$GNRMC,190515.00,A,3947.62357,N,11616.73071,E,0.019,,111217,,,D*60
$GNRMC,190516.00,A,3947.62356,N,11616.73068,E,0.020,,111217,,,D*60
$GNRMC,190517.00,A,3947.62355,N,11616.73067,E,0.016,,111217,,,D*68
$GNRMC,190518.00,A,3947.62355,N,11616.73067,E,0.015,,111217,,,D*64
$GNRMC,190519.00,A,3947.62355,N,11616.73067,E,0.016,,111217,,,D*66
$GNRMC,190520.00,A,3947.62355,N,11616.73067,E,0.017,,111217,,,D*6D
$GNRMC,190521.00,A,3947.62356,N,11616.73069,E,0.007,,111217,,,D*60
$GNRMC,190522.00,A,3947.62357,N,11616.73070,E,0.014,,111217,,,D*68
$GNRMC,190523.00,A,3947.62358,N,11616.73072,E,0.010,,111217,,,D*60
$GNRMC,190524.00,A,3947.62358,N,11616.73073,E,0.013,,111217,,,D*65
$GNRMC,190525.00,A,3947.62359,N,11616.73074,E,0.016,,111217,,,D*67
$GNRMC,190526.00,A,3947.62360,N,11616.73075,E,0.017,,111217,,,D*6E
$GNRMC,190527.00,A,3947.62361,N,11616.73076,E,0.014,,111217,,,D*6E
$GNRMC,190528.00,A,3947.62362,N,11616.73077,E,0.017,,111217,,,D*60
$GNRMC,190529.00,A,3947.62363,N,11616.73078,E,0.016,,111217,,,D*6E
$GNRMC,190530.00,A,3947.62364,N,11616.73080,E,0.008,,111217,,,D*69
$GNRMC,190531.00,A,3947.62366,N,11616.73081,E,0.020,,111217,,,D*61
$GNRMC,190532.00,A,3947.62367,N,11616.73082,E,0.013,,111217,,,D*60
$GNRMC,190533.00,A,3947.62369,N,11616.73083,E,0.012,,111217,,,D*6F
$GNRMC,190534.00,A,3947.62371,N,11616.73084,E,0.015,,111217,,,D*61
$GNRMC,190535.00,A,3947.62373,N,11616.73085,E,0.011,,111217,,,D*67
$GNRMC,190536.00,A,3947.62376,N,11616.73086,E,0.010,,111217,,,D*63
$GNRMC,190537.00,A,3947.62379,N,11616.73087,E,0.014,,111217,,,D*68
$GNRMC,190538.00,A,3947.62381,N,11616.73088,E,0.013,,111217,,,D*68
$GNRMC,190539.00,A,3947.62384,N,11616.73089,E,0.012,,111217,,,D*6C
$GNRMC,190540.00,A,3947.62387,N,11616.73090,E,0.014,,111217,,,D*6F
$GNRMC,190541.00,A,3947.62390,N,11616.73091,E,0.015,,111217,,,D*68
$GNRMC,190542.00,A,3947.62393,N,11616.73094,E,0.007,,111217,,,D*6E
$GNRMC,190543.00,A,3947.62396,N,11616.73094,E,0.016,,111217,,,D*6A
$GNRMC,190544.00,A,3947.62399,N,11616.73094,E,0.023,,111217,,,D*64
$GNRMC,190545.00,A,3947.62401,N,11616.73094,E,0.022,,111217,,,D*62
$GNRMC,190546.00,A,3947.62403,N,11616.73093,E,0.022,,111217,,,D*64
$GNRMC,190547.00,A,3947.62405,N,11616.73093,E,0.020,,111217,,,D*61
$GNRMC,190548.00,A,3947.62406,N,11616.73091,E,0.017,,111217,,,D*6B
$GNRMC,190549.00,A,3947.62407,N,11616.73090,E,0.012,,111217,,,D*6F
$GNRMC,190550.00,A,3947.62407,N,11616.73089,E,0.010,,111217,,,D*6D
$GNRMC,190551.00,A,3947.62409,N,11616.73088,E,0.017,,111217,,,D*64
$GNRMC,190552.00,A,3947.62410,N,11616.73086,E,0.024,,111217,,,D*61
$GNRMC,190553.00,A,3947.62409,N,11616.73085,E,0.013,,111217,,,D*6F
$GNRMC,190554.00,A,3947.62409,N,11616.73083,E,0.010,,111217,,,D*6D
$GNRMC,190555.00,A,3947.62408,N,11616.73080,E,0.009,,111217,,,D*66
$GNRMC,190556.00,A,3947.62408,N,11616.73079,E,0.007,,111217,,,D*6D
$GNRMC,190557.00,A,3947.62406,N,11616.73078,E,0.005,,111217,,,D*61
$GNRMC,190558.00,A,3947.62406,N,11616.73077,E,0.015,,111217,,,D*60
$GNRMC,190559.00,A,3947.62405,N,11616.73076,E,0.024,,111217,,,D*61
$GNRMC,190600.00,A,3947.62405,N,11616.73075,E,0.020,,111217,,,D*69
$GNRMC,190601.00,A,3947.62404,N,11616.73075,E,0.020,,111217,,,D*69
$GNRMC,190602.00,A,3947.62404,N,11616.73075,E,0.014,,111217,,,D*6D
$GNRMC,190603.00,A,3947.62404,N,11616.73074,E,0.022,,111217,,,D*68
$GNRMC,190604.00,A,3947.62403,N,11616.73073,E,0.022,,111217,,,D*6F
$GNRMC,190605.00,A,3947.62402,N,11616.73073,E,0.015,,111217,,,D*6B
$GNRMC,190606.00,A,3947.62402,N,11616.73073,E,0.013,,111217,,,D*6E
$GNRMC,190607.00,A,3947.62401,N,11616.73073,E,0.016,,111217,,,D*69
$GNRMC,190608.00,A,3947.62401,N,11616.73074,E,0.010,,111217,,,D*67
$GNRMC,190609.00,A,3947.62400,N,11616.73075,E,0.013,,111217,,,D*65
$GNRMC,190610.00,A,3947.62400,N,11616.73075,E,0.015,,111217,,,D*6B
$GNRMC,190611.00,A,3947.62399,N,11616.73076,E,0.009,,111217,,,D*63
$GNRMC,190612.00,A,3947.62397,N,11616.73077,E,0.010,,111217,,,D*67
$GNRMC,190613.00,A,3947.62397,N,11616.73078,E,0.011,,111217,,,D*68
$GNRMC,190614.00,A,3947.62396,N,11616.73080,E,0.008,,111217,,,D*61
$GNRMC,190615.00,A,3947.62395,N,11616.73082,E,0.015,,111217,,,D*6D
$GNRMC,190616.00,A,3947.62394,N,11616.73084,E,0.012,,111217,,,D*6E
$GNRMC,190617.00,A,3947.62394,N,11616.73087,E,0.011,,111217,,,D*6F
$GNRMC,190618.00,A,3947.62394,N,11616.73088,E,0.010,,111217,,,D*6E
$GNRMC,190619.00,A,3947.62393,N,11616.73090,E,0.006,,111217,,,D*66
$GNRMC,190620.00,A,3947.62392,N,11616.73092,E,0.013,,111217,,,D*6B
$GNRMC,190621.00,A,3947.62392,N,11616.73093,E,0.008,,111217,,,D*61
$GNRMC,190622.00,A,3947.62392,N,11616.73095,E,0.007,,111217,,,D*6B
$GNRMC,190623.00,A,3947.62391,N,11616.73097,E,0.006,,111217,,,D*6A
$GNRMC,190624.00,A,3947.62390,N,11616.73099,E,0.009,,111217,,,D*6D
$GNRMC,190625.00,A,3947.62388,N,11616.73099,E,0.008,,111217,,,D*64
$GNRMC,190626.00,A,3947.62386,N,11616.73098,E,0.006,,111217,,,D*66
$GNRMC,190627.00,A,3947.62385,N,11616.73097,E,0.011,,111217,,,D*6D
$GNRMC,190628.00,A,3947.62383,N,11616.73096,E,0.011,,111217,,,D*65
$GNRMC,190629.00,A,3947.62382,N,11616.73094,E,0.012,,111217,,,D*64
$GNRMC,190630.00,A,3947.62380,N,11616.73093,E,0.000,,111217,,,D*6A
$GNRMC,190631.00,A,3947.62378,N,11616.73092,E,0.006,,111217,,,D*6B
$GNRMC,190632.00,A,3947.62377,N,11616.73091,E,0.005,,111217,,,D*67
$GNRMC,190633.00,A,3947.62375,N,11616.73090,E,0.008,,111217,,,D*68
$GNRMC,190634.00,A,3947.62374,N,11616.73088,E,0.016,,111217,,,D*68
$GNRMC,190635.00,A,3947.62373,N,11616.73086,E,0.007,,111217,,,D*60
$GNRMC,190636.00,A,3947.62371,N,11616.73084,E,0.012,,111217,,,D*67
$GNRMC,190637.00,A,3947.62369,N,11616.73082,E,0.008,,111217,,,D*62
$GNRMC,190638.00,A,3947.62367,N,11616.73080,E,0.008,,111217,,,D*61
$GNRMC,190639.00,A,3947.62366,N,11616.73077,E,0.013,,111217,,,D*63
$GNRMC,190640.00,A,3947.62364,N,11616.73074,E,0.018,,111217,,,D*67
$GNRMC,190641.00,A,3947.62363,N,11616.73072,E,0.004,,111217,,,D*6A
$GNRMC,190642.00,A,3947.62361,N,11616.73069,E,0.006,,111217,,,D*63
$GNRMC,190643.00,A,3947.62359,N,11616.73066,E,0.001,,111217,,,D*61
$GNRMC,190644.00,A,3947.62356,N,11616.73062,E,0.007,,111217,,,D*6B
$GNRMC,190645.00,A,3947.62352,N,11616.73056,E,0.005,,111217,,,D*6B
$GNRMC,190646.00,A,3947.62347,N,11616.73050,E,0.004,,111217,,,D*6B
$GNRMC,190647.00,A,3947.62343,N,11616.73045,E,0.015,,111217,,,D*6A
$GNRMC,190648.00,A,3947.62340,N,11616.73042,E,0.017,,111217,,,D*63
$GNRMC,190649.00,A,3947.62338,N,11616.73039,E,0.008,,111217,,,D*6F
$GNRMC,190650.00,A,3947.62335,N,11616.73038,E,0.004,,111217,,,D*67
$GNRMC,190651.00,A,3947.62333,N,11616.73037,E,0.010,,111217,,,D*6A
$GNRMC,190652.00,A,3947.62332,N,11616.73036,E,0.006,,111217,,,D*6E
$GNRMC,190653.00,A,3947.62330,N,11616.73036,E,0.010,,111217,,,D*6A
$GNRMC,190654.00,A,3947.62330,N,11616.73036,E,0.013,,111217,,,D*6E
$GNRMC,190655.00,A,3947.62330,N,11616.73037,E,0.009,,111217,,,D*65
$GNRMC,190656.00,A,3947.62330,N,11616.73038,E,0.007,,111217,,,D*67
$GNRMC,190657.00,A,3947.62329,N,11616.73040,E,0.010,,111217,,,D*67
$GNRMC,190658.00,A,3947.62330,N,11616.73044,E,0.007,,111217,,,D*62
$GNRMC,190659.00,A,3947.62330,N,11616.73047,E,0.010,,111217,,,D*66
$GNRMC,190700.00,A,3947.62330,N,11616.73049,E,0.012,,111217,,,D*67
$GNRMC,190701.00,A,3947.62329,N,11616.73052,E,0.009,,111217,,,D*6E
$GNRMC,190702.00,A,3947.62329,N,11616.73055,E,0.004,,111217,,,D*67
$GNRMC,190703.00,A,3947.62328,N,11616.73057,E,0.007,,111217,,,D*66
$GNRMC,190704.00,A,3947.62326,N,11616.73059,E,0.009,,111217,,,D*6F
$GNRMC,190705.00,A,3947.62324,N,11616.73060,E,0.008,,111217,,,D*67
$GNRMC,190706.00,A,3947.62323,N,11616.73062,E,0.012,,111217,,,D*6A
$GNRMC,190707.00,A,3947.62321,N,11616.73063,E,0.007,,111217,,,D*6C
$GNRMC,190708.00,A,3947.62320,N,11616.73064,E,0.009,,111217,,,D*6B
$GNRMC,190709.00,A,3947.62318,N,11616.73065,E,0.008,,111217,,,D*61
$GNRMC,190710.00,A,3947.62316,N,11616.73066,E,0.010,,111217,,,D*6D
$GNRMC,190711.00,A,3947.62315,N,11616.73067,E,0.005,,111217,,,D*6A
$GNRMC,190712.00,A,3947.62313,N,11616.73067,E,0.010,,111217,,,D*6B
$GNRMC,190713.00,A,3947.62311,N,11616.73068,E,0.008,,111217,,,D*6E
$GNRMC,190714.00,A,3947.62309,N,11616.73068,E,0.013,,111217,,,D*6A
$GNRMC,190715.00,A,3947.62307,N,11616.73068,E,0.009,,111217,,,D*6E
$GNRMC,190716.00,A,3947.62305,N,11616.73069,E,0.001,,111217,,,D*66
$GNRMC,190717.00,A,3947.62304,N,11616.73070,E,0.009,,111217,,,D*66
$GNRMC,190718.00,A,3947.62301,N,11616.73070,E,0.014,,111217,,,D*60
$GNRMC,190719.00,A,3947.62300,N,11616.73070,E,0.008,,111217,,,D*6D
$GNRMC,190720.00,A,3947.62298,N,11616.73070,E,0.018,,111217,,,D*66
$GNRMC,190721.00,A,3947.62296,N,11616.73069,E,0.010,,111217,,,D*69
$GNRMC,190722.00,A,3947.62295,N,11616.73069,E,0.011,,111217,,,D*68
$GNRMC,190723.00,A,3947.62292,N,11616.73067,E,0.008,,111217,,,D*68
$GNRMC,190724.00,A,3947.62290,N,11616.73066,E,0.009,,111217,,,D*6D
$GNRMC,190725.00,A,3947.62288,N,11616.73065,E,0.015,,111217,,,D*6B
$GNRMC,190726.00,A,3947.62286,N,11616.73063,E,0.006,,111217,,,D*62
$GNRMC,190727.00,A,3947.62284,N,11616.73063,E,0.012,,111217,,,D*64
$GNRMC,190728.00,A,3947.62283,N,11616.73062,E,0.008,,111217,,,D*66
$GNRMC,190729.00,A,3947.62281,N,11616.73061,E,0.009,,111217,,,D*67
$GNRMC,190730.00,A,3947.62279,N,11616.73059,E,0.005,,111217,,,D*6F
$GNRMC,190731.00,A,3947.62277,N,11616.73057,E,0.005,,111217,,,D*6E
$GNRMC,190732.00,A,3947.62275,N,11616.73054,E,0.009,,111217,,,D*60
$GNRMC,190733.00,A,3947.62273,N,11616.73052,E,0.010,,111217,,,D*69
$GNRMC,190734.00,A,3947.62271,N,11616.73049,E,0.012,,111217,,,D*64
$GNRMC,190735.00,A,3947.62269,N,11616.73046,E,0.016,,111217,,,D*67
$GNRMC,190736.00,A,3947.62268,N,11616.73045,E,0.010,,111217,,,D*60
$GNRMC,190737.00,A,3947.62267,N,11616.73044,E,0.005,,111217,,,D*6B
$GNRMC,190738.00,A,3947.62266,N,11616.73043,E,0.009,,111217,,,D*6E
$GNRMC,190739.00,A,3947.62266,N,11616.73042,E,0.010,,111217,,,D*66
$GNRMC,190740.00,A,3947.62266,N,11616.73042,E,0.016,,111217,,,D*6E
$GNRMC,190741.00,A,3947.62267,N,11616.73042,E,0.011,,111217,,,D*69
$GNRMC,190742.00,A,3947.62268,N,11616.73043,E,0.004,,111217,,,D*60
$GNRMC,190743.00,A,3947.62269,N,11616.73044,E,0.009,,111217,,,D*6A
$GNRMC,190744.00,A,3947.62270,N,11616.73044,E,0.018,,111217,,,D*65
$GNRMC,190745.00,A,3947.62271,N,11616.73044,E,0.015,,111217,,,D*68
$GNRMC,190746.00,A,3947.62273,N,11616.73044,E,0.007,,111217,,,D*6A
$GNRMC,190747.00,A,3947.62274,N,11616.73043,E,0.010,,111217,,,D*6D
$GNRMC,190748.00,A,3947.62275,N,11616.73042,E,0.010,,111217,,,D*62
$GNRMC,190749.00,A,3947.62276,N,11616.73041,E,0.006,,111217,,,D*64
$GNRMC,190750.00,A,3947.62277,N,11616.73040,E,0.011,,111217,,,D*6A
$GNRMC,190751.00,A,3947.62277,N,11616.73038,E,0.008,,111217,,,D*6C
$GNRMC,190752.00,A,3947.62278,N,11616.73037,E,0.003,,111217,,,D*64
$GNRMC,190753.00,A,3947.62278,N,11616.73035,E,0.010,,111217,,,D*65
$GNRMC,190754.00,A,3947.62278,N,11616.73034,E,0.006,,111217,,,D*64
$GNRMC,190755.00,A,3947.62279,N,11616.73033,E,0.003,,111217,,,D*66
$GNRMC,190756.00,A,3947.62279,N,11616.73032,E,0.008,,111217,,,D*6F
$GNRMC,190757.00,A,3947.62279,N,11616.73031,E,0.012,,111217,,,D*66
$GNRMC,190758.00,A,3947.62279,N,11616.73031,E,0.007,,111217,,,D*6D
$GNRMC,190759.00,A,3947.62279,N,11616.73030,E,0.007,,111217,,,D*6D
$GNRMC,190800.00,A,3947.62278,N,11616.73029,E,0.014,,111217,,,D*65
$GNRMC,190801.00,A,3947.62278,N,11616.73029,E,0.017,,111217,,,D*67
$GNRMC,190802.00,A,3947.62278,N,11616.73028,E,0.012,,111217,,,D*60
$GNRMC,190803.00,A,3947.62277,N,11616.73028,E,0.007,,111217,,,D*6A
$GNRMC,190804.00,A,3947.62277,N,11616.73028,E,0.009,,111217,,,D*63
$GNRMC,190805.00,A,3947.62277,N,11616.73028,E,0.007,,111217,,,D*6C
$GNRMC,190806.00,A,3947.62276,N,11616.73028,E,0.009,,111217,,,D*60
$GNRMC,190807.00,A,3947.62275,N,11616.73028,E,0.021,,111217,,,D*68
$GNRMC,190808.00,A,3947.62274,N,11616.73028,E,0.012,,111217,,,D*66
$GNRMC,190809.00,A,3947.62273,N,11616.73029,E,0.007,,111217,,,D*65
$GNRMC,190810.00,A,3947.62272,N,11616.73029,E,0.009,,111217,,,D*62
$GNRMC,190811.00,A,3947.62271,N,11616.73030,E,0.005,,111217,,,D*64
$GNRMC,190812.00,A,3947.62270,N,11616.73030,E,0.008,,111217,,,D*6B
$GNRMC,190813.00,A,3947.62269,N,11616.73031,E,0.004,,111217,,,D*6F
$GNRMC,190814.00,A,3947.62269,N,11616.73033,E,0.005,,111217,,,D*6B
$GNRMC,190815.00,A,3947.62269,N,11616.73034,E,0.012,,111217,,,D*6B
$GNRMC,190816.00,A,3947.62268,N,11616.73036,E,0.015,,111217,,,D*6C
$GNRMC,190817.00,A,3947.62267,N,11616.73037,E,0.008,,111217,,,D*6F
$GNRMC,190818.00,A,3947.62266,N,11616.73038,E,0.007,,111217,,,D*61
$GNRMC,190819.00,A,3947.62266,N,11616.73040,E,0.001,,111217,,,D*69
$GNRMC,190820.00,A,3947.62266,N,11616.73041,E,0.005,,111217,,,D*66
$GNRMC,190821.00,A,3947.62265,N,11616.73043,E,0.003,,111217,,,D*60
$GNRMC,190822.00,A,3947.62266,N,11616.73045,E,0.015,,111217,,,D*61
$GNRMC,190823.00,A,3947.62267,N,11616.73047,E,0.014,,111217,,,D*62
$GNRMC,190824.00,A,3947.62268,N,11616.73049,E,0.008,,111217,,,D*69
$GNRMC,190825.00,A,3947.62269,N,11616.73051,E,0.007,,111217,,,D*6F
$GNRMC,190826.00,A,3947.62271,N,11616.73053,E,0.003,,111217,,,D*63
$GNRMC,190827.00,A,3947.62272,N,11616.73055,E,0.007,,111217,,,D*63
$GNRMC,190828.00,A,3947.62275,N,11616.73058,E,0.003,,111217,,,D*62
$GNRMC,190829.00,A,3947.62277,N,11616.73061,E,0.010,,111217,,,D*69
$GNRMC,190830.00,A,3947.62280,N,11616.73063,E,0.008,,111217,,,D*62
$GNRMC,190831.00,A,3947.62281,N,11616.73064,E,0.003,,111217,,,D*6E
$GNRMC,190832.00,A,3947.62284,N,11616.73066,E,0.012,,111217,,,D*6A
$GNRMC,190833.00,A,3947.62286,N,11616.73066,E,0.013,,111217,,,D*68
$GNRMC,190834.00,A,3947.62289,N,11616.73067,E,0.011,,111217,,,D*63
$GNRMC,190835.00,A,3947.62291,N,11616.73067,E,0.009,,111217,,,D*62
$GNRMC,190836.00,A,3947.62294,N,11616.73067,E,0.004,,111217,,,D*69
$GNRMC,190837.00,A,3947.62296,N,11616.73067,E,0.006,,111217,,,D*68
$GNRMC,190838.00,A,3947.62298,N,11616.73067,E,0.002,,111217,,,D*6D
$GNRMC,190839.00,A,3947.62300,N,11616.73066,E,0.007,,111217,,,D*68
$GNRMC,190840.00,A,3947.62302,N,11616.73066,E,0.005,,111217,,,D*66
$GNRMC,190841.00,A,3947.62303,N,11616.73065,E,0.015,,111217,,,D*64
$GNRMC,190842.00,A,3947.62305,N,11616.73063,E,0.022,,111217,,,D*63
$GNRMC,190843.00,A,3947.62307,N,11616.73061,E,0.013,,111217,,,D*60
$GNRMC,190844.00,A,3947.62309,N,11616.73060,E,0.005,,111217,,,D*6F
$GNRMC,190845.00,A,3947.62311,N,11616.73060,E,0.006,,111217,,,D*64
$GNRMC,190846.00,A,3947.62313,N,11616.73059,E,0.009,,111217,,,D*60
$GNRMC,190847.00,A,3947.62315,N,11616.73058,E,0.003,,111217,,,D*6C
$GNRMC,190848.00,A,3947.62318,N,11616.73059,E,0.010,,111217,,,D*6D
$GNRMC,190849.00,A,3947.62320,N,11616.73059,E,0.004,,111217,,,D*62
$GNRMC,190850.00,A,3947.62322,N,11616.73060,E,0.005,,111217,,,D*63
$GNRMC,190851.00,A,3947.62325,N,11616.73061,E,0.004,,111217,,,D*65
$GNRMC,190852.00,A,3947.62327,N,11616.73062,E,0.021,,111217,,,D*60
$GNRMC,190853.00,A,3947.62329,N,11616.73064,E,0.010,,111217,,,D*6B
$GNRMC,190854.00,A,3947.62332,N,11616.73065,E,0.013,,111217,,,D*64
$GNRMC,190855.00,A,3947.62334,N,11616.73067,E,0.004,,111217,,,D*67
$GNRMC,190856.00,A,3947.62336,N,11616.73069,E,0.004,,111217,,,D*68
$GNRMC,190857.00,A,3947.62339,N,11616.73070,E,0.012,,111217,,,D*69
$GNRMC,190858.00,A,3947.62341,N,11616.73071,E,0.002,,111217,,,D*69
$GNRMC,190859.00,A,3947.62343,N,11616.73072,E,0.008,,111217,,,D*63
$GNRMC,190900.00,A,3947.62346,N,11616.73073,E,0.011,,111217,,,D*62
$GNRMC,190901.00,A,3947.62349,N,11616.73073,E,0.012,,111217,,,D*6F
$GNRMC,190902.00,A,3947.62352,N,11616.73073,E,0.018,,111217,,,D*6C
$GNRMC,190903.00,A,3947.62353,N,11616.73073,E,0.007,,111217,,,D*62
$GNRMC,190904.00,A,3947.62355,N,11616.73072,E,0.010,,111217,,,D*64
$GNRMC,190905.00,A,3947.62358,N,11616.73071,E,0.007,,111217,,,D*6D
$GNRMC,190906.00,A,3947.62359,N,11616.73071,E,0.002,,111217,,,D*6A
$GNRMC,190907.00,A,3947.62360,N,11616.73071,E,0.006,,111217,,,D*65
$GNRMC,190908.00,A,3947.62362,N,11616.73070,E,0.016,,111217,,,D*68
$GNRMC,190909.00,A,3947.62363,N,11616.73070,E,0.008,,111217,,,D*67
