$GNRMC,211452.00,A,3114.54269,N,12117.69840,E,0.025,,301117,,,A*61
$GNRMC,211453.00,A,3114.54284,N,12117.69891,E,0.027,,301117,,,A*6D
$GNRMC,211454.00,A,3114.54266,N,12117.69937,E,0.007,,301117,,,A*69
$GNRMC,211455.00,A,3114.54190,N,12117.69942,E,0.052,,301117,,,A*60
$GNRMC,211456.00,A,3114.54149,N,12117.69949,E,0.005,,301117,,,A*6E
$GNRMC,211457.00,A,3114.54123,N,12117.69953,E,0.012,,301117,,,A*6E
$GNRMC,211458.00,A,3114.54103,N,12117.69956,E,0.006,,301117,,,A*63
$GNRMC,211459.00,A,3114.54088,N,12117.69959,E,0.010,,301117,,,A*68
$GNRMC,211500.00,A,3114.54077,N,12117.69958,E,0.007,,301117,,,A*62
$GNRMC,211501.00,A,3114.54065,N,12117.69956,E,0.013,,301117,,,A*6B
$GNRMC,211502.00,A,3114.54056,N,12117.69954,E,0.013,,301117,,,A*6A
$GNRMC,211503.00,A,3114.54048,N,12117.69954,E,0.005,,301117,,,A*63
$GNRMC,211504.00,A,3114.54042,N,12117.69953,E,0.008,,301117,,,A*64
$GNRMC,211505.00,A,3114.54039,N,12117.69952,E,0.003,,301117,,,A*63
$GNRMC,211506.00,A,3114.54035,N,12117.69950,E,0.003,,301117,,,A*6E
$GNRMC,211507.00,A,3114.54032,N,12117.69951,E,0.004,,301117,,,A*6E
$GNRMC,211508.00,A,3114.54030,N,12117.69952,E,0.003,,301117,,,A*67
$GNRMC,211509.00,A,3114.54027,N,12117.69954,E,0.007,,301117,,,A*62
$GNRMC,211510.00,A,3114.54022,N,12117.69956,E,0.016,,301117,,,A*6D
$GNRMC,211511.00,A,3114.54019,N,12117.69958,E,0.020,,301117,,,A*6F
$GNRMC,211512.00,A,3114.54015,N,12117.69960,E,0.007,,301117,,,A*6E
$GNRMC,211513.00,A,3114.54013,N,12117.69964,E,0.012,,301117,,,A*69
$GNRMC,211514.00,A,3114.54013,N,12117.69969,E,0.010,,301117,,,A*61
$GNRMC,211515.00,A,3114.54012,N,12117.69970,E,0.012,,301117,,,A*6B
$GNRMC,211516.00,A,3114.54010,N,12117.69967,E,0.003,,301117,,,A*6C
$GNRMC,211517.00,A,3114.54010,N,12117.69964,E,0.007,,301117,,,A*6A
$GNRMC,211518.00,A,3114.54009,N,12117.69961,E,0.007,,301117,,,A*68
$GNRMC,211519.00,A,3114.54008,N,12117.69959,E,0.003,,301117,,,A*67
$GNRMC,211520.00,A,3114.54005,N,12117.69958,E,0.007,,301117,,,A*65
$GNRMC,211521.00,A,3114.54002,N,12117.69959,E,0.010,,301117,,,A*64
$GNRMC,211522.00,A,3114.53999,N,12117.69957,E,0.004,,301117,,,A*60
$GNRMC,211523.00,A,3114.53996,N,12117.69956,E,0.027,,301117,,,A*6E
$GNRMC,211524.00,A,3114.53992,N,12117.69953,E,0.014,,301117,,,A*68
$GNRMC,211525.00,A,3114.53988,N,12117.69951,E,0.018,,301117,,,A*6C
$GNRMC,211526.00,A,3114.53984,N,12117.69948,E,0.013,,301117,,,A*60
$GNRMC,211527.00,A,3114.53979,N,12117.69945,E,0.006,,301117,,,A*6A
$GNRMC,211528.00,A,3114.53975,N,12117.69943,E,0.002,,301117,,,A*6B
$GNRMC,211529.00,A,3114.53971,N,12117.69941,E,0.004,,301117,,,A*6A
$GNRMC,211530.00,A,3114.53968,N,12117.69938,E,0.004,,301117,,,A*64
$GNRMC,211531.00,A,3114.53966,N,12117.69934,E,0.003,,301117,,,A*60
$GNRMC,211532.00,A,3114.53963,N,12117.69930,E,0.005,,301117,,,A*64
$GNRMC,211533.00,A,3114.53960,N,12117.69928,E,0.021,,301117,,,A*69
$GNRMC,211534.00,A,3114.53959,N,12117.69927,E,0.014,,301117,,,A*6D
$GNRMC,211535.00,A,3114.53957,N,12117.69925,E,0.001,,301117,,,A*64
$GNRMC,211536.00,A,3114.53956,N,12117.69923,E,0.007,,301117,,,A*66
$GNRMC,211537.00,A,3114.53954,N,12117.69922,E,0.007,,301117,,,A*64
$GNRMC,211538.00,A,3114.53953,N,12117.69920,E,0.007,,301117,,,A*6E
$GNRMC,211539.00,A,3114.53953,N,12117.69917,E,0.009,,301117,,,A*65
$GNRMC,211540.00,A,3114.53952,N,12117.69915,E,0.001,,301117,,,A*60
$GNRMC,211541.00,A,3114.53952,N,12117.69914,E,0.006,,301117,,,A*67
$GNRMC,211542.00,A,3114.53953,N,12117.69912,E,0.010,,301117,,,A*64
$GNRMC,211543.00,A,3114.53953,N,12117.69911,E,0.015,,301117,,,A*63
$GNRMC,211544.00,A,3114.53953,N,12117.69910,E,0.020,,301117,,,A*63
$GNRMC,211545.00,A,3114.53954,N,12117.69908,E,0.032,,301117,,,A*6F
$GNRMC,211546.00,A,3114.53954,N,12117.69907,E,0.009,,301117,,,A*6B
$GNRMC,211547.00,A,3114.53955,N,12117.69905,E,0.003,,301117,,,A*63
$GNRMC,211548.00,A,3114.53955,N,12117.69904,E,0.008,,301117,,,A*66
$GNRMC,211549.00,A,3114.53957,N,12117.69902,E,0.001,,301117,,,A*6A
$GNRMC,211550.00,A,3114.53958,N,12117.69900,E,0.015,,301117,,,A*6A
$GNRMC,211551.00,A,3114.53960,N,12117.69899,E,0.003,,301117,,,A*66
$GNRMC,211552.00,A,3114.53962,N,12117.69898,E,0.010,,301117,,,A*64
$GNRMC,211553.00,A,3114.53965,N,12117.69898,E,0.009,,301117,,,A*6A
$GNRMC,211554.00,A,3114.53969,N,12117.69898,E,0.028,,301117,,,A*62
$GNRMC,211555.00,A,3114.53971,N,12117.69898,E,0.026,,301117,,,A*64
$GNRMC,211556.00,A,3114.53974,N,12117.69898,E,0.020,,301117,,,A*64
$GNRMC,211557.00,A,3114.53976,N,12117.69897,E,0.008,,301117,,,A*62
$GNRMC,211558.00,A,3114.53980,N,12117.69897,E,0.017,,301117,,,A*6A
$GNRMC,211559.00,A,3114.53983,N,12117.69896,E,0.006,,301117,,,A*69
$GNRMC,211600.00,A,3114.53985,N,12117.69894,E,0.011,,301117,,,A*64
$GNRMC,211601.00,A,3114.53987,N,12117.69893,E,0.004,,301117,,,A*64
$GNRMC,211602.00,A,3114.53988,N,12117.69891,E,0.007,,301117,,,A*69
$GNRMC,211603.00,A,3114.53988,N,12117.69891,E,0.008,,301117,,,A*67
$GNRMC,211604.00,A,3114.53990,N,12117.69890,E,0.020,,301117,,,A*62
$GNRMC,211605.00,A,3114.53992,N,12117.69888,E,0.019,,301117,,,A*62
$GNRMC,211606.00,A,3114.53994,N,12117.69886,E,0.010,,301117,,,A*60
$GNRMC,211607.00,A,3114.53995,N,12117.69884,E,0.009,,301117,,,A*6A
$GNRMC,211608.00,A,3114.53996,N,12117.69884,E,0.005,,301117,,,A*6A
$GNRMC,211609.00,A,3114.53998,N,12117.69883,E,0.012,,301117,,,A*64
$GNRMC,211610.00,A,3114.53999,N,12117.69881,E,0.008,,301117,,,A*64
$GNRMC,211611.00,A,3114.54000,N,12117.69880,E,0.009,,301117,,,A*6B
$GNRMC,211612.00,A,3114.54001,N,12117.69878,E,0.014,,301117,,,A*62
$GNRMC,211613.00,A,3114.54002,N,12117.69875,E,0.007,,301117,,,A*6F
$GNRMC,211614.00,A,3114.54003,N,12117.69874,E,0.017,,301117,,,A*69
$GNRMC,211615.00,A,3114.54004,N,12117.69874,E,0.005,,301117,,,A*6C
$GNRMC,211616.00,A,3114.54004,N,12117.69874,E,0.003,,301117,,,A*69
$GNRMC,211617.00,A,3114.54004,N,12117.69875,E,0.007,,301117,,,A*6D
$GNRMC,211618.00,A,3114.54004,N,12117.69876,E,0.012,,301117,,,A*65
$GNRMC,211619.00,A,3114.54004,N,12117.69878,E,0.002,,301117,,,A*6B
$GNRMC,211620.00,A,3114.54005,N,12117.69880,E,0.013,,301117,,,A*67
$GNRMC,211621.00,A,3114.54006,N,12117.69881,E,0.014,,301117,,,A*63
$GNRMC,211622.00,A,3114.54006,N,12117.69883,E,0.009,,301117,,,A*6E
$GNRMC,211623.00,A,3114.54006,N,12117.69885,E,0.002,,301117,,,A*62
$GNRMC,211624.00,A,3114.54006,N,12117.69886,E,0.015,,301117,,,A*60
$GNRMC,211625.00,A,3114.54006,N,12117.69886,E,0.006,,301117,,,A*63
$GNRMC,211626.00,A,3114.54006,N,12117.69885,E,0.009,,301117,,,A*6C
$GNRMC,211627.00,A,3114.54007,N,12117.69883,E,0.006,,301117,,,A*65
$GNRMC,211628.00,A,3114.54008,N,12117.69880,E,0.006,,301117,,,A*66
$GNRMC,211629.00,A,3114.54009,N,12117.69878,E,0.013,,301117,,,A*65
$GNRMC,211630.00,A,3114.54011,N,12117.69875,E,0.005,,301117,,,A*6E
$GNRMC,211631.00,A,3114.54012,N,12117.69873,E,0.003,,301117,,,A*6C
$GNRMC,211632.00,A,3114.54013,N,12117.69870,E,0.012,,301117,,,A*6D
$GNRMC,211633.00,A,3114.54015,N,12117.69868,E,0.006,,301117,,,A*66
$GNRMC,211634.00,A,3114.54017,N,12117.69866,E,0.028,,301117,,,A*61
$GNRMC,211635.00,A,3114.54018,N,12117.69865,E,0.012,,301117,,,A*65
$GNRMC,211636.00,A,3114.54019,N,12117.69864,E,0.014,,301117,,,A*60
$GNRMC,211637.00,A,3114.54021,N,12117.69863,E,0.010,,301117,,,A*69
$GNRMC,211638.00,A,3114.54023,N,12117.69862,E,0.003,,301117,,,A*67
$GNRMC,211639.00,A,3114.54027,N,12117.69860,E,0.010,,301117,,,A*62
$GNRMC,211640.00,A,3114.54031,N,12117.69858,E,0.014,,301117,,,A*64
$GNRMC,211641.00,A,3114.54034,N,12117.69855,E,0.019,,301117,,,A*60
$GNRMC,211642.00,A,3114.54038,N,12117.69852,E,0.013,,301117,,,A*62
$GNRMC,211643.00,A,3114.54040,N,12117.69849,E,0.002,,301117,,,A*66
$GNRMC,211644.00,A,3114.54043,N,12117.69847,E,0.021,,301117,,,A*6D
$GNRMC,211645.00,A,3114.54045,N,12117.69844,E,0.016,,301117,,,A*6D
$GNRMC,211646.00,A,3114.54047,N,12117.69843,E,0.003,,301117,,,A*6F
$GNRMC,211647.00,A,3114.54048,N,12117.69842,E,0.005,,301117,,,A*66
$GNRMC,211648.00,A,3114.54049,N,12117.69840,E,0.010,,301117,,,A*6E
$GNRMC,211649.00,A,3114.54051,N,12117.69839,E,0.010,,301117,,,A*68
$GNRMC,211650.00,A,3114.54054,N,12117.69835,E,0.011,,301117,,,A*68
$GNRMC,211651.00,A,3114.54057,N,12117.69831,E,0.009,,301117,,,A*67
$GNRMC,211652.00,A,3114.54060,N,12117.69826,E,0.015,,301117,,,A*6B
$GNRMC,211653.00,A,3114.54061,N,12117.69824,E,0.005,,301117,,,A*68
$GNRMC,211654.00,A,3114.54063,N,12117.69820,E,0.017,,301117,,,A*6A
$GNRMC,211655.00,A,3114.54063,N,12117.69819,E,0.005,,301117,,,A*62
$GNRMC,211656.00,A,3114.54063,N,12117.69817,E,0.018,,301117,,,A*63
$GNRMC,211657.00,A,3114.54064,N,12117.69814,E,0.002,,301117,,,A*6D
$GNRMC,211658.00,A,3114.54063,N,12117.69812,E,0.005,,301117,,,A*64
$GNRMC,211659.00,A,3114.54062,N,12117.69810,E,0.006,,301117,,,A*65
$GNRMC,211700.00,A,3114.54061,N,12117.69808,E,0.004,,301117,,,A*60
$GNRMC,211701.00,A,3114.54059,N,12117.69807,E,0.001,,301117,,,A*60
$GNRMC,211702.00,A,3114.54058,N,12117.69805,E,0.021,,301117,,,A*62
$GNRMC,211703.00,A,3114.54057,N,12117.69805,E,0.007,,301117,,,A*68
$GNRMC,211704.00,A,3114.54056,N,12117.69804,E,0.025,,301117,,,A*6F
$GNRMC,211705.00,A,3114.54055,N,12117.69802,E,0.017,,301117,,,A*6A
$GNRMC,211706.00,A,3114.54054,N,12117.69800,E,0.044,,301117,,,D*69
$GNRMC,211707.00,A,3114.54052,N,12117.69799,E,0.013,,301117,,,D*63
$GNRMC,211708.00,A,3114.54051,N,12117.69799,E,0.014,,301117,,,D*68
$GNRMC,211709.00,A,3114.54048,N,12117.69799,E,0.012,,301117,,,D*67
$GNRMC,211710.00,A,3114.54046,N,12117.69799,E,0.013,,301117,,,D*60
$GNRMC,211711.00,A,3114.54044,N,12117.69799,E,0.014,,301117,,,D*64
$GNRMC,211712.00,A,3114.54041,N,12117.69799,E,0.011,,301117,,,D*67
$GNRMC,211713.00,A,3114.54037,N,12117.69798,E,0.009,,301117,,,D*6F
$GNRMC,211714.00,A,3114.54033,N,12117.69798,E,0.010,,301117,,,D*64
$GNRMC,211715.00,A,3114.54030,N,12117.69797,E,0.019,,301117,,,D*60
$GNRMC,211716.00,A,3114.54026,N,12117.69795,E,0.005,,301117,,,D*6B
$GNRMC,211717.00,A,3114.54023,N,12117.69793,E,0.002,,301117,,,D*6E
$GNRMC,211718.00,A,3114.54019,N,12117.69790,E,0.012,,301117,,,D*6A
$GNRMC,211719.00,A,3114.54016,N,12117.69787,E,0.008,,301117,,,D*69
$GNRMC,211720.00,A,3114.54014,N,12117.69784,E,0.007,,301117,,,D*6D
$GNRMC,211721.00,A,3114.54011,N,12117.69782,E,0.007,,301117,,,D*6F
$GNRMC,211722.00,A,3114.54009,N,12117.69779,E,0.014,,301117,,,D*63
$GNRMC,211723.00,A,3114.54006,N,12117.69777,E,0.008,,301117,,,D*6E
$GNRMC,211724.00,A,3114.54002,N,12117.69772,E,0.020,,301117,,,D*62
$GNRMC,211725.00,A,3114.53999,N,12117.69769,E,0.010,,301117,,,D*66
$GNRMC,211726.00,A,3114.53997,N,12117.69764,E,0.015,,301117,,,D*63
$GNRMC,211727.00,A,3114.53993,N,12117.69762,E,0.004,,301117,,,D*60
$GNRMC,211728.00,A,3114.53988,N,12117.69760,E,0.005,,301117,,,D*66
$GNRMC,211729.00,A,3114.53983,N,12117.69758,E,0.018,,301117,,,D*6B
$GNRMC,211730.00,A,3114.53978,N,12117.69756,E,0.017,,301117,,,D*66
$GNRMC,211731.00,A,3114.53975,N,12117.69755,E,0.009,,301117,,,D*66
$GNRMC,211732.00,A,3114.53971,N,12117.69754,E,0.009,,301117,,,D*60
$GNRMC,211733.00,A,3114.53967,N,12117.69755,E,0.007,,301117,,,D*69
$GNRMC,211734.00,A,3114.53963,N,12117.69758,E,0.013,,301117,,,D*62
$GNRMC,211735.00,A,3114.53959,N,12117.69760,E,0.020,,301117,,,D*61
$GNRMC,211736.00,A,3114.53955,N,12117.69763,E,0.013,,301117,,,D*6D
$GNRMC,211737.00,A,3114.53951,N,12117.69766,E,0.008,,301117,,,D*67
$GNRMC,211738.00,A,3114.53948,N,12117.69768,E,0.005,,301117,,,D*63
$GNRMC,211739.00,A,3114.53945,N,12117.69770,E,0.006,,301117,,,D*65
$GNRMC,211740.00,A,3114.53943,N,12117.69771,E,0.007,,301117,,,D*6D
$GNRMC,211741.00,A,3114.53941,N,12117.69773,E,0.004,,301117,,,D*6F
$GNRMC,211742.00,A,3114.53939,N,12117.69774,E,0.015,,301117,,,D*64
$GNRMC,211743.00,A,3114.53939,N,12117.69774,E,0.018,,301117,,,D*68
$GNRMC,211744.00,A,3114.53937,N,12117.69774,E,0.014,,301117,,,D*6D
$GNRMC,211745.00,A,3114.53936,N,12117.69774,E,0.007,,301117,,,D*6F
$GNRMC,211746.00,A,3114.53935,N,12117.69775,E,0.005,,301117,,,D*6C
$GNRMC,211747.00,A,3114.53934,N,12117.69777,E,0.012,,301117,,,D*68
$GNRMC,211748.00,A,3114.53934,N,12117.69778,E,0.006,,301117,,,D*6D
$GNRMC,211749.00,A,3114.53935,N,12117.69779,E,0.008,,301117,,,D*62
$GNRMC,211750.00,A,3114.53935,N,12117.69780,E,0.003,,301117,,,D*67
$GNRMC,211751.00,A,3114.53937,N,12117.69781,E,0.011,,301117,,,D*66
$GNRMC,211752.00,A,3114.53939,N,12117.69782,E,0.017,,301117,,,D*6E
$GNRMC,211753.00,A,3114.53940,N,12117.69782,E,0.007,,301117,,,D*60
$GNRMC,211754.00,A,3114.53941,N,12117.69783,E,0.008,,301117,,,D*68
$GNRMC,211755.00,A,3114.53943,N,12117.69783,E,0.010,,301117,,,D*62
$GNRMC,211756.00,A,3114.53945,N,12117.69783,E,0.007,,301117,,,D*61
$GNRMC,211757.00,A,3114.53946,N,12117.69783,E,0.008,,301117,,,D*6C
$GNRMC,211758.00,A,3114.53949,N,12117.69783,E,0.008,,301117,,,D*6C
$GNRMC,211759.00,A,3114.53951,N,12117.69784,E,0.011,,301117,,,D*6B
$GNRMC,211800.00,A,3114.53954,N,12117.69784,E,0.014,,301117,,,D*68
$GNRMC,211801.00,A,3114.53957,N,12117.69785,E,0.020,,301117,,,D*6C
$GNRMC,211802.00,A,3114.53960,N,12117.69786,E,0.019,,301117,,,D*62
$GNRMC,211803.00,A,3114.53963,N,12117.69789,E,0.011,,301117,,,D*67
$GNRMC,211804.00,A,3114.53964,N,12117.69792,E,0.029,,301117,,,D*66
$GNRMC,211805.00,A,3114.53966,N,12117.69794,E,0.013,,301117,,,D*6A
$GNRMC,211806.00,A,3114.53968,N,12117.69797,E,0.012,,301117,,,D*65
$GNRMC,211807.00,A,3114.53969,N,12117.69800,E,0.008,,301117,,,D*6F
$GNRMC,211808.00,A,3114.53971,N,12117.69802,E,0.002,,301117,,,D*61
$GNRMC,211809.00,A,3114.53973,N,12117.69805,E,0.004,,301117,,,D*63
$GNRMC,211810.00,A,3114.53973,N,12117.69811,E,0.014,,301117,,,D*6F
$GNRMC,211811.00,A,3114.53974,N,12117.69816,E,0.005,,301117,,,D*6E
$GNRMC,211812.00,A,3114.53974,N,12117.69822,E,0.014,,301117,,,D*6A
$GNRMC,211813.00,A,3114.53971,N,12117.69827,E,0.015,,301117,,,D*6A
$GNRMC,211814.00,A,3114.53971,N,12117.69833,E,0.005,,301117,,,D*69
$GNRMC,211815.00,A,3114.53970,N,12117.69838,E,0.004,,301117,,,D*63
$GNRMC,211816.00,A,3114.53971,N,12117.69843,E,0.004,,301117,,,D*6D
$GNRMC,211817.00,A,3114.53971,N,12117.69847,E,0.014,,301117,,,D*69
$GNRMC,211818.00,A,3114.53971,N,12117.69850,E,0.005,,301117,,,D*60
$GNRMC,211819.00,A,3114.53971,N,12117.69853,E,0.011,,301117,,,D*67
$GNRMC,211820.00,A,3114.53969,N,12117.69857,E,0.006,,301117,,,D*66
$GNRMC,211821.00,A,3114.53968,N,12117.69860,E,0.008,,301117,,,D*6C
$GNRMC,211822.00,A,3114.53967,N,12117.69862,E,0.012,,301117,,,D*69
$GNRMC,211823.00,A,3114.53967,N,12117.69864,E,0.003,,301117,,,D*6E
$GNRMC,211824.00,A,3114.53967,N,12117.69866,E,0.009,,301117,,,D*61
$GNRMC,211825.00,A,3114.53967,N,12117.69868,E,0.004,,301117,,,D*63
$GNRMC,211826.00,A,3114.53968,N,12117.69868,E,0.005,,301117,,,D*6E
$GNRMC,211827.00,A,3114.53968,N,12117.69868,E,0.010,,301117,,,D*6B
$GNRMC,211828.00,A,3114.53968,N,12117.69868,E,0.015,,301117,,,D*61
$GNRMC,211829.00,A,3114.53968,N,12117.69867,E,0.005,,301117,,,D*6E
$GNRMC,211830.00,A,3114.53970,N,12117.69865,E,0.052,,301117,,,A*6A
$GNRMC,211831.00,A,3114.53973,N,12117.69863,E,0.007,,301117,,,A*6E
$GNRMC,211832.00,A,3114.53978,N,12117.69859,E,0.011,,301117,,,A*68
$GNRMC,211833.00,A,3114.53983,N,12117.69855,E,0.004,,301117,,,A*65
$GNRMC,211834.00,A,3114.53987,N,12117.69852,E,0.023,,301117,,,A*64
$GNRMC,211835.00,A,3114.53991,N,12117.69849,E,0.020,,301117,,,A*6B
$GNRMC,211836.00,A,3114.53994,N,12117.69847,E,0.009,,301117,,,A*68
$GNRMC,211837.00,A,3114.53997,N,12117.69846,E,0.015,,301117,,,A*66
$GNRMC,211838.00,A,3114.54000,N,12117.69844,E,0.008,,301117,,,A*67
$GNRMC,211839.00,A,3114.54003,N,12117.69843,E,0.016,,301117,,,A*6D
$GNRMC,211840.00,A,3114.54005,N,12117.69841,E,0.007,,301117,,,A*67
$GNRMC,211841.00,A,3114.54007,N,12117.69838,E,0.011,,301117,,,A*6D
$GNRMC,211842.00,A,3114.54010,N,12117.69835,E,0.008,,301117,,,A*6D
$GNRMC,211843.00,A,3114.54012,N,12117.69831,E,0.006,,301117,,,A*64
$GNRMC,211844.00,A,3114.54014,N,12117.69828,E,0.006,,301117,,,A*6D
$GNRMC,211845.00,A,3114.54016,N,12117.69825,E,0.014,,301117,,,A*60
$GNRMC,211846.00,A,3114.54019,N,12117.69821,E,0.023,,301117,,,A*6C
$GNRMC,211847.00,A,3114.54022,N,12117.69816,E,0.019,,301117,,,A*68
$GNRMC,211848.00,A,3114.54025,N,12117.69812,E,0.013,,301117,,,A*6E
$GNRMC,211849.00,A,3114.54029,N,12117.69806,E,0.018,,301117,,,A*6D
$GNRMC,211850.00,A,3114.54032,N,12117.69802,E,0.003,,301117,,,A*61
$GNRMC,211851.00,A,3114.54034,N,12117.69799,E,0.020,,301117,,,A*6A
$GNRMC,211852.00,A,3114.54035,N,12117.69795,E,0.009,,301117,,,A*6F
$GNRMC,211853.00,A,3114.54035,N,12117.69792,E,0.014,,301117,,,A*65
$GNRMC,211854.00,A,3114.54034,N,12117.69791,E,0.009,,301117,,,A*6C
$GNRMC,211855.00,A,3114.54032,N,12117.69791,E,0.014,,301117,,,A*67
$GNRMC,211856.00,A,3114.54030,N,12117.69790,E,0.008,,301117,,,A*6A
$GNRMC,211857.00,A,3114.54028,N,12117.69788,E,0.011,,301117,,,D*66
$GNRMC,211858.00,A,3114.54026,N,12117.69787,E,0.011,,301117,,,D*68
$GNRMC,211859.00,A,3114.54024,N,12117.69785,E,0.008,,301117,,,D*61
$GNRMC,211900.00,A,3114.54021,N,12117.69784,E,0.010,,301117,,,D*61
$GNRMC,211901.00,A,3114.54019,N,12117.69782,E,0.009,,301117,,,D*65
$GNRMC,211902.00,A,3114.54018,N,12117.69781,E,0.010,,301117,,,D*6C
$GNRMC,211903.00,A,3114.54016,N,12117.69780,E,0.009,,301117,,,D*6A
$GNRMC,211904.00,A,3114.54016,N,12117.69778,E,0.020,,301117,,,D*61
$GNRMC,211905.00,A,3114.54015,N,12117.69776,E,0.012,,301117,,,D*6C
$GNRMC,211906.00,A,3114.54015,N,12117.69774,E,0.004,,301117,,,D*6A
$GNRMC,211907.00,A,3114.54015,N,12117.69772,E,0.016,,301117,,,D*6E
$GNRMC,211908.00,A,3114.54015,N,12117.69769,E,0.020,,301117,,,D*6E
$GNRMC,211909.00,A,3114.54015,N,12117.69766,E,0.015,,301117,,,D*66
$GNRMC,211910.00,A,3114.54014,N,12117.69764,E,0.017,,301117,,,D*6F
$GNRMC,211911.00,A,3114.54014,N,12117.69762,E,0.014,,301117,,,D*6B
$GNRMC,211912.00,A,3114.54013,N,12117.69760,E,0.002,,301117,,,D*6A
$GNRMC,211913.00,A,3114.54012,N,12117.69759,E,0.010,,301117,,,D*63
$GNRMC,211914.00,A,3114.54011,N,12117.69759,E,0.012,,301117,,,D*65
$GNRMC,211915.00,A,3114.54009,N,12117.69761,E,0.006,,301117,,,D*63
$GNRMC,211916.00,A,3114.54007,N,12117.69762,E,0.013,,301117,,,D*69
$GNRMC,211917.00,A,3114.54006,N,12117.69764,E,0.018,,301117,,,D*64
$GNRMC,211918.00,A,3114.54006,N,12117.69765,E,0.013,,301117,,,D*61
$GNRMC,211919.00,A,3114.54005,N,12117.69767,E,0.000,,301117,,,D*63
$GNRMC,211920.00,A,3114.54004,N,12117.69769,E,0.004,,301117,,,D*62
$GNRMC,211921.00,A,3114.54003,N,12117.69771,E,0.010,,301117,,,D*68
$GNRMC,211922.00,A,3114.54003,N,12117.69774,E,0.021,,301117,,,D*6C
$GNRMC,211923.00,A,3114.54003,N,12117.69776,E,0.006,,301117,,,D*6A
$GNRMC,211924.00,A,3114.54004,N,12117.69779,E,0.020,,301117,,,D*61
$GNRMC,211925.00,A,3114.54004,N,12117.69782,E,0.022,,301117,,,D*66
$GNRMC,211926.00,A,3114.54004,N,12117.69786,E,0.018,,301117,,,D*68
$GNRMC,211927.00,A,3114.54004,N,12117.69790,E,0.005,,301117,,,D*62
$GNRMC,211928.00,A,3114.54006,N,12117.69792,E,0.001,,301117,,,D*69
$GNRMC,211929.00,A,3114.54008,N,12117.69794,E,0.008,,301117,,,D*69
$GNRMC,211930.00,A,3114.54011,N,12117.69795,E,0.007,,301117,,,D*67
$GNRMC,211931.00,A,3114.54013,N,12117.69796,E,0.011,,301117,,,D*60
$GNRMC,211932.00,A,3114.54016,N,12117.69797,E,0.020,,301117,,,D*65
$GNRMC,211933.00,A,3114.54018,N,12117.69798,E,0.008,,301117,,,D*6F
$GNRMC,211934.00,A,3114.54021,N,12117.69798,E,0.011,,301117,,,D*6A
$GNRMC,211935.00,A,3114.54025,N,12117.69798,E,0.011,,301117,,,D*6F
$GNRMC,211936.00,A,3114.54027,N,12117.69798,E,0.011,,301117,,,D*6E
$GNRMC,211937.00,A,3114.54029,N,12117.69798,E,0.006,,301117,,,D*67
$GNRMC,211938.00,A,3114.54031,N,12117.69798,E,0.013,,301117,,,D*65
$GNRMC,211939.00,A,3114.54033,N,12117.69798,E,0.012,,301117,,,D*67
$GNRMC,211940.00,A,3114.54036,N,12117.69799,E,0.023,,301117,,,D*6F
$GNRMC,211941.00,A,3114.54038,N,12117.69799,E,0.011,,301117,,,D*61
$GNRMC,211942.00,A,3114.54040,N,12117.69799,E,0.018,,301117,,,D*64
$GNRMC,211943.00,A,3114.54041,N,12117.69799,E,0.002,,301117,,,D*6F
$GNRMC,211944.00,A,3114.54041,N,12117.69799,E,0.024,,301117,,,D*6C
$GNRMC,211945.00,A,3114.54042,N,12117.69800,E,0.014,,301117,,,D*62
$GNRMC,211946.00,A,3114.54041,N,12117.69802,E,0.006,,301117,,,D*63
$GNRMC,211947.00,A,3114.54040,N,12117.69804,E,0.007,,301117,,,D*64
$GNRMC,211948.00,A,3114.54040,N,12117.69806,E,0.005,,301117,,,D*6B
$GNRMC,211949.00,A,3114.54039,N,12117.69809,E,0.007,,301117,,,D*69
$GNRMC,211950.00,A,3114.54039,N,12117.69811,E,0.008,,301117,,,D*67
$GNRMC,211951.00,A,3114.54037,N,12117.69815,E,0.010,,301117,,,D*65
$GNRMC,211952.00,A,3114.54037,N,12117.69817,E,0.030,,301117,,,D*66
$GNRMC,211953.00,A,3114.54037,N,12117.69820,E,0.007,,301117,,,D*67
$GNRMC,211954.00,A,3114.54037,N,12117.69823,E,0.017,,301117,,,D*62
$GNRMC,211955.00,A,3114.54038,N,12117.69826,E,0.011,,301117,,,D*6F
$GNRMC,211956.00,A,3114.54038,N,12117.69828,E,0.013,,301117,,,D*60
$GNRMC,211957.00,A,3114.54039,N,12117.69830,E,0.012,,301117,,,D*68
$GNRMC,211958.00,A,3114.54040,N,12117.69831,E,0.009,,301117,,,D*62
$GNRMC,211959.00,A,3114.54040,N,12117.69834,E,0.017,,301117,,,D*69
$GNRMC,212000.00,A,3114.54041,N,12117.69835,E,0.012,,301117,,,D*6A
$GNRMC,212001.00,A,3114.54040,N,12117.69838,E,0.006,,301117,,,D*62
$GNRMC,212002.00,A,3114.54039,N,12117.69840,E,0.005,,301117,,,D*63
$GNRMC,212003.00,A,3114.54038,N,12117.69843,E,0.007,,301117,,,D*62
$GNRMC,212004.00,A,3114.54038,N,12117.69845,E,0.022,,301117,,,D*64
$GNRMC,212005.00,A,3114.54036,N,12117.69847,E,0.024,,301117,,,D*6F
$GNRMC,212006.00,A,3114.54035,N,12117.69849,E,0.019,,301117,,,D*6F
$GNRMC,212007.00,A,3114.54035,N,12117.69850,E,0.005,,301117,,,D*6B
$GNRMC,212008.00,A,3114.54035,N,12117.69852,E,0.008,,301117,,,D*6B
$GNRMC,212009.00,A,3114.54035,N,12117.69853,E,0.007,,301117,,,D*64
$GNRMC,212010.00,A,3114.54037,N,12117.69854,E,0.008,,301117,,,D*66
$GNRMC,212011.00,A,3114.54037,N,12117.69855,E,0.006,,301117,,,D*68
$GNRMC,212012.00,A,3114.54037,N,12117.69855,E,0.004,,301117,,,D*69
$GNRMC,212013.00,A,3114.54037,N,12117.69855,E,0.006,,301117,,,D*6A
$GNRMC,212014.00,A,3114.54036,N,12117.69854,E,0.021,,301117,,,D*68
$GNRMC,212015.00,A,3114.54034,N,12117.69854,E,0.005,,301117,,,D*6D
$GNRMC,212016.00,A,3114.54033,N,12117.69852,E,0.011,,301117,,,D*6A
$GNRMC,212017.00,A,3114.54032,N,12117.69850,E,0.007,,301117,,,D*6F
$GNRMC,212018.00,A,3114.54031,N,12117.69848,E,0.020,,301117,,,D*6F
$GNRMC,212019.00,A,3114.54029,N,12117.69846,E,0.013,,301117,,,D*69
$GNRMC,212020.00,A,3114.54027,N,12117.69844,E,0.015,,301117,,,D*69
$GNRMC,212021.00,A,3114.54025,N,12117.69842,E,0.001,,301117,,,D*69
$GNRMC,212022.00,A,3114.54021,N,12117.69839,E,0.012,,301117,,,D*60
$GNRMC,212023.00,A,3114.54019,N,12117.69836,E,0.011,,301117,,,D*66
$GNRMC,212024.00,A,3114.54017,N,12117.69833,E,0.018,,301117,,,D*63
$GNRMC,212025.00,A,3114.54016,N,12117.69830,E,0.021,,301117,,,D*6A
$GNRMC,212026.00,A,3114.54014,N,12117.69826,E,0.016,,301117,,,D*68
$GNRMC,212027.00,A,3114.54014,N,12117.69823,E,0.020,,301117,,,D*69
$GNRMC,212028.00,A,3114.54014,N,12117.69819,E,0.007,,301117,,,D*6A
$GNRMC,212029.00,A,3114.54013,N,12117.69816,E,0.014,,301117,,,D*61
$GNRMC,212030.00,A,3114.54013,N,12117.69812,E,0.007,,301117,,,D*6F
$GNRMC,212031.00,A,3114.54014,N,12117.69808,E,0.017,,301117,,,D*63
$GNRMC,212032.00,A,3114.54014,N,12117.69803,E,0.019,,301117,,,D*65
$GNRMC,212033.00,A,3114.54013,N,12117.69799,E,0.006,,301117,,,D*61
$GNRMC,212034.00,A,3114.54012,N,12117.69796,E,0.019,,301117,,,D*66
$GNRMC,212035.00,A,3114.54011,N,12117.69793,E,0.017,,301117,,,D*6F
$GNRMC,212036.00,A,3114.54010,N,12117.69790,E,0.020,,301117,,,D*6A
$GNRMC,212037.00,A,3114.54009,N,12117.69788,E,0.012,,301117,,,D*6B
$GNRMC,212038.00,A,3114.54009,N,12117.69787,E,0.010,,301117,,,D*69
$GNRMC,212039.00,A,3114.54009,N,12117.69785,E,0.013,,301117,,,D*69
$GNRMC,212040.00,A,3114.54010,N,12117.69783,E,0.008,,301117,,,D*63
$GNRMC,212041.00,A,3114.54010,N,12117.69782,E,0.010,,301117,,,D*6A
$GNRMC,212042.00,A,3114.54010,N,12117.69783,E,0.011,,301117,,,D*69
$GNRMC,212043.00,A,3114.54010,N,12117.69785,E,0.017,,301117,,,D*68
$GNRMC,212044.00,A,3114.54009,N,12117.69787,E,0.013,,301117,,,D*61
$GNRMC,212045.00,A,3114.54008,N,12117.69789,E,0.010,,301117,,,D*6C
$GNRMC,212046.00,A,3114.54008,N,12117.69791,E,0.013,,301117,,,D*65
$GNRMC,212047.00,A,3114.54008,N,12117.69792,E,0.008,,301117,,,D*6D
$GNRMC,212048.00,A,3114.54008,N,12117.69793,E,0.009,,301117,,,D*62
$GNRMC,212049.00,A,3114.54009,N,12117.69794,E,0.018,,301117,,,D*65
$GNRMC,212050.00,A,3114.54011,N,12117.69795,E,0.012,,301117,,,D*6F
$GNRMC,212051.00,A,3114.54013,N,12117.69795,E,0.012,,301117,,,D*6C
$GNRMC,212052.00,A,3114.54014,N,12117.69796,E,0.009,,301117,,,D*61
$GNRMC,212053.00,A,3114.54017,N,12117.69797,E,0.005,,301117,,,D*6E
$GNRMC,212054.00,A,3114.54019,N,12117.69798,E,0.018,,301117,,,D*64
$GNRMC,212055.00,A,3114.54019,N,12117.69800,E,0.012,,301117,,,D*61
$GNRMC,212056.00,A,3114.54020,N,12117.69803,E,0.011,,301117,,,D*68
$GNRMC,212057.00,A,3114.54020,N,12117.69804,E,0.009,,301117,,,D*67
$GNRMC,212058.00,A,3114.54021,N,12117.69804,E,0.018,,301117,,,D*69
$GNRMC,212059.00,A,3114.54022,N,12117.69804,E,0.012,,301117,,,D*61
$GNRMC,212100.00,A,3114.54024,N,12117.69804,E,0.011,,301117,,,D*69
$GNRMC,212101.00,A,3114.54024,N,12117.69806,E,0.010,,301117,,,D*6B
$GNRMC,212102.00,A,3114.54025,N,12117.69806,E,0.013,,301117,,,D*6A
$GNRMC,212103.00,A,3114.54025,N,12117.69807,E,0.011,,301117,,,D*68
$GNRMC,212104.00,A,3114.54025,N,12117.69807,E,0.017,,301117,,,D*69
$GNRMC,212105.00,A,3114.54025,N,12117.69808,E,0.011,,301117,,,D*61
$GNRMC,212106.00,A,3114.54026,N,12117.69809,E,0.006,,301117,,,D*66
$GNRMC,212107.00,A,3114.54026,N,12117.69810,E,0.010,,301117,,,D*68
$GNRMC,212108.00,A,3114.54027,N,12117.69811,E,0.011,,301117,,,D*66
$GNRMC,212109.00,A,3114.54029,N,12117.69811,E,0.017,,301117,,,D*6F
$GNRMC,212110.00,A,3114.54031,N,12117.69810,E,0.010,,301117,,,D*68
$GNRMC,212111.00,A,3114.54034,N,12117.69809,E,0.017,,301117,,,D*63
$GNRMC,212112.00,A,3114.54036,N,12117.69808,E,0.012,,301117,,,D*66
$GNRMC,212113.00,A,3114.54038,N,12117.69808,E,0.002,,301117,,,D*68
$GNRMC,212114.00,A,3114.54040,N,12117.69808,E,0.015,,301117,,,D*66
$GNRMC,212115.00,A,3114.54042,N,12117.69808,E,0.018,,301117,,,D*68
$GNRMC,212116.00,A,3114.54044,N,12117.69808,E,0.013,,301117,,,D*66
$GNRMC,212117.00,A,3114.54046,N,12117.69809,E,0.005,,301117,,,D*63
$GNRMC,212118.00,A,3114.54049,N,12117.69810,E,0.013,,301117,,,D*6C
$GNRMC,212119.00,A,3114.54051,N,12117.69811,E,0.009,,301117,,,D*6E
$GNRMC,212120.00,A,3114.54053,N,12117.69812,E,0.017,,301117,,,D*6A
$GNRMC,212121.00,A,3114.54054,N,12117.69813,E,0.014,,301117,,,D*6E
$GNRMC,212122.00,A,3114.54055,N,12117.69815,E,0.009,,301117,,,D*66
$GNRMC,212123.00,A,3114.54056,N,12117.69817,E,0.003,,301117,,,D*6C
$GNRMC,212124.00,A,3114.54056,N,12117.69818,E,0.013,,301117,,,D*65
$GNRMC,212125.00,A,3114.54057,N,12117.69820,E,0.013,,301117,,,D*6E
$GNRMC,212126.00,A,3114.54057,N,12117.69822,E,0.014,,301117,,,D*68
$GNRMC,212127.00,A,3114.54058,N,12117.69823,E,0.004,,301117,,,D*66
$GNRMC,212128.00,A,3114.54059,N,12117.69824,E,0.002,,301117,,,D*69
$GNRMC,212129.00,A,3114.54060,N,12117.69825,E,0.007,,301117,,,D*66
$GNRMC,212130.00,A,3114.54061,N,12117.69826,E,0.018,,301117,,,D*62
$GNRMC,212131.00,A,3114.54062,N,12117.69827,E,0.013,,301117,,,D*6A
$GNRMC,212132.00,A,3114.54064,N,12117.69828,E,0.009,,301117,,,D*6B
$GNRMC,212133.00,A,3114.54064,N,12117.69828,E,0.007,,301117,,,D*64
$GNRMC,212134.00,A,3114.54065,N,12117.69827,E,0.027,,301117,,,D*6F
$GNRMC,212135.00,A,3114.54066,N,12117.69826,E,0.015,,301117,,,D*6D
$GNRMC,212136.00,A,3114.54067,N,12117.69825,E,0.017,,301117,,,D*6E
$GNRMC,212137.00,A,3114.54068,N,12117.69825,E,0.006,,301117,,,D*60
$GNRMC,212138.00,A,3114.54069,N,12117.69825,E,0.012,,301117,,,D*6B
$GNRMC,212139.00,A,3114.54069,N,12117.69826,E,0.003,,301117,,,D*69
$GNRMC,212140.00,A,3114.54069,N,12117.69827,E,0.005,,301117,,,D*60
$GNRMC,212141.00,A,3114.54069,N,12117.69828,E,0.011,,301117,,,D*6B
$GNRMC,212142.00,A,3114.54069,N,12117.69829,E,0.007,,301117,,,D*6E
$GNRMC,212143.00,A,3114.54068,N,12117.69830,E,0.012,,301117,,,D*62
$GNRMC,212144.00,A,3114.54069,N,12117.69830,E,0.016,,301117,,,D*60
$GNRMC,212145.00,A,3114.54069,N,12117.69831,E,0.017,,301117,,,D*61
$GNRMC,212146.00,A,3114.54070,N,12117.69830,E,0.013,,301117,,,D*6F
$GNRMC,212147.00,A,3114.54071,N,12117.69829,E,0.011,,301117,,,D*65
$GNRMC,212148.00,A,3114.54073,N,12117.69827,E,0.011,,301117,,,D*66
$GNRMC,212149.00,A,3114.54074,N,12117.69827,E,0.009,,301117,,,D*69
$GNRMC,212150.00,A,3114.54075,N,12117.69828,E,0.008,,301117,,,D*6E
$GNRMC,212151.00,A,3114.54076,N,12117.69828,E,0.010,,301117,,,D*65
$GNRMC,212152.00,A,3114.54076,N,12117.69829,E,0.005,,301117,,,D*63
$GNRMC,212153.00,A,3114.54077,N,12117.69829,E,0.007,,301117,,,D*61
$GNRMC,212154.00,A,3114.54077,N,12117.69830,E,0.020,,301117,,,D*6B
$GNRMC,212155.00,A,3114.54077,N,12117.69831,E,0.016,,301117,,,D*6E
$GNRMC,212156.00,A,3114.54078,N,12117.69831,E,0.011,,301117,,,D*65
$GNRMC,212157.00,A,3114.54078,N,12117.69831,E,0.016,,301117,,,D*63
$GNRMC,212158.00,A,3114.54079,N,12117.69830,E,0.017,,301117,,,D*6D
$GNRMC,212159.00,A,3114.54080,N,12117.69828,E,0.016,,301117,,,D*62
$GNRMC,212200.00,A,3114.54081,N,12117.69827,E,0.015,,301117,,,D*60
$GNRMC,212201.00,A,3114.54082,N,12117.69826,E,0.011,,301117,,,D*67
$GNRMC,212202.00,A,3114.54083,N,12117.69826,E,0.013,,301117,,,D*67
$GNRMC,212203.00,A,3114.54085,N,12117.69826,E,0.005,,301117,,,D*67
$GNRMC,212204.00,A,3114.54086,N,12117.69826,E,0.011,,301117,,,D*66
$GNRMC,212205.00,A,3114.54086,N,12117.69825,E,0.028,,301117,,,D*6E
$GNRMC,212206.00,A,3114.54087,N,12117.69825,E,0.016,,301117,,,D*61
$GNRMC,212207.00,A,3114.54088,N,12117.69824,E,0.012,,301117,,,D*6A
$GNRMC,212208.00,A,3114.54088,N,12117.69825,E,0.007,,301117,,,D*60
$GNRMC,212209.00,A,3114.54089,N,12117.69824,E,0.011,,301117,,,D*66
$GNRMC,212210.00,A,3114.54090,N,12117.69824,E,0.010,,301117,,,D*67
$GNRMC,212211.00,A,3114.54091,N,12117.69824,E,0.016,,301117,,,D*61
$GNRMC,212212.00,A,3114.54091,N,12117.69824,E,0.011,,301117,,,D*65
$GNRMC,212213.00,A,3114.54091,N,12117.69824,E,0.009,,301117,,,D*6D
$GNRMC,212214.00,A,3114.54091,N,12117.69824,E,0.009,,301117,,,D*6A
$GNRMC,212215.00,A,3114.54091,N,12117.69825,E,0.015,,301117,,,D*67
$GNRMC,212216.00,A,3114.54090,N,12117.69825,E,0.015,,301117,,,D*65
$GNRMC,212217.00,A,3114.54091,N,12117.69825,E,0.013,,301117,,,D*63
$GNRMC,212218.00,A,3114.54090,N,12117.69826,E,0.015,,301117,,,D*68
$GNRMC,212219.00,A,3114.54090,N,12117.69826,E,0.014,,301117,,,D*68
$GNRMC,212220.00,A,3114.54090,N,12117.69825,E,0.011,,301117,,,D*64
$GNRMC,212221.00,A,3114.54091,N,12117.69825,E,0.011,,301117,,,D*64
$GNRMC,212222.00,A,3114.54091,N,12117.69825,E,0.013,,301117,,,D*65
$GNRMC,212223.00,A,3114.54091,N,12117.69824,E,0.002,,301117,,,D*65
$GNRMC,212224.00,A,3114.54091,N,12117.69824,E,0.025,,301117,,,D*67
$GNRMC,212225.00,A,3114.54089,N,12117.69825,E,0.017,,301117,,,D*6F
$GNRMC,212226.00,A,3114.54088,N,12117.69825,E,0.017,,301117,,,D*6D
$GNRMC,212227.00,A,3114.54087,N,12117.69825,E,0.011,,301117,,,D*65
$GNRMC,212228.00,A,3114.54087,N,12117.69825,E,0.015,,301117,,,D*6E
$GNRMC,212229.00,A,3114.54087,N,12117.69824,E,0.005,,301117,,,D*6F
$GNRMC,212230.00,A,3114.54087,N,12117.69824,E,0.007,,301117,,,D*65
$GNRMC,212231.00,A,3114.54088,N,12117.69823,E,0.006,,301117,,,D*6D
$GNRMC,212232.00,A,3114.54089,N,12117.69823,E,0.008,,301117,,,D*61
$GNRMC,212233.00,A,3114.54088,N,12117.69822,E,0.012,,301117,,,D*6B
$GNRMC,212234.00,A,3114.54088,N,12117.69821,E,0.009,,301117,,,D*65
$GNRMC,212235.00,A,3114.54088,N,12117.69821,E,0.015,,301117,,,D*69
$GNRMC,212236.00,A,3114.54087,N,12117.69821,E,0.006,,301117,,,D*67
$GNRMC,212237.00,A,3114.54088,N,12117.69821,E,0.017,,301117,,,D*69
$GNRMC,212238.00,A,3114.54092,N,12117.69821,E,0.011,,301117,,,D*6B
$GNRMC,212239.00,A,3114.54094,N,12117.69821,E,0.036,,301117,,,D*69
$GNRMC,212240.00,A,3114.54096,N,12117.69821,E,0.011,,301117,,,D*60
$GNRMC,212241.00,A,3114.54097,N,12117.69821,E,0.021,,301117,,,D*63
$GNRMC,212242.00,A,3114.54096,N,12117.69821,E,0.009,,301117,,,D*6B
$GNRMC,212243.00,A,3114.54095,N,12117.69821,E,0.004,,301117,,,D*64
$GNRMC,212244.00,A,3114.54094,N,12117.69820,E,0.013,,301117,,,D*65
$GNRMC,212245.00,A,3114.54092,N,12117.69820,E,0.015,,301117,,,D*64
$GNRMC,212246.00,A,3114.54091,N,12117.69820,E,0.015,,301117,,,D*64
$GNRMC,212247.00,A,3114.54090,N,12117.69819,E,0.010,,301117,,,D*6B
$GNRMC,212248.00,A,3114.54088,N,12117.69819,E,0.019,,301117,,,D*64
$GNRMC,212249.00,A,3114.54086,N,12117.69819,E,0.016,,301117,,,D*64
$GNRMC,212250.00,A,3114.54085,N,12117.69818,E,0.020,,301117,,,D*6B
$GNRMC,212251.00,A,3114.54085,N,12117.69817,E,0.010,,301117,,,D*66
$GNRMC,212252.00,A,3114.54085,N,12117.69816,E,0.024,,301117,,,D*63
$GNRMC,212253.00,A,3114.54085,N,12117.69815,E,0.008,,301117,,,D*6F
$GNRMC,212254.00,A,3114.54085,N,12117.69814,E,0.015,,301117,,,D*65
$GNRMC,212255.00,A,3114.54086,N,12117.69813,E,0.015,,301117,,,D*60
$GNRMC,212256.00,A,3114.54088,N,12117.69811,E,0.018,,301117,,,D*62
$GNRMC,212257.00,A,3114.54090,N,12117.69809,E,0.012,,301117,,,D*69
$GNRMC,212258.00,A,3114.54092,N,12117.69807,E,0.018,,301117,,,D*60
$GNRMC,212259.00,A,3114.54093,N,12117.69806,E,0.015,,301117,,,D*6C
$GNRMC,212300.00,A,3114.54094,N,12117.69804,E,0.011,,301117,,,D*60
$GNRMC,212301.00,A,3114.54097,N,12117.69802,E,0.010,,301117,,,D*65
$GNRMC,212302.00,A,3114.54099,N,12117.69799,E,0.022,,301117,,,D*64
$GNRMC,212303.00,A,3114.54101,N,12117.69797,E,0.010,,301117,,,D*6A
$GNRMC,212304.00,A,3114.54102,N,12117.69794,E,0.007,,301117,,,D*6B
$GNRMC,212305.00,A,3114.54103,N,12117.69791,E,0.007,,301117,,,D*6E
$GNRMC,212306.00,A,3114.54103,N,12117.69788,E,0.017,,301117,,,D*64
$GNRMC,212307.00,A,3114.54103,N,12117.69786,E,0.007,,301117,,,D*6A
$GNRMC,212308.00,A,3114.54104,N,12117.69783,E,0.009,,301117,,,D*69
$GNRMC,212309.00,A,3114.54103,N,12117.69780,E,0.028,,301117,,,D*6F
$GNRMC,212310.00,A,3114.54103,N,12117.69777,E,0.021,,301117,,,D*66
$GNRMC,212311.00,A,3114.54102,N,12117.69774,E,0.021,,301117,,,D*65
$GNRMC,212312.00,A,3114.54102,N,12117.69772,E,0.021,,301117,,,D*60
$GNRMC,212313.00,A,3114.54102,N,12117.69770,E,0.007,,301117,,,D*67
$GNRMC,212314.00,A,3114.54104,N,12117.69769,E,0.011,,301117,,,D*69
$GNRMC,212315.00,A,3114.54105,N,12117.69767,E,0.022,,301117,,,D*67
$GNRMC,212316.00,A,3114.54106,N,12117.69765,E,0.014,,301117,,,D*60
$GNRMC,212317.00,A,3114.54106,N,12117.69764,E,0.015,,301117,,,D*61
$GNRMC,212318.00,A,3114.54105,N,12117.69763,E,0.019,,301117,,,D*66
$GNRMC,212319.00,A,3114.54102,N,12117.69762,E,0.023,,301117,,,D*68
$GNRMC,212320.00,A,3114.54099,N,12117.69762,E,0.012,,301117,,,D*63
$GNRMC,212321.00,A,3114.54096,N,12117.69761,E,0.006,,301117,,,D*6B
$GNRMC,212322.00,A,3114.54092,N,12117.69760,E,0.017,,301117,,,D*6D
$GNRMC,212323.00,A,3114.54087,N,12117.69759,E,0.009,,301117,,,D*6D
$GNRMC,212324.00,A,3114.54084,N,12117.69759,E,0.013,,301117,,,D*62
$GNRMC,212325.00,A,3114.54079,N,12117.69759,E,0.034,,301117,,,D*64
$GNRMC,212326.00,A,3114.54076,N,12117.69759,E,0.022,,301117,,,D*6F
$GNRMC,212327.00,A,3114.54073,N,12117.69758,E,0.017,,301117,,,D*6C
$GNRMC,212328.00,A,3114.54070,N,12117.69757,E,0.005,,301117,,,D*6C
$GNRMC,212329.00,A,3114.54070,N,12117.69756,E,0.017,,301117,,,D*6F
$GNRMC,212330.00,A,3114.54070,N,12117.69755,E,0.010,,301117,,,D*63
$GNRMC,212331.00,A,3114.54069,N,12117.69754,E,0.007,,301117,,,D*6D
$GNRMC,212332.00,A,3114.54069,N,12117.69753,E,0.012,,301117,,,D*6D
$GNRMC,212333.00,A,3114.54069,N,12117.69752,E,0.016,,301117,,,D*69
$GNRMC,212334.00,A,3114.54068,N,12117.69750,E,0.024,,301117,,,D*6C
$GNRMC,212335.00,A,3114.54069,N,12117.69749,E,0.016,,301117,,,D*65
$GNRMC,212336.00,A,3114.54070,N,12117.69747,E,0.008,,301117,,,D*6F
$GNRMC,212337.00,A,3114.54071,N,12117.69745,E,0.008,,301117,,,D*6D
$GNRMC,212338.00,A,3114.54072,N,12117.69744,E,0.019,,301117,,,D*60
$GNRMC,212339.00,A,3114.54073,N,12117.69742,E,0.025,,301117,,,D*69
$GNRMC,212340.00,A,3114.54074,N,12117.69740,E,0.028,,301117,,,D*6F
$GNRMC,212341.00,A,3114.54075,N,12117.69738,E,0.004,,301117,,,D*6E
$GNRMC,212342.00,A,3114.54076,N,12117.69737,E,0.006,,301117,,,D*63
$GNRMC,212343.00,A,3114.54078,N,12117.69736,E,0.012,,301117,,,D*68
$GNRMC,212344.00,A,3114.54079,N,12117.69735,E,0.012,,301117,,,D*6D
$GNRMC,212345.00,A,3114.54081,N,12117.69735,E,0.021,,301117,,,D*6B
$GNRMC,212346.00,A,3114.54082,N,12117.69734,E,0.008,,301117,,,D*61
$GNRMC,212347.00,A,3114.54082,N,12117.69733,E,0.013,,301117,,,D*6D
$GNRMC,212348.00,A,3114.54082,N,12117.69732,E,0.015,,301117,,,D*65
$GNRMC,212349.00,A,3114.54081,N,12117.69732,E,0.008,,301117,,,D*6B
$GNRMC,212350.00,A,3114.54081,N,12117.69731,E,0.007,,301117,,,D*6F
$GNRMC,212351.00,A,3114.54081,N,12117.69730,E,0.013,,301117,,,D*6A
$GNRMC,212352.00,A,3114.54081,N,12117.69729,E,0.004,,301117,,,D*67
$GNRMC,212353.00,A,3114.54080,N,12117.69728,E,0.015,,301117,,,D*66
$GNRMC,212354.00,A,3114.54079,N,12117.69728,E,0.016,,301117,,,D*64
$GNRMC,212355.00,A,3114.54079,N,12117.69727,E,0.004,,301117,,,D*69
$GNRMC,212356.00,A,3114.54079,N,12117.69727,E,0.015,,301117,,,D*6A
$GNRMC,212357.00,A,3114.54080,N,12117.69726,E,0.019,,301117,,,D*60
$GNRMC,212358.00,A,3114.54081,N,12117.69724,E,0.016,,301117,,,D*63
$GNRMC,212359.00,A,3114.54081,N,12117.69723,E,0.013,,301117,,,D*60
$GNRMC,212400.00,A,3114.54082,N,12117.69722,E,0.016,,301117,,,D*6C
$GNRMC,212401.00,A,3114.54083,N,12117.69721,E,0.016,,301117,,,D*6F
$GNRMC,212402.00,A,3114.54083,N,12117.69720,E,0.011,,301117,,,D*6A
$GNRMC,212403.00,A,3114.54084,N,12117.69719,E,0.002,,301117,,,D*64
$GNRMC,212404.00,A,3114.54086,N,12117.69718,E,0.016,,301117,,,D*65
$GNRMC,212405.00,A,3114.54087,N,12117.69717,E,0.012,,301117,,,D*6E
$GNRMC,212406.00,A,3114.54089,N,12117.69716,E,0.010,,301117,,,D*60
$GNRMC,212407.00,A,3114.54089,N,12117.69715,E,0.019,,301117,,,D*6B
$GNRMC,212408.00,A,3114.54089,N,12117.69714,E,0.023,,301117,,,D*6C
$GNRMC,212409.00,A,3114.54090,N,12117.69713,E,0.009,,301117,,,D*6A
$GNRMC,212410.00,A,3114.54091,N,12117.69712,E,0.018,,301117,,,D*62
$GNRMC,212411.00,A,3114.54092,N,12117.69711,E,0.004,,301117,,,D*6E
$GNRMC,212412.00,A,3114.54093,N,12117.69711,E,0.002,,301117,,,D*6A
$GNRMC,212413.00,A,3114.54094,N,12117.69710,E,0.008,,301117,,,D*67
$GNRMC,212414.00,A,3114.54095,N,12117.69709,E,0.023,,301117,,,D*60
$GNRMC,212415.00,A,3114.54097,N,12117.69708,E,0.009,,301117,,,D*6A
$GNRMC,212416.00,A,3114.54098,N,12117.69707,E,0.019,,301117,,,D*68
$GNRMC,212417.00,A,3114.54099,N,12117.69707,E,0.004,,301117,,,D*64
$GNRMC,212418.00,A,3114.54099,N,12117.69707,E,0.002,,301117,,,D*6D
$GNRMC,212419.00,A,3114.54099,N,12117.69707,E,0.010,,301117,,,D*6F
$GNRMC,212420.00,A,3114.54099,N,12117.69707,E,0.006,,301117,,,D*62
$GNRMC,212421.00,A,3114.54099,N,12117.69707,E,0.008,,301117,,,D*6D
$GNRMC,212422.00,A,3114.54098,N,12117.69707,E,0.011,,301117,,,D*67
$GNRMC,212423.00,A,3114.54097,N,12117.69707,E,0.016,,301117,,,D*6E
$GNRMC,212424.00,A,3114.54095,N,12117.69708,E,0.013,,301117,,,D*61
$GNRMC,212425.00,A,3114.54093,N,12117.69709,E,0.010,,301117,,,D*64
$GNRMC,212426.00,A,3114.54090,N,12117.69710,E,0.004,,301117,,,D*69
$GNRMC,212427.00,A,3114.54088,N,12117.69711,E,0.013,,301117,,,D*66
$GNRMC,212428.00,A,3114.54086,N,12117.69712,E,0.006,,301117,,,D*60
$GNRMC,212429.00,A,3114.54084,N,12117.69713,E,0.018,,301117,,,D*6D
$GNRMC,212430.00,A,3114.54081,N,12117.69714,E,0.015,,301117,,,D*6A
$GNRMC,212431.00,A,3114.54080,N,12117.69714,E,0.008,,301117,,,D*66
$GNRMC,212432.00,A,3114.54077,N,12117.69715,E,0.008,,301117,,,D*6C
$GNRMC,212433.00,A,3114.54075,N,12117.69715,E,0.012,,301117,,,D*64
$GNRMC,212434.00,A,3114.54072,N,12117.69716,E,0.014,,301117,,,D*61
$GNRMC,212435.00,A,3114.54070,N,12117.69716,E,0.015,,301117,,,D*63
$GNRMC,212436.00,A,3114.54067,N,12117.69717,E,0.007,,301117,,,D*64
$GNRMC,212437.00,A,3114.54065,N,12117.69717,E,0.009,,301117,,,D*69
$GNRMC,212438.00,A,3114.54062,N,12117.69717,E,0.013,,301117,,,D*6A
$GNRMC,212439.00,A,3114.54060,N,12117.69716,E,0.009,,301117,,,D*63
$GNRMC,212440.00,A,3114.54058,N,12117.69716,E,0.006,,301117,,,D*69
$GNRMC,212441.00,A,3114.54057,N,12117.69715,E,0.017,,301117,,,D*64
$GNRMC,212442.00,A,3114.54055,N,12117.69714,E,0.015,,301117,,,D*66
$GNRMC,212443.00,A,3114.54053,N,12117.69713,E,0.009,,301117,,,D*6B
$GNRMC,212444.00,A,3114.54049,N,12117.69713,E,0.007,,301117,,,D*69
$GNRMC,212445.00,A,3114.54046,N,12117.69712,E,0.016,,301117,,,D*66
$GNRMC,212446.00,A,3114.54043,N,12117.69711,E,0.011,,301117,,,D*64
$GNRMC,212447.00,A,3114.54040,N,12117.69710,E,0.002,,301117,,,D*65
$GNRMC,212448.00,A,3114.54039,N,12117.69710,E,0.013,,301117,,,D*64
$GNRMC,212449.00,A,3114.54037,N,12117.69709,E,0.006,,301117,,,D*67
$GNRMC,212450.00,A,3114.54035,N,12117.69707,E,0.012,,301117,,,D*66
$GNRMC,212451.00,A,3114.54033,N,12117.69706,E,0.009,,301117,,,D*6A
$GNRMC,212452.00,A,3114.54031,N,12117.69704,E,0.007,,301117,,,D*67
$GNRMC,212453.00,A,3114.54030,N,12117.69702,E,0.015,,301117,,,D*62
$GNRMC,212454.00,A,3114.54028,N,12117.69700,E,0.009,,301117,,,D*63
$GNRMC,212455.00,A,3114.54027,N,12117.69699,E,0.005,,301117,,,D*60
$GNRMC,212456.00,A,3114.54027,N,12117.69697,E,0.017,,301117,,,D*6E
$GNRMC,212457.00,A,3114.54026,N,12117.69695,E,0.007,,301117,,,D*6D
$GNRMC,212458.00,A,3114.54025,N,12117.69693,E,0.019,,301117,,,D*68
$GNRMC,212459.00,A,3114.54024,N,12117.69690,E,0.022,,301117,,,D*63
$GNRMC,212500.00,A,3114.54024,N,12117.69688,E,0.017,,301117,,,D*61
$GNRMC,212501.00,A,3114.54023,N,12117.69686,E,0.007,,301117,,,D*68
$GNRMC,212502.00,A,3114.54022,N,12117.69683,E,0.018,,301117,,,D*61
$GNRMC,212503.00,A,3114.54020,N,12117.69681,E,0.011,,301117,,,D*69
$GNRMC,212504.00,A,3114.54019,N,12117.69678,E,0.011,,301117,,,D*62
$GNRMC,212505.00,A,3114.54017,N,12117.69675,E,0.003,,301117,,,D*63
$GNRMC,212506.00,A,3114.54015,N,12117.69672,E,0.004,,301117,,,D*62
$GNRMC,212507.00,A,3114.54013,N,12117.69669,E,0.016,,301117,,,D*6C
$GNRMC,212508.00,A,3114.54012,N,12117.69666,E,0.011,,301117,,,D*6A
$GNRMC,212509.00,A,3114.54010,N,12117.69664,E,0.004,,301117,,,D*6F
$GNRMC,212510.00,A,3114.54010,N,12117.69660,E,0.013,,301117,,,D*65
$GNRMC,212511.00,A,3114.54009,N,12117.69657,E,0.015,,301117,,,D*6E
$GNRMC,212512.00,A,3114.54008,N,12117.69654,E,0.013,,301117,,,D*69
$GNRMC,212513.00,A,3114.54007,N,12117.69650,E,0.016,,301117,,,D*66
$GNRMC,212514.00,A,3114.54006,N,12117.69646,E,0.016,,301117,,,D*67
$GNRMC,212515.00,A,3114.54006,N,12117.69643,E,0.008,,301117,,,D*6C
$GNRMC,212516.00,A,3114.54005,N,12117.69640,E,0.011,,301117,,,D*67
$GNRMC,212517.00,A,3114.54004,N,12117.69637,E,0.005,,301117,,,D*62
$GNRMC,212518.00,A,3114.54004,N,12117.69633,E,0.016,,301117,,,D*6B
$GNRMC,212519.00,A,3114.54005,N,12117.69631,E,0.020,,301117,,,D*6C
$GNRMC,212520.00,A,3114.54005,N,12117.69628,E,0.007,,301117,,,D*6B
$GNRMC,212521.00,A,3114.54004,N,12117.69626,E,0.018,,301117,,,D*6B
$GNRMC,212522.00,A,3114.54003,N,12117.69623,E,0.008,,301117,,,D*6B
$GNRMC,212523.00,A,3114.54003,N,12117.69621,E,0.009,,301117,,,D*69
$GNRMC,212524.00,A,3114.54003,N,12117.69620,E,0.021,,301117,,,D*65
$GNRMC,212525.00,A,3114.54003,N,12117.69618,E,0.008,,301117,,,D*64
$GNRMC,212526.00,A,3114.54003,N,12117.69616,E,0.003,,301117,,,D*62
$GNRMC,212527.00,A,3114.54003,N,12117.69615,E,0.004,,301117,,,D*67
$GNRMC,212528.00,A,3114.54003,N,12117.69613,E,0.004,,301117,,,D*6E
$GNRMC,212529.00,A,3114.54002,N,12117.69611,E,0.018,,301117,,,D*61
$GNRMC,212530.00,A,3114.54002,N,12117.69609,E,0.012,,301117,,,D*6A
$GNRMC,212531.00,A,3114.54002,N,12117.69608,E,0.006,,301117,,,D*6F
$GNRMC,212532.00,A,3114.54002,N,12117.69606,E,0.005,,301117,,,D*61
$GNRMC,212533.00,A,3114.54002,N,12117.69606,E,0.005,,301117,,,D*60
$GNRMC,212534.00,A,3114.54002,N,12117.69605,E,0.011,,301117,,,D*61
$GNRMC,212535.00,A,3114.54002,N,12117.69605,E,0.015,,301117,,,D*64
$GNRMC,212536.00,A,3114.54002,N,12117.69605,E,0.007,,301117,,,D*64
$GNRMC,212537.00,A,3114.54001,N,12117.69606,E,0.004,,301117,,,D*66
$GNRMC,212538.00,A,3114.54001,N,12117.69607,E,0.003,,301117,,,D*6F
$GNRMC,212539.00,A,3114.54001,N,12117.69609,E,0.004,,301117,,,D*67
$GNRMC,212540.00,A,3114.54000,N,12117.69610,E,0.003,,301117,,,D*67
$GNRMC,212541.00,A,3114.53999,N,12117.69611,E,0.009,,301117,,,D*63
$GNRMC,212542.00,A,3114.53998,N,12117.69612,E,0.011,,301117,,,D*6B
$GNRMC,212543.00,A,3114.53997,N,12117.69613,E,0.012,,301117,,,D*67
$GNRMC,212544.00,A,3114.53996,N,12117.69615,E,0.012,,301117,,,D*67
$GNRMC,212545.00,A,3114.53995,N,12117.69617,E,0.002,,301117,,,D*66
$GNRMC,212546.00,A,3114.53994,N,12117.69619,E,0.006,,301117,,,D*6E
$GNRMC,212547.00,A,3114.53992,N,12117.69622,E,0.005,,301117,,,D*62
$GNRMC,212548.00,A,3114.53991,N,12117.69624,E,0.010,,301117,,,D*6C
$GNRMC,212549.00,A,3114.53990,N,12117.69625,E,0.006,,301117,,,D*6A
$GNRMC,212550.00,A,3114.53988,N,12117.69627,E,0.007,,301117,,,D*68
$GNRMC,212551.00,A,3114.53987,N,12117.69629,E,0.006,,301117,,,D*69
$GNRMC,212552.00,A,3114.53985,N,12117.69632,E,0.006,,301117,,,D*62
$GNRMC,212553.00,A,3114.53983,N,12117.69634,E,0.007,,301117,,,D*62
$GNRMC,212554.00,A,3114.53982,N,12117.69637,E,0.009,,301117,,,D*69
$GNRMC,212555.00,A,3114.53981,N,12117.69639,E,0.012,,301117,,,D*6F
$GNRMC,212556.00,A,3114.53980,N,12117.69641,E,0.013,,301117,,,D*63
$GNRMC,212557.00,A,3114.53979,N,12117.69643,E,0.008,,301117,,,D*6C
$GNRMC,212558.00,A,3114.53978,N,12117.69645,E,0.005,,301117,,,D*69
$GNRMC,212559.00,A,3114.53978,N,12117.69647,E,0.000,,301117,,,D*6F
$GNRMC,212600.00,A,3114.53978,N,12117.69649,E,0.010,,301117,,,D*6F
$GNRMC,212601.00,A,3114.53977,N,12117.69650,E,0.006,,301117,,,D*6E
$GNRMC,212602.00,A,3114.53976,N,12117.69652,E,0.016,,301117,,,D*6F
$GNRMC,212603.00,A,3114.53976,N,12117.69654,E,0.014,,301117,,,D*6A
$GNRMC,212604.00,A,3114.53976,N,12117.69656,E,0.013,,301117,,,D*68
$GNRMC,212605.00,A,3114.53976,N,12117.69658,E,0.011,,301117,,,D*65
$GNRMC,212606.00,A,3114.53976,N,12117.69660,E,0.007,,301117,,,D*6A
$GNRMC,212607.00,A,3114.53976,N,12117.69662,E,0.005,,301117,,,D*6B
$GNRMC,212608.00,A,3114.53978,N,12117.69664,E,0.003,,301117,,,D*6A
$GNRMC,212609.00,A,3114.53980,N,12117.69665,E,0.011,,301117,,,D*6E
$GNRMC,212610.00,A,3114.53982,N,12117.69667,E,0.011,,301117,,,D*66
$GNRMC,212611.00,A,3114.53983,N,12117.69668,E,0.005,,301117,,,D*6C
$GNRMC,212612.00,A,3114.53984,N,12117.69669,E,0.007,,301117,,,D*6B
$GNRMC,212613.00,A,3114.53986,N,12117.69670,E,0.009,,301117,,,D*6E
$GNRMC,212614.00,A,3114.53987,N,12117.69670,E,0.007,,301117,,,D*66
$GNRMC,212615.00,A,3114.53987,N,12117.69671,E,0.013,,301117,,,D*63
$GNRMC,212616.00,A,3114.53988,N,12117.69673,E,0.005,,301117,,,D*6A
$GNRMC,212617.00,A,3114.53988,N,12117.69674,E,0.003,,301117,,,D*6A
$GNRMC,212618.00,A,3114.53988,N,12117.69675,E,0.008,,301117,,,D*6F
$GNRMC,212619.00,A,3114.53987,N,12117.69676,E,0.010,,301117,,,D*6B
$GNRMC,212620.00,A,3114.53988,N,12117.69677,E,0.007,,301117,,,D*69
$GNRMC,212621.00,A,3114.53988,N,12117.69678,E,0.010,,301117,,,D*61
$GNRMC,212622.00,A,3114.53988,N,12117.69679,E,0.018,,301117,,,D*6B
$GNRMC,212623.00,A,3114.53989,N,12117.69679,E,0.002,,301117,,,D*60
$GNRMC,212624.00,A,3114.53989,N,12117.69679,E,0.007,,301117,,,D*62
$GNRMC,212625.00,A,3114.53989,N,12117.69679,E,0.011,,301117,,,D*64
$GNRMC,212626.00,A,3114.53989,N,12117.69680,E,0.011,,301117,,,D*61
$GNRMC,212627.00,A,3114.53988,N,12117.69680,E,0.012,,301117,,,D*62
$GNRMC,212628.00,A,3114.53988,N,12117.69681,E,0.007,,301117,,,D*68
$GNRMC,212629.00,A,3114.53987,N,12117.69681,E,0.012,,301117,,,D*62
$GNRMC,212630.00,A,3114.53987,N,12117.69682,E,0.010,,301117,,,D*6B
$GNRMC,212631.00,A,3114.53987,N,12117.69682,E,0.011,,301117,,,D*6B
$GNRMC,212632.00,A,3114.53987,N,12117.69683,E,0.010,,301117,,,D*68
$GNRMC,212633.00,A,3114.53986,N,12117.69684,E,0.004,,301117,,,D*6A
$GNRMC,212634.00,A,3114.53985,N,12117.69685,E,0.009,,301117,,,D*62
$GNRMC,212635.00,A,3114.53984,N,12117.69687,E,0.009,,301117,,,D*60
$GNRMC,212636.00,A,3114.53983,N,12117.69688,E,0.003,,301117,,,D*61
$GNRMC,212637.00,A,3114.53982,N,12117.69690,E,0.006,,301117,,,D*6D
$GNRMC,212638.00,A,3114.53981,N,12117.69691,E,0.003,,301117,,,D*65
$GNRMC,212639.00,A,3114.53980,N,12117.69693,E,0.004,,301117,,,D*60
$GNRMC,212640.00,A,3114.53978,N,12117.69694,E,0.005,,301117,,,D*6F
$GNRMC,212641.00,A,3114.53977,N,12117.69696,E,0.003,,301117,,,D*65
$GNRMC,212642.00,A,3114.53977,N,12117.69698,E,0.004,,301117,,,D*6F
$GNRMC,212643.00,A,3114.53976,N,12117.69699,E,0.007,,301117,,,D*6D
$GNRMC,212644.00,A,3114.53975,N,12117.69701,E,0.006,,301117,,,D*68
$GNRMC,212645.00,A,3114.53974,N,12117.69704,E,0.000,,301117,,,D*6B
$GNRMC,212646.00,A,3114.53972,N,12117.69706,E,0.008,,301117,,,D*64
$GNRMC,212647.00,A,3114.53971,N,12117.69707,E,0.014,,301117,,,D*6A
$GNRMC,212648.00,A,3114.53970,N,12117.69708,E,0.009,,301117,,,D*67
$GNRMC,212649.00,A,3114.53969,N,12117.69710,E,0.007,,301117,,,D*69
$GNRMC,212650.00,A,3114.53968,N,12117.69712,E,0.003,,301117,,,D*66
$GNRMC,212651.00,A,3114.53967,N,12117.69713,E,0.005,,301117,,,D*6F
$GNRMC,212652.00,A,3114.53965,N,12117.69715,E,0.010,,301117,,,D*6C
$GNRMC,212653.00,A,3114.53964,N,12117.69717,E,0.009,,301117,,,D*66
$GNRMC,212654.00,A,3114.53962,N,12117.69718,E,0.012,,301117,,,D*62
$GNRMC,212655.00,A,3114.53960,N,12117.69721,E,0.017,,301117,,,D*6E
$GNRMC,212656.00,A,3114.53959,N,12117.69722,E,0.016,,301117,,,D*65
$GNRMC,212657.00,A,3114.53958,N,12117.69725,E,0.013,,301117,,,D*67
$GNRMC,212658.00,A,3114.53957,N,12117.69727,E,0.008,,301117,,,D*6F
$GNRMC,212659.00,A,3114.53957,N,12117.69729,E,0.010,,301117,,,D*69
$GNRMC,212700.00,A,3114.53956,N,12117.69731,E,0.006,,301117,,,D*6B
$GNRMC,212701.00,A,3114.53955,N,12117.69733,E,0.006,,301117,,,D*6B
$GNRMC,212702.00,A,3114.53954,N,12117.69735,E,0.007,,301117,,,D*6E
$GNRMC,212703.00,A,3114.53953,N,12117.69736,E,0.010,,301117,,,D*6D
$GNRMC,212704.00,A,3114.53953,N,12117.69736,E,0.010,,301117,,,D*6A
$GNRMC,212705.00,A,3114.53952,N,12117.69737,E,0.004,,301117,,,D*6E
$GNRMC,212706.00,A,3114.53951,N,12117.69737,E,0.005,,301117,,,D*6F
$GNRMC,212707.00,A,3114.53950,N,12117.69738,E,0.004,,301117,,,D*61
$GNRMC,212708.00,A,3114.53949,N,12117.69738,E,0.014,,301117,,,D*67
$GNRMC,212709.00,A,3114.53947,N,12117.69739,E,0.008,,301117,,,D*64
$GNRMC,212710.00,A,3114.53945,N,12117.69740,E,0.007,,301117,,,D*6F
$GNRMC,212711.00,A,3114.53944,N,12117.69740,E,0.008,,301117,,,D*60
$GNRMC,212712.00,A,3114.53943,N,12117.69741,E,0.009,,301117,,,D*64
$GNRMC,212713.00,A,3114.53943,N,12117.69740,E,0.011,,301117,,,D*6D
$GNRMC,212714.00,A,3114.53943,N,12117.69740,E,0.016,,301117,,,D*6D
$GNRMC,212715.00,A,3114.53944,N,12117.69739,E,0.006,,301117,,,D*64
$GNRMC,212716.00,A,3114.53945,N,12117.69739,E,0.024,,301117,,,D*66
$GNRMC,212717.00,A,3114.53945,N,12117.69738,E,0.007,,301117,,,D*67
$GNRMC,212718.00,A,3114.53945,N,12117.69738,E,0.008,,301117,,,D*67
$GNRMC,212719.00,A,3114.53946,N,12117.69737,E,0.010,,301117,,,D*63
$GNRMC,212720.00,A,3114.53947,N,12117.69737,E,0.008,,301117,,,D*61
$GNRMC,212721.00,A,3114.53947,N,12117.69737,E,0.010,,301117,,,D*69
$GNRMC,212722.00,A,3114.53948,N,12117.69737,E,0.015,,301117,,,D*60
$GNRMC,212723.00,A,3114.53948,N,12117.69737,E,0.010,,301117,,,D*64
$GNRMC,212724.00,A,3114.53949,N,12117.69736,E,0.007,,301117,,,D*65
$GNRMC,212725.00,A,3114.53950,N,12117.69735,E,0.011,,301117,,,D*68
$GNRMC,212726.00,A,3114.53950,N,12117.69735,E,0.003,,301117,,,D*68
$GNRMC,212727.00,A,3114.53949,N,12117.69736,E,0.010,,301117,,,D*60
$GNRMC,212728.00,A,3114.53948,N,12117.69736,E,0.011,,301117,,,D*6F
$GNRMC,212729.00,A,3114.53947,N,12117.69736,E,0.004,,301117,,,D*65
$GNRMC,212730.00,A,3114.53947,N,12117.69736,E,0.007,,301117,,,D*6E
$GNRMC,212731.00,A,3114.53946,N,12117.69736,E,0.005,,301117,,,D*6C
$GNRMC,212732.00,A,3114.53945,N,12117.69737,E,0.006,,301117,,,D*6E
$GNRMC,212733.00,A,3114.53943,N,12117.69738,E,0.006,,301117,,,D*66
$GNRMC,212734.00,A,3114.53942,N,12117.69738,E,0.012,,301117,,,D*65
$GNRMC,212735.00,A,3114.53942,N,12117.69738,E,0.010,,301117,,,D*66
$GNRMC,212736.00,A,3114.53941,N,12117.69738,E,0.007,,301117,,,D*60
$GNRMC,212737.00,A,3114.53939,N,12117.69738,E,0.005,,301117,,,D*6C
$GNRMC,212738.00,A,3114.53938,N,12117.69738,E,0.007,,301117,,,D*60
$GNRMC,212739.00,A,3114.53937,N,12117.69738,E,0.006,,301117,,,D*6F
$GNRMC,212740.00,A,3114.53936,N,12117.69739,E,0.010,,301117,,,D*66
$GNRMC,212741.00,A,3114.53935,N,12117.69739,E,0.005,,301117,,,D*60
$GNRMC,212742.00,A,3114.53935,N,12117.69739,E,0.012,,301117,,,D*65
$GNRMC,212743.00,A,3114.53934,N,12117.69739,E,0.007,,301117,,,D*61
$GNRMC,212744.00,A,3114.53934,N,12117.69739,E,0.009,,301117,,,D*68
$GNRMC,212745.00,A,3114.53934,N,12117.69738,E,0.008,,301117,,,D*69
$GNRMC,212746.00,A,3114.53933,N,12117.69738,E,0.012,,301117,,,D*66
$GNRMC,212747.00,A,3114.53933,N,12117.69738,E,0.006,,301117,,,D*62
$GNRMC,212748.00,A,3114.53932,N,12117.69738,E,0.008,,301117,,,D*62
$GNRMC,212749.00,A,3114.53932,N,12117.69738,E,0.006,,301117,,,D*6D
$GNRMC,212750.00,A,3114.53931,N,12117.69739,E,0.009,,301117,,,D*68
$GNRMC,212751.00,A,3114.53931,N,12117.69738,E,0.010,,301117,,,D*60
$GNRMC,212752.00,A,3114.53931,N,12117.69738,E,0.017,,301117,,,D*64
$GNRMC,212753.00,A,3114.53931,N,12117.69737,E,0.016,,301117,,,D*6B
$GNRMC,212754.00,A,3114.53931,N,12117.69736,E,0.008,,301117,,,D*62
$GNRMC,212755.00,A,3114.53931,N,12117.69735,E,0.006,,301117,,,D*6E
$GNRMC,212756.00,A,3114.53930,N,12117.69734,E,0.008,,301117,,,D*63
$GNRMC,212757.00,A,3114.53930,N,12117.69733,E,0.017,,301117,,,D*6B
$GNRMC,212758.00,A,3114.53929,N,12117.69731,E,0.009,,301117,,,D*61
$GNRMC,212759.00,A,3114.53928,N,12117.69730,E,0.003,,301117,,,D*6A
$GNRMC,212800.00,A,3114.53928,N,12117.69728,E,0.014,,301117,,,D*66
$GNRMC,212801.00,A,3114.53928,N,12117.69726,E,0.009,,301117,,,D*65
$GNRMC,212802.00,A,3114.53928,N,12117.69725,E,0.007,,301117,,,D*6B
$GNRMC,212803.00,A,3114.53928,N,12117.69723,E,0.006,,301117,,,D*6D
$GNRMC,212804.00,A,3114.53927,N,12117.69721,E,0.007,,301117,,,D*66
$GNRMC,212805.00,A,3114.53927,N,12117.69719,E,0.019,,301117,,,D*63
$GNRMC,212806.00,A,3114.53927,N,12117.69716,E,0.013,,301117,,,D*65
$GNRMC,212807.00,A,3114.53927,N,12117.69713,E,0.016,,301117,,,D*64
$GNRMC,212808.00,A,3114.53927,N,12117.69711,E,0.010,,301117,,,D*6F
$GNRMC,212809.00,A,3114.53927,N,12117.69709,E,0.007,,301117,,,D*61
$GNRMC,212810.00,A,3114.53928,N,12117.69706,E,0.004,,301117,,,D*6A
$GNRMC,212811.00,A,3114.53928,N,12117.69704,E,0.012,,301117,,,D*6E
$GNRMC,212812.00,A,3114.53929,N,12117.69701,E,0.001,,301117,,,D*6B
$GNRMC,212813.00,A,3114.53929,N,12117.69698,E,0.010,,301117,,,D*6B
$GNRMC,212814.00,A,3114.53930,N,12117.69696,E,0.006,,301117,,,D*6D
$GNRMC,212815.00,A,3114.53931,N,12117.69693,E,0.007,,301117,,,D*69
$GNRMC,212816.00,A,3114.53931,N,12117.69691,E,0.013,,301117,,,D*6D
$GNRMC,212817.00,A,3114.53932,N,12117.69689,E,0.017,,301117,,,D*62
$GNRMC,212818.00,A,3114.53931,N,12117.69686,E,0.009,,301117,,,D*6E
$GNRMC,212819.00,A,3114.53931,N,12117.69683,E,0.014,,301117,,,D*66
$GNRMC,212820.00,A,3114.53931,N,12117.69681,E,0.009,,301117,,,D*62
$GNRMC,212821.00,A,3114.53931,N,12117.69679,E,0.010,,301117,,,D*6C
$GNRMC,212822.00,A,3114.53931,N,12117.69676,E,0.005,,301117,,,D*64
$GNRMC,212823.00,A,3114.53932,N,12117.69673,E,0.007,,301117,,,D*61
$GNRMC,212824.00,A,3114.53932,N,12117.69671,E,0.007,,301117,,,D*64
$GNRMC,212825.00,A,3114.53932,N,12117.69669,E,0.010,,301117,,,D*6A
$GNRMC,212826.00,A,3114.53932,N,12117.69667,E,0.007,,301117,,,D*61
$GNRMC,212827.00,A,3114.53932,N,12117.69665,E,0.009,,301117,,,D*6C
$GNRMC,212828.00,A,3114.53933,N,12117.69663,E,0.013,,301117,,,D*6F
$GNRMC,212829.00,A,3114.53934,N,12117.69661,E,0.005,,301117,,,D*6C
$GNRMC,212830.00,A,3114.53935,N,12117.69659,E,0.008,,301117,,,D*63
$GNRMC,212831.00,A,3114.53936,N,12117.69657,E,0.011,,301117,,,D*67
$GNRMC,212832.00,A,3114.53936,N,12117.69655,E,0.013,,301117,,,D*64
$GNRMC,212833.00,A,3114.53937,N,12117.69652,E,0.010,,301117,,,D*60
$GNRMC,212834.00,A,3114.53937,N,12117.69650,E,0.004,,301117,,,D*60
$GNRMC,212835.00,A,3114.53937,N,12117.69649,E,0.021,,301117,,,D*6E
$GNRMC,212836.00,A,3114.53937,N,12117.69647,E,0.012,,301117,,,D*63
$GNRMC,212837.00,A,3114.53937,N,12117.69646,E,0.011,,301117,,,D*60
$GNRMC,212838.00,A,3114.53937,N,12117.69644,E,0.018,,301117,,,D*64
$GNRMC,212839.00,A,3114.53938,N,12117.69642,E,0.007,,301117,,,D*62
$GNRMC,212840.00,A,3114.53938,N,12117.69640,E,0.010,,301117,,,D*68
$GNRMC,212841.00,A,3114.53938,N,12117.69639,E,0.013,,301117,,,D*64
$GNRMC,212842.00,A,3114.53939,N,12117.69637,E,0.005,,301117,,,D*6F
$GNRMC,212843.00,A,3114.53939,N,12117.69636,E,0.019,,301117,,,D*62
$GNRMC,212844.00,A,3114.53939,N,12117.69634,E,0.007,,301117,,,D*68
$GNRMC,212845.00,A,3114.53939,N,12117.69633,E,0.014,,301117,,,D*6C
$GNRMC,212846.00,A,3114.53939,N,12117.69633,E,0.008,,301117,,,D*62
$GNRMC,212847.00,A,3114.53939,N,12117.69633,E,0.007,,301117,,,D*6C
$GNRMC,212848.00,A,3114.53940,N,12117.69633,E,0.003,,301117,,,D*69
$GNRMC,212849.00,A,3114.53941,N,12117.69633,E,0.003,,301117,,,D*69
$GNRMC,212850.00,A,3114.53942,N,12117.69632,E,0.010,,301117,,,D*61
$GNRMC,212851.00,A,3114.53944,N,12117.69632,E,0.005,,301117,,,D*62
$GNRMC,212852.00,A,3114.53945,N,12117.69631,E,0.013,,301117,,,D*64
$GNRMC,212853.00,A,3114.53946,N,12117.69631,E,0.017,,301117,,,D*62
$GNRMC,212854.00,A,3114.53947,N,12117.69631,E,0.018,,301117,,,D*6B
$GNRMC,212855.00,A,3114.53948,N,12117.69631,E,0.022,,301117,,,D*6C
$GNRMC,212856.00,A,3114.53950,N,12117.69631,E,0.001,,301117,,,D*67
$GNRMC,212857.00,A,3114.53951,N,12117.69632,E,0.006,,301117,,,D*63
$GNRMC,212858.00,A,3114.53953,N,12117.69633,E,0.011,,301117,,,D*69
$GNRMC,212859.00,A,3114.53953,N,12117.69634,E,0.008,,301117,,,D*67
$GNRMC,212900.00,A,3114.53954,N,12117.69635,E,0.006,,301117,,,D*62
$GNRMC,212901.00,A,3114.53954,N,12117.69635,E,0.018,,301117,,,D*6C
$GNRMC,212902.00,A,3114.53954,N,12117.69635,E,0.009,,301117,,,D*6F
$GNRMC,212903.00,A,3114.53955,N,12117.69635,E,0.010,,301117,,,D*67
$GNRMC,212904.00,A,3114.53956,N,12117.69635,E,0.007,,301117,,,D*65
$GNRMC,212905.00,A,3114.53956,N,12117.69635,E,0.006,,301117,,,D*65
$GNRMC,212906.00,A,3114.53957,N,12117.69636,E,0.013,,301117,,,D*60
$GNRMC,212907.00,A,3114.53958,N,12117.69637,E,0.009,,301117,,,D*64
$GNRMC,212908.00,A,3114.53958,N,12117.69638,E,0.014,,301117,,,D*68
$GNRMC,212909.00,A,3114.53959,N,12117.69639,E,0.004,,301117,,,D*68
$GNRMC,212910.00,A,3114.53959,N,12117.69640,E,0.004,,301117,,,D*6E
$GNRMC,212911.00,A,3114.53959,N,12117.69641,E,0.008,,301117,,,D*62
$GNRMC,212912.00,A,3114.53959,N,12117.69642,E,0.013,,301117,,,D*68
$GNRMC,212913.00,A,3114.53959,N,12117.69644,E,0.010,,301117,,,D*6C
$GNRMC,212914.00,A,3114.53958,N,12117.69645,E,0.013,,301117,,,D*68
$GNRMC,212915.00,A,3114.53957,N,12117.69647,E,0.008,,301117,,,D*6E
$GNRMC,212916.00,A,3114.53957,N,12117.69649,E,0.011,,301117,,,D*6B
$GNRMC,212917.00,A,3114.53957,N,12117.69650,E,0.008,,301117,,,D*6A
$GNRMC,212918.00,A,3114.53957,N,12117.69652,E,0.005,,301117,,,D*6A
$GNRMC,212919.00,A,3114.53957,N,12117.69654,E,0.006,,301117,,,D*6E
$GNRMC,212920.00,A,3114.53957,N,12117.69656,E,0.010,,301117,,,D*61
$GNRMC,212921.00,A,3114.53956,N,12117.69659,E,0.014,,301117,,,D*6A
$GNRMC,212922.00,A,3114.53956,N,12117.69661,E,0.003,,301117,,,D*64
$GNRMC,212923.00,A,3114.53955,N,12117.69662,E,0.004,,301117,,,D*62
$GNRMC,212924.00,A,3114.53955,N,12117.69664,E,0.005,,301117,,,D*62
$GNRMC,212925.00,A,3114.53954,N,12117.69666,E,0.005,,301117,,,D*60
$GNRMC,212926.00,A,3114.53952,N,12117.69668,E,0.007,,301117,,,D*69
$GNRMC,212927.00,A,3114.53951,N,12117.69670,E,0.010,,301117,,,D*64
$GNRMC,212928.00,A,3114.53949,N,12117.69672,E,0.004,,301117,,,D*65
$GNRMC,212929.00,A,3114.53948,N,12117.69674,E,0.004,,301117,,,D*63
$GNRMC,212930.00,A,3114.53946,N,12117.69676,E,0.015,,301117,,,D*67
$GNRMC,212931.00,A,3114.53945,N,12117.69678,E,0.011,,301117,,,D*6F
$GNRMC,212932.00,A,3114.53944,N,12117.69680,E,0.012,,301117,,,D*69
$GNRMC,212933.00,A,3114.53944,N,12117.69682,E,0.005,,301117,,,D*6C
