$GNRMC,211313.00,A,3114.53634,N,12117.69221,E,0.007,,151217,,,A*61
$GNRMC,211314.00,A,3114.53631,N,12117.69225,E,0.007,,151217,,,A*67
$GNRMC,211315.00,A,3114.53630,N,12117.69229,E,0.009,,151217,,,A*65
$GNRMC,211316.00,A,3114.53630,N,12117.69236,E,0.013,,151217,,,A*63
$GNRMC,211317.00,A,3114.53631,N,12117.69242,E,0.011,,151217,,,A*62
$GNRMC,211318.00,A,3114.53632,N,12117.69247,E,0.014,,151217,,,A*6E
$GNRMC,211319.00,A,3114.53633,N,12117.69253,E,0.007,,151217,,,A*69
$GNRMC,211320.00,A,3114.53633,N,12117.69257,E,0.006,,151217,,,A*66
$GNRMC,211321.00,A,3114.53634,N,12117.69260,E,0.004,,151217,,,A*66
$GNRMC,211322.00,A,3114.53634,N,12117.69264,E,0.009,,151217,,,A*6C
$GNRMC,211323.00,A,3114.53635,N,12117.69266,E,0.006,,151217,,,A*61
$GNRMC,211324.00,A,3114.53634,N,12117.69268,E,0.009,,151217,,,A*66
$GNRMC,211325.00,A,3114.53633,N,12117.69269,E,0.007,,151217,,,A*6F
$GNRMC,211326.00,A,3114.53633,N,12117.69270,E,0.007,,151217,,,A*64
$GNRMC,211327.00,A,3114.53632,N,12117.69271,E,0.009,,151217,,,A*6B
$GNRMC,211328.00,A,3114.53632,N,12117.69272,E,0.008,,151217,,,A*66
$GNRMC,211329.00,A,3114.53631,N,12117.69274,E,0.011,,151217,,,A*6A
$GNRMC,211330.00,A,3114.53630,N,12117.69275,E,0.009,,151217,,,A*6B
$GNRMC,211331.00,A,3114.53630,N,12117.69275,E,0.007,,151217,,,A*64
$GNRMC,211332.00,A,3114.53631,N,12117.69275,E,0.010,,151217,,,A*60
$GNRMC,211333.00,A,3114.53632,N,12117.69274,E,0.011,,151217,,,A*62
$GNRMC,211334.00,A,3114.53633,N,12117.69274,E,0.003,,151217,,,A*67
$GNRMC,211335.00,A,3114.53635,N,12117.69272,E,0.006,,151217,,,A*63
$GNRMC,211336.00,A,3114.53636,N,12117.69271,E,0.009,,151217,,,A*6F
$GNRMC,211337.00,A,3114.53636,N,12117.69270,E,0.007,,151217,,,A*61
$GNRMC,211338.00,A,3114.53636,N,12117.69268,E,0.005,,151217,,,A*65
$GNRMC,211339.00,A,3114.53636,N,12117.69266,E,0.013,,151217,,,A*6D
$GNRMC,211340.00,A,3114.53635,N,12117.69265,E,0.005,,151217,,,A*64
$GNRMC,211341.00,A,3114.53635,N,12117.69263,E,0.014,,151217,,,A*63
$GNRMC,211342.00,A,3114.53634,N,12117.69261,E,0.010,,151217,,,A*67
$GNRMC,211343.00,A,3114.53635,N,12117.69259,E,0.006,,151217,,,A*6B
$GNRMC,211344.00,A,3114.53635,N,12117.69258,E,0.009,,151217,,,A*62
$GNRMC,211345.00,A,3114.53635,N,12117.69257,E,0.010,,151217,,,A*64
$GNRMC,211346.00,A,3114.53634,N,12117.69255,E,0.010,,151217,,,A*64
$GNRMC,211347.00,A,3114.53634,N,12117.69253,E,0.013,,151217,,,A*60
$GNRMC,211348.00,A,3114.53633,N,12117.69252,E,0.012,,151217,,,A*68
$GNRMC,211349.00,A,3114.53634,N,12117.69252,E,0.014,,151217,,,A*68
$GNRMC,211350.00,A,3114.53634,N,12117.69251,E,0.009,,151217,,,A*6F
$GNRMC,211351.00,A,3114.53635,N,12117.69250,E,0.008,,151217,,,A*6F
$GNRMC,211352.00,A,3114.53636,N,12117.69250,E,0.003,,151217,,,A*64
$GNRMC,211353.00,A,3114.53636,N,12117.69249,E,0.009,,151217,,,A*67
$GNRMC,211354.00,A,3114.53638,N,12117.69248,E,0.007,,151217,,,A*61
$GNRMC,211355.00,A,3114.53640,N,12117.69247,E,0.013,,151217,,,A*65
$GNRMC,211356.00,A,3114.53644,N,12117.69246,E,0.012,,151217,,,A*62
$GNRMC,211357.00,A,3114.53646,N,12117.69244,E,0.008,,151217,,,A*68
$GNRMC,211358.00,A,3114.53647,N,12117.69243,E,0.009,,151217,,,A*60
$GNRMC,211359.00,A,3114.53648,N,12117.69242,E,0.005,,151217,,,A*63
$GNRMC,211400.00,A,3114.53648,N,12117.69241,E,0.002,,151217,,,A*6C
$GNRMC,211401.00,A,3114.53649,N,12117.69240,E,0.006,,151217,,,A*69
$GNRMC,211402.00,A,3114.53650,N,12117.69238,E,0.007,,151217,,,A*6C
$GNRMC,211403.00,A,3114.53651,N,12117.69237,E,0.006,,151217,,,A*62
$GNRMC,211404.00,A,3114.53652,N,12117.69236,E,0.014,,151217,,,A*64
$GNRMC,211405.00,A,3114.53653,N,12117.69235,E,0.003,,151217,,,A*61
$GNRMC,211406.00,A,3114.53653,N,12117.69235,E,0.006,,151217,,,A*67
$GNRMC,211407.00,A,3114.53654,N,12117.69234,E,0.011,,151217,,,A*66
$GNRMC,211408.00,A,3114.53655,N,12117.69235,E,0.010,,151217,,,A*68
$GNRMC,211409.00,A,3114.53656,N,12117.69236,E,0.002,,151217,,,A*6A
$GNRMC,211410.00,A,3114.53656,N,12117.69237,E,0.004,,151217,,,A*65
$GNRMC,211411.00,A,3114.53658,N,12117.69237,E,0.008,,151217,,,A*66
$GNRMC,211412.00,A,3114.53660,N,12117.69238,E,0.013,,151217,,,A*6B
$GNRMC,211413.00,A,3114.53663,N,12117.69238,E,0.009,,151217,,,A*62
$GNRMC,211414.00,A,3114.53665,N,12117.69239,E,0.011,,151217,,,A*6B
$GNRMC,211415.00,A,3114.53667,N,12117.69239,E,0.017,,151217,,,A*6E
$GNRMC,211416.00,A,3114.53667,N,12117.69240,E,0.002,,151217,,,A*67
$GNRMC,211417.00,A,3114.53668,N,12117.69242,E,0.005,,151217,,,A*6C
$GNRMC,211418.00,A,3114.53668,N,12117.69242,E,0.005,,151217,,,A*63
$GNRMC,211419.00,A,3114.53669,N,12117.69243,E,0.007,,151217,,,A*60
$GNRMC,211420.00,A,3114.53671,N,12117.69244,E,0.007,,151217,,,A*64
$GNRMC,211421.00,A,3114.53672,N,12117.69244,E,0.007,,151217,,,A*66
$GNRMC,211422.00,A,3114.53674,N,12117.69246,E,0.006,,151217,,,A*60
$GNRMC,211423.00,A,3114.53675,N,12117.69247,E,0.001,,151217,,,A*66
$GNRMC,211424.00,A,3114.53677,N,12117.69249,E,0.011,,151217,,,A*6C
$GNRMC,211425.00,A,3114.53678,N,12117.69251,E,0.018,,151217,,,A*62
$GNRMC,211426.00,A,3114.53679,N,12117.69254,E,0.008,,151217,,,A*64
$GNRMC,211427.00,A,3114.53680,N,12117.69256,E,0.004,,151217,,,A*6D
$GNRMC,211428.00,A,3114.53682,N,12117.69259,E,0.008,,151217,,,A*63
$GNRMC,211429.00,A,3114.53683,N,12117.69261,E,0.007,,151217,,,A*67
$GNRMC,211430.00,A,3114.53685,N,12117.69264,E,0.012,,151217,,,A*68
$GNRMC,211431.00,A,3114.53686,N,12117.69267,E,0.009,,151217,,,A*63
$GNRMC,211432.00,A,3114.53688,N,12117.69269,E,0.009,,151217,,,A*60
$GNRMC,211433.00,A,3114.53690,N,12117.69271,E,0.007,,151217,,,A*6F
$GNRMC,211434.00,A,3114.53693,N,12117.69273,E,0.009,,151217,,,A*67
$GNRMC,211435.00,A,3114.53695,N,12117.69274,E,0.009,,151217,,,A*67
$GNRMC,211436.00,A,3114.53698,N,12117.69276,E,0.015,,151217,,,A*66
$GNRMC,211437.00,A,3114.53700,N,12117.69276,E,0.014,,151217,,,A*66
$GNRMC,211438.00,A,3114.53702,N,12117.69277,E,0.004,,151217,,,A*6B
$GNRMC,211439.00,A,3114.53705,N,12117.69277,E,0.008,,151217,,,A*61
$GNRMC,211440.00,A,3114.53707,N,12117.69276,E,0.008,,151217,,,A*6C
$GNRMC,211441.00,A,3114.53710,N,12117.69276,E,0.014,,151217,,,A*66
$GNRMC,211442.00,A,3114.53711,N,12117.69275,E,0.004,,151217,,,A*66
$GNRMC,211443.00,A,3114.53714,N,12117.69274,E,0.009,,151217,,,A*6E
$GNRMC,211444.00,A,3114.53716,N,12117.69273,E,0.004,,151217,,,A*61
$GNRMC,211445.00,A,3114.53717,N,12117.69272,E,0.021,,151217,,,A*67
$GNRMC,211446.00,A,3114.53719,N,12117.69271,E,0.016,,151217,,,A*6D
$GNRMC,211447.00,A,3114.53720,N,12117.69268,E,0.015,,151217,,,A*6D
$GNRMC,211448.00,A,3114.53722,N,12117.69266,E,0.006,,151217,,,A*6C
$GNRMC,211449.00,A,3114.53723,N,12117.69263,E,0.016,,151217,,,A*68
$GNRMC,211450.00,A,3114.53725,N,12117.69261,E,0.008,,151217,,,A*6B
$GNRMC,211451.00,A,3114.53726,N,12117.69259,E,0.013,,151217,,,A*68
$GNRMC,211452.00,A,3114.53727,N,12117.69256,E,0.003,,151217,,,A*64
$GNRMC,211453.00,A,3114.53728,N,12117.69256,E,0.004,,151217,,,A*6D
$GNRMC,211454.00,A,3114.53728,N,12117.69254,E,0.006,,151217,,,A*6A
$GNRMC,211455.00,A,3114.53728,N,12117.69252,E,0.021,,151217,,,A*68
$GNRMC,211456.00,A,3114.53729,N,12117.69250,E,0.032,,151217,,,D*6F
$GNRMC,211457.00,A,3114.53731,N,12117.69249,E,0.006,,151217,,,D*68
$GNRMC,211458.00,A,3114.53732,N,12117.69247,E,0.002,,151217,,,D*6E
$GNRMC,211459.00,A,3114.53732,N,12117.69246,E,0.015,,151217,,,D*68
$GNRMC,211500.00,A,3114.53733,N,12117.69244,E,0.007,,151217,,,D*65
$GNRMC,211501.00,A,3114.53734,N,12117.69241,E,0.010,,151217,,,D*60
$GNRMC,211502.00,A,3114.53735,N,12117.69238,E,0.009,,151217,,,D*64
$GNRMC,211503.00,A,3114.53736,N,12117.69236,E,0.016,,151217,,,D*66
$GNRMC,211504.00,A,3114.53738,N,12117.69234,E,0.004,,151217,,,D*6E
$GNRMC,211505.00,A,3114.53739,N,12117.69231,E,0.024,,151217,,,D*69
$GNRMC,211506.00,A,3114.53741,N,12117.69229,E,0.016,,151217,,,D*6D
$GNRMC,211507.00,A,3114.53742,N,12117.69228,E,0.008,,151217,,,D*61
$GNRMC,211508.00,A,3114.53744,N,12117.69226,E,0.011,,151217,,,D*6E
$GNRMC,211509.00,A,3114.53745,N,12117.69224,E,0.010,,151217,,,D*6D
$GNRMC,211510.00,A,3114.53746,N,12117.69223,E,0.010,,151217,,,D*61
$GNRMC,211511.00,A,3114.53747,N,12117.69223,E,0.007,,151217,,,D*67
$GNRMC,211512.00,A,3114.53748,N,12117.69222,E,0.009,,151217,,,D*64
$GNRMC,211513.00,A,3114.53748,N,12117.69221,E,0.018,,151217,,,D*66
$GNRMC,211514.00,A,3114.53749,N,12117.69220,E,0.033,,151217,,,D*68
$GNRMC,211515.00,A,3114.53749,N,12117.69221,E,0.008,,151217,,,D*60
$GNRMC,211516.00,A,3114.53750,N,12117.69221,E,0.015,,151217,,,D*67
$GNRMC,211517.00,A,3114.53751,N,12117.69222,E,0.013,,151217,,,D*62
$GNRMC,211518.00,A,3114.53752,N,12117.69223,E,0.001,,151217,,,D*6C
$GNRMC,211519.00,A,3114.53752,N,12117.69224,E,0.004,,151217,,,D*6F
$GNRMC,211520.00,A,3114.53753,N,12117.69225,E,0.004,,151217,,,D*65
$GNRMC,211521.00,A,3114.53754,N,12117.69226,E,0.017,,151217,,,D*62
$GNRMC,211522.00,A,3114.53755,N,12117.69227,E,0.002,,151217,,,D*65
$GNRMC,211523.00,A,3114.53757,N,12117.69228,E,0.005,,151217,,,D*6E
$GNRMC,211524.00,A,3114.53759,N,12117.69229,E,0.000,,151217,,,D*63
$GNRMC,211525.00,A,3114.53762,N,12117.69230,E,0.007,,151217,,,D*65
$GNRMC,211526.00,A,3114.53765,N,12117.69231,E,0.003,,151217,,,D*64
$GNRMC,211527.00,A,3114.53767,N,12117.69233,E,0.013,,151217,,,D*64
$GNRMC,211528.00,A,3114.53768,N,12117.69234,E,0.003,,151217,,,D*62
$GNRMC,211529.00,A,3114.53769,N,12117.69235,E,0.008,,151217,,,D*68
$GNRMC,211530.00,A,3114.53770,N,12117.69237,E,0.004,,151217,,,D*66
$GNRMC,211531.00,A,3114.53771,N,12117.69239,E,0.008,,151217,,,D*64
$GNRMC,211532.00,A,3114.53771,N,12117.69241,E,0.004,,151217,,,D*64
$GNRMC,211533.00,A,3114.53772,N,12117.69243,E,0.006,,151217,,,D*66
$GNRMC,211534.00,A,3114.53773,N,12117.69246,E,0.002,,151217,,,D*61
$GNRMC,211535.00,A,3114.53774,N,12117.69249,E,0.005,,151217,,,D*6F
$GNRMC,211536.00,A,3114.53775,N,12117.69252,E,0.009,,151217,,,D*6B
$GNRMC,211537.00,A,3114.53775,N,12117.69255,E,0.012,,151217,,,D*67
$GNRMC,211538.00,A,3114.53776,N,12117.69257,E,0.003,,151217,,,D*69
$GNRMC,211539.00,A,3114.53777,N,12117.69260,E,0.005,,151217,,,D*6B
$GNRMC,211540.00,A,3114.53778,N,12117.69262,E,0.002,,151217,,,D*6F
$GNRMC,211541.00,A,3114.53778,N,12117.69263,E,0.005,,151217,,,D*68
$GNRMC,211542.00,A,3114.53777,N,12117.69265,E,0.005,,151217,,,D*62
$GNRMC,211543.00,A,3114.53776,N,12117.69267,E,0.008,,151217,,,D*6D
$GNRMC,211544.00,A,3114.53775,N,12117.69269,E,0.005,,151217,,,D*6A
$GNRMC,211545.00,A,3114.53774,N,12117.69272,E,0.015,,151217,,,D*61
$GNRMC,211546.00,A,3114.53774,N,12117.69276,E,0.001,,151217,,,D*63
$GNRMC,211547.00,A,3114.53774,N,12117.69278,E,0.000,,151217,,,D*6D
$GNRMC,211548.00,A,3114.53774,N,12117.69281,E,0.003,,151217,,,D*67
$GNRMC,211549.00,A,3114.53775,N,12117.69283,E,0.001,,151217,,,D*67
$GNRMC,211550.00,A,3114.53777,N,12117.69285,E,0.011,,151217,,,D*6A
$GNRMC,211551.00,A,3114.53779,N,12117.69286,E,0.009,,151217,,,D*6F
$GNRMC,211552.00,A,3114.53782,N,12117.69288,E,0.022,,151217,,,D*6F
$GNRMC,211553.00,A,3114.53782,N,12117.69291,E,0.007,,151217,,,D*61
$GNRMC,211554.00,A,3114.53782,N,12117.69294,E,0.002,,151217,,,D*66
$GNRMC,211555.00,A,3114.53783,N,12117.69296,E,0.015,,151217,,,D*62
$GNRMC,211556.00,A,3114.53784,N,12117.69298,E,0.011,,151217,,,D*6C
$GNRMC,211557.00,A,3114.53786,N,12117.69300,E,0.000,,151217,,,D*6F
$GNRMC,211558.00,A,3114.53787,N,12117.69302,E,0.002,,151217,,,D*61
$GNRMC,211559.00,A,3114.53787,N,12117.69304,E,0.010,,151217,,,D*65
$GNRMC,211600.00,A,3114.53787,N,12117.69307,E,0.012,,151217,,,D*6B
$GNRMC,211601.00,A,3114.53786,N,12117.69309,E,0.009,,151217,,,D*6F
$GNRMC,211602.00,A,3114.53786,N,12117.69311,E,0.006,,151217,,,D*6A
$GNRMC,211603.00,A,3114.53785,N,12117.69314,E,0.009,,151217,,,D*62
$GNRMC,211604.00,A,3114.53785,N,12117.69317,E,0.006,,151217,,,D*69
$GNRMC,211605.00,A,3114.53784,N,12117.69318,E,0.005,,151217,,,D*65
$GNRMC,211606.00,A,3114.53783,N,12117.69320,E,0.007,,151217,,,D*68
$GNRMC,211607.00,A,3114.53781,N,12117.69322,E,0.011,,151217,,,D*6E
$GNRMC,211608.00,A,3114.53780,N,12117.69325,E,0.002,,151217,,,D*65
$GNRMC,211609.00,A,3114.53778,N,12117.69327,E,0.005,,151217,,,D*66
$GNRMC,211610.00,A,3114.53776,N,12117.69329,E,0.002,,151217,,,D*69
$GNRMC,211611.00,A,3114.53774,N,12117.69331,E,0.005,,151217,,,D*64
$GNRMC,211612.00,A,3114.53771,N,12117.69332,E,0.011,,151217,,,D*64
$GNRMC,211613.00,A,3114.53770,N,12117.69332,E,0.002,,151217,,,D*66
$GNRMC,211614.00,A,3114.53768,N,12117.69333,E,0.009,,151217,,,D*62
$GNRMC,211615.00,A,3114.53766,N,12117.69333,E,0.011,,151217,,,D*64
$GNRMC,211616.00,A,3114.53763,N,12117.69333,E,0.007,,151217,,,D*65
$GNRMC,211617.00,A,3114.53761,N,12117.69333,E,0.012,,151217,,,D*62
$GNRMC,211618.00,A,3114.53759,N,12117.69333,E,0.004,,151217,,,D*61
$GNRMC,211619.00,A,3114.53758,N,12117.69331,E,0.016,,151217,,,D*60
$GNRMC,211620.00,A,3114.53758,N,12117.69329,E,0.005,,151217,,,D*61
$GNRMC,211621.00,A,3114.53759,N,12117.69326,E,0.005,,151217,,,D*6E
$GNRMC,211622.00,A,3114.53762,N,12117.69323,E,0.010,,151217,,,D*64
$GNRMC,211623.00,A,3114.53763,N,12117.69320,E,0.012,,151217,,,D*65
$GNRMC,211624.00,A,3114.53763,N,12117.69319,E,0.004,,151217,,,D*6F
$GNRMC,211625.00,A,3114.53763,N,12117.69319,E,0.012,,151217,,,D*69
$GNRMC,211626.00,A,3114.53762,N,12117.69319,E,0.008,,151217,,,D*60
$GNRMC,211627.00,A,3114.53762,N,12117.69318,E,0.004,,151217,,,D*6C
$GNRMC,211628.00,A,3114.53762,N,12117.69318,E,0.015,,151217,,,D*63
$GNRMC,211629.00,A,3114.53761,N,12117.69317,E,0.012,,151217,,,D*69
$GNRMC,211630.00,A,3114.53761,N,12117.69317,E,0.007,,151217,,,D*65
$GNRMC,211631.00,A,3114.53761,N,12117.69317,E,0.008,,151217,,,D*6B
$GNRMC,211632.00,A,3114.53762,N,12117.69316,E,0.020,,151217,,,D*60
$GNRMC,211633.00,A,3114.53762,N,12117.69314,E,0.007,,151217,,,D*66
$GNRMC,211634.00,A,3114.53762,N,12117.69313,E,0.001,,151217,,,D*60
$GNRMC,211635.00,A,3114.53761,N,12117.69313,E,0.008,,151217,,,D*6B
$GNRMC,211636.00,A,3114.53761,N,12117.69313,E,0.019,,151217,,,D*68
$GNRMC,211637.00,A,3114.53759,N,12117.69313,E,0.014,,151217,,,D*6F
$GNRMC,211638.00,A,3114.53758,N,12117.69313,E,0.014,,151217,,,D*61
$GNRMC,211639.00,A,3114.53756,N,12117.69312,E,0.013,,151217,,,D*68
$GNRMC,211640.00,A,3114.53755,N,12117.69312,E,0.016,,151217,,,D*60
$GNRMC,211641.00,A,3114.53754,N,12117.69312,E,0.006,,151217,,,D*61
$GNRMC,211642.00,A,3114.53753,N,12117.69311,E,0.004,,151217,,,D*64
$GNRMC,211643.00,A,3114.53751,N,12117.69311,E,0.008,,151217,,,D*6B
$GNRMC,211644.00,A,3114.53750,N,12117.69312,E,0.011,,151217,,,D*66
$GNRMC,211645.00,A,3114.53749,N,12117.69312,E,0.012,,151217,,,D*6C
$GNRMC,211646.00,A,3114.53747,N,12117.69313,E,0.006,,151217,,,D*65
$GNRMC,211647.00,A,3114.53746,N,12117.69314,E,0.005,,151217,,,D*61
$GNRMC,211648.00,A,3114.53745,N,12117.69316,E,0.009,,151217,,,D*63
$GNRMC,211649.00,A,3114.53744,N,12117.69317,E,0.007,,151217,,,D*6C
$GNRMC,211650.00,A,3114.53744,N,12117.69317,E,0.001,,151217,,,D*62
$GNRMC,211651.00,A,3114.53744,N,12117.69318,E,0.013,,151217,,,D*6F
$GNRMC,211652.00,A,3114.53744,N,12117.69320,E,0.003,,151217,,,D*66
$GNRMC,211653.00,A,3114.53744,N,12117.69321,E,0.012,,151217,,,D*66
$GNRMC,211654.00,A,3114.53744,N,12117.69322,E,0.007,,151217,,,D*66
$GNRMC,211655.00,A,3114.53745,N,12117.69324,E,0.003,,151217,,,D*64
$GNRMC,211656.00,A,3114.53746,N,12117.69325,E,0.008,,151217,,,D*6E
$GNRMC,211657.00,A,3114.53747,N,12117.69326,E,0.005,,151217,,,D*60
$GNRMC,211658.00,A,3114.53748,N,12117.69327,E,0.003,,151217,,,D*67
$GNRMC,211659.00,A,3114.53750,N,12117.69328,E,0.005,,151217,,,D*66
$GNRMC,211700.00,A,3114.53751,N,12117.69328,E,0.006,,151217,,,D*69
$GNRMC,211701.00,A,3114.53752,N,12117.69328,E,0.003,,151217,,,D*6E
$GNRMC,211702.00,A,3114.53753,N,12117.69328,E,0.008,,151217,,,D*67
$GNRMC,211703.00,A,3114.53755,N,12117.69329,E,0.003,,151217,,,D*6A
$GNRMC,211704.00,A,3114.53756,N,12117.69329,E,0.004,,151217,,,D*69
$GNRMC,211705.00,A,3114.53759,N,12117.69330,E,0.013,,151217,,,D*69
$GNRMC,211706.00,A,3114.53761,N,12117.69331,E,0.011,,151217,,,D*62
$GNRMC,211707.00,A,3114.53764,N,12117.69332,E,0.016,,151217,,,D*62
$GNRMC,211708.00,A,3114.53765,N,12117.69332,E,0.005,,151217,,,D*6E
$GNRMC,211709.00,A,3114.53766,N,12117.69332,E,0.011,,151217,,,D*69
$GNRMC,211710.00,A,3114.53768,N,12117.69333,E,0.006,,151217,,,D*68
$GNRMC,211711.00,A,3114.53768,N,12117.69333,E,0.006,,151217,,,D*69
$GNRMC,211712.00,A,3114.53768,N,12117.69334,E,0.006,,151217,,,D*6D
$GNRMC,211713.00,A,3114.53767,N,12117.69336,E,0.010,,151217,,,D*66
$GNRMC,211714.00,A,3114.53766,N,12117.69337,E,0.007,,151217,,,D*67
$GNRMC,211715.00,A,3114.53764,N,12117.69338,E,0.008,,151217,,,D*64
$GNRMC,211716.00,A,3114.53762,N,12117.69341,E,0.003,,151217,,,D*64
$GNRMC,211717.00,A,3114.53761,N,12117.69344,E,0.010,,151217,,,D*61
$GNRMC,211718.00,A,3114.53760,N,12117.69346,E,0.011,,151217,,,D*6C
$GNRMC,211719.00,A,3114.53759,N,12117.69348,E,0.009,,151217,,,D*60
$GNRMC,211720.00,A,3114.53759,N,12117.69350,E,0.003,,151217,,,D*69
$GNRMC,211721.00,A,3114.53759,N,12117.69351,E,0.011,,151217,,,D*6A
$GNRMC,211722.00,A,3114.53759,N,12117.69354,E,0.010,,151217,,,D*6D
$GNRMC,211723.00,A,3114.53759,N,12117.69356,E,0.005,,151217,,,D*6A
$GNRMC,211724.00,A,3114.53758,N,12117.69358,E,0.004,,151217,,,D*63
$GNRMC,211725.00,A,3114.53758,N,12117.69359,E,0.003,,151217,,,D*64
$GNRMC,211726.00,A,3114.53757,N,12117.69360,E,0.007,,151217,,,D*66
$GNRMC,211727.00,A,3114.53756,N,12117.69362,E,0.003,,151217,,,D*60
$GNRMC,211728.00,A,3114.53755,N,12117.69362,E,0.010,,151217,,,D*6E
$GNRMC,211729.00,A,3114.53754,N,12117.69362,E,0.009,,151217,,,D*66
$GNRMC,211730.00,A,3114.53753,N,12117.69363,E,0.011,,151217,,,D*61
$GNRMC,211731.00,A,3114.53753,N,12117.69364,E,0.002,,151217,,,D*65
$GNRMC,211732.00,A,3114.53753,N,12117.69365,E,0.006,,151217,,,D*63
$GNRMC,211733.00,A,3114.53752,N,12117.69366,E,0.010,,151217,,,D*67
$GNRMC,211734.00,A,3114.53751,N,12117.69367,E,0.012,,151217,,,D*60
$GNRMC,211735.00,A,3114.53751,N,12117.69368,E,0.016,,151217,,,D*6A
$GNRMC,211736.00,A,3114.53751,N,12117.69369,E,0.010,,151217,,,D*6E
$GNRMC,211737.00,A,3114.53751,N,12117.69368,E,0.017,,151217,,,D*69
$GNRMC,211738.00,A,3114.53751,N,12117.69368,E,0.001,,151217,,,D*61
$GNRMC,211739.00,A,3114.53752,N,12117.69365,E,0.005,,151217,,,D*6A
$GNRMC,211740.00,A,3114.53752,N,12117.69364,E,0.009,,151217,,,D*69
$GNRMC,211741.00,A,3114.53751,N,12117.69362,E,0.008,,151217,,,D*6C
$GNRMC,211742.00,A,3114.53751,N,12117.69361,E,0.010,,151217,,,D*65
$GNRMC,211743.00,A,3114.53752,N,12117.69359,E,0.020,,151217,,,D*6F
$GNRMC,211744.00,A,3114.53753,N,12117.69358,E,0.011,,151217,,,D*6A
$GNRMC,211745.00,A,3114.53754,N,12117.69357,E,0.014,,151217,,,D*66
$GNRMC,211746.00,A,3114.53756,N,12117.69356,E,0.014,,151217,,,D*66
$GNRMC,211747.00,A,3114.53758,N,12117.69353,E,0.007,,151217,,,D*6E
$GNRMC,211748.00,A,3114.53759,N,12117.69350,E,0.006,,151217,,,D*62
$GNRMC,211749.00,A,3114.53759,N,12117.69347,E,0.010,,151217,,,D*62
$GNRMC,211750.00,A,3114.53759,N,12117.69344,E,0.010,,151217,,,D*69
$GNRMC,211751.00,A,3114.53760,N,12117.69340,E,0.011,,151217,,,D*67
$GNRMC,211752.00,A,3114.53760,N,12117.69339,E,0.003,,151217,,,D*69
$GNRMC,211753.00,A,3114.53761,N,12117.69338,E,0.007,,151217,,,D*6C
$GNRMC,211754.00,A,3114.53761,N,12117.69338,E,0.004,,151217,,,D*68
$GNRMC,211755.00,A,3114.53761,N,12117.69338,E,0.006,,151217,,,D*6B
$GNRMC,211756.00,A,3114.53761,N,12117.69337,E,0.011,,151217,,,D*61
$GNRMC,211757.00,A,3114.53761,N,12117.69336,E,0.004,,151217,,,D*65
$GNRMC,211758.00,A,3114.53761,N,12117.69334,E,0.006,,151217,,,D*6A
$GNRMC,211759.00,A,3114.53760,N,12117.69333,E,0.005,,151217,,,D*6E
$GNRMC,211800.00,A,3114.53759,N,12117.69333,E,0.004,,151217,,,D*66
$GNRMC,211801.00,A,3114.53758,N,12117.69332,E,0.019,,151217,,,D*6B
$GNRMC,211802.00,A,3114.53757,N,12117.69332,E,0.009,,151217,,,D*66
$GNRMC,211803.00,A,3114.53757,N,12117.69331,E,0.009,,151217,,,D*64
$GNRMC,211804.00,A,3114.53757,N,12117.69331,E,0.006,,151217,,,D*6C
$GNRMC,211805.00,A,3114.53756,N,12117.69331,E,0.006,,151217,,,D*6C
$GNRMC,211806.00,A,3114.53755,N,12117.69332,E,0.001,,151217,,,D*68
$GNRMC,211807.00,A,3114.53754,N,12117.69332,E,0.013,,151217,,,D*6B
$GNRMC,211808.00,A,3114.53753,N,12117.69332,E,0.008,,151217,,,D*69
$GNRMC,211809.00,A,3114.53752,N,12117.69332,E,0.009,,151217,,,D*68
$GNRMC,211810.00,A,3114.53751,N,12117.69332,E,0.012,,151217,,,D*69
$GNRMC,211811.00,A,3114.53750,N,12117.69332,E,0.005,,151217,,,D*6F
$GNRMC,211812.00,A,3114.53750,N,12117.69333,E,0.006,,151217,,,D*6E
$GNRMC,211813.00,A,3114.53750,N,12117.69333,E,0.009,,151217,,,D*60
$GNRMC,211814.00,A,3114.53750,N,12117.69333,E,0.006,,151217,,,D*68
$GNRMC,211815.00,A,3114.53749,N,12117.69333,E,0.002,,151217,,,D*65
$GNRMC,211816.00,A,3114.53749,N,12117.69332,E,0.007,,151217,,,D*62
$GNRMC,211817.00,A,3114.53749,N,12117.69330,E,0.008,,151217,,,D*6E
$GNRMC,211818.00,A,3114.53749,N,12117.69327,E,0.007,,151217,,,D*68
$GNRMC,211819.00,A,3114.53748,N,12117.69325,E,0.002,,151217,,,D*6F
$GNRMC,211820.00,A,3114.53749,N,12117.69323,E,0.012,,151217,,,D*63
$GNRMC,211821.00,A,3114.53749,N,12117.69321,E,0.006,,151217,,,D*65
$GNRMC,211822.00,A,3114.53749,N,12117.69321,E,0.004,,151217,,,D*64
$GNRMC,211823.00,A,3114.53749,N,12117.69320,E,0.011,,151217,,,D*60
$GNRMC,211824.00,A,3114.53748,N,12117.69318,E,0.011,,151217,,,D*6D
$GNRMC,211825.00,A,3114.53747,N,12117.69318,E,0.014,,151217,,,D*66
$GNRMC,211826.00,A,3114.53746,N,12117.69317,E,0.014,,151217,,,D*6B
$GNRMC,211827.00,A,3114.53744,N,12117.69316,E,0.011,,151217,,,D*6C
$GNRMC,211828.00,A,3114.53743,N,12117.69315,E,0.011,,151217,,,D*67
$GNRMC,211829.00,A,3114.53742,N,12117.69314,E,0.013,,151217,,,D*64
$GNRMC,211830.00,A,3114.53741,N,12117.69314,E,0.002,,151217,,,D*6F
$GNRMC,211831.00,A,3114.53740,N,12117.69314,E,0.003,,151217,,,D*6E
$GNRMC,211832.00,A,3114.53740,N,12117.69314,E,0.004,,151217,,,D*6A
$GNRMC,211833.00,A,3114.53741,N,12117.69317,E,0.003,,151217,,,D*6E
$GNRMC,211834.00,A,3114.53741,N,12117.69319,E,0.006,,151217,,,D*62
$GNRMC,211835.00,A,3114.53742,N,12117.69322,E,0.005,,151217,,,D*6B
$GNRMC,211836.00,A,3114.53741,N,12117.69325,E,0.003,,151217,,,D*6A
$GNRMC,211837.00,A,3114.53741,N,12117.69329,E,0.010,,151217,,,D*65
$GNRMC,211838.00,A,3114.53740,N,12117.69330,E,0.015,,151217,,,D*66
$GNRMC,211839.00,A,3114.53740,N,12117.69330,E,0.005,,151217,,,D*66
$GNRMC,211840.00,A,3114.53739,N,12117.69330,E,0.004,,151217,,,D*67
$GNRMC,211841.00,A,3114.53737,N,12117.69330,E,0.008,,151217,,,D*64
$GNRMC,211842.00,A,3114.53736,N,12117.69329,E,0.010,,151217,,,D*67
$GNRMC,211843.00,A,3114.53735,N,12117.69327,E,0.009,,151217,,,D*63
$GNRMC,211844.00,A,3114.53734,N,12117.69327,E,0.006,,151217,,,D*6A
$GNRMC,211845.00,A,3114.53733,N,12117.69326,E,0.002,,151217,,,D*69
$GNRMC,211846.00,A,3114.53731,N,12117.69324,E,0.010,,151217,,,D*69
$GNRMC,211847.00,A,3114.53729,N,12117.69325,E,0.007,,151217,,,D*66
$GNRMC,211848.00,A,3114.53727,N,12117.69324,E,0.001,,151217,,,D*60
$GNRMC,211849.00,A,3114.53725,N,12117.69324,E,0.005,,151217,,,D*67
$GNRMC,211850.00,A,3114.53722,N,12117.69324,E,0.008,,151217,,,D*65
$GNRMC,211851.00,A,3114.53721,N,12117.69323,E,0.003,,151217,,,D*6B
$GNRMC,211852.00,A,3114.53720,N,12117.69322,E,0.003,,151217,,,D*68
$GNRMC,211853.00,A,3114.53717,N,12117.69322,E,0.004,,151217,,,D*6A
$GNRMC,211854.00,A,3114.53715,N,12117.69322,E,0.003,,151217,,,D*68
$GNRMC,211855.00,A,3114.53713,N,12117.69321,E,0.002,,151217,,,D*6D
$GNRMC,211856.00,A,3114.53712,N,12117.69320,E,0.001,,151217,,,D*6D
$GNRMC,211857.00,A,3114.53710,N,12117.69319,E,0.003,,151217,,,D*66
$GNRMC,211858.00,A,3114.53708,N,12117.69318,E,0.005,,151217,,,D*67
$GNRMC,211859.00,A,3114.53707,N,12117.69317,E,0.005,,151217,,,D*66
$GNRMC,211900.00,A,3114.53706,N,12117.69316,E,0.010,,151217,,,D*6F
$GNRMC,211901.00,A,3114.53703,N,12117.69316,E,0.003,,151217,,,D*69
$GNRMC,211902.00,A,3114.53701,N,12117.69315,E,0.001,,151217,,,D*69
$GNRMC,211903.00,A,3114.53700,N,12117.69314,E,0.022,,151217,,,D*69
$GNRMC,211904.00,A,3114.53698,N,12117.69313,E,0.008,,151217,,,D*61
$GNRMC,211905.00,A,3114.53696,N,12117.69313,E,0.004,,151217,,,D*62
$GNRMC,211906.00,A,3114.53695,N,12117.69313,E,0.008,,151217,,,D*6E
$GNRMC,211907.00,A,3114.53695,N,12117.69313,E,0.009,,151217,,,D*6E
$GNRMC,211908.00,A,3114.53693,N,12117.69312,E,0.006,,151217,,,D*69
$GNRMC,211909.00,A,3114.53691,N,12117.69312,E,0.005,,151217,,,D*69
$GNRMC,211910.00,A,3114.53691,N,12117.69312,E,0.009,,151217,,,D*6D
$GNRMC,211911.00,A,3114.53689,N,12117.69313,E,0.010,,151217,,,D*6C
$GNRMC,211912.00,A,3114.53688,N,12117.69314,E,0.011,,151217,,,D*68
$GNRMC,211913.00,A,3114.53687,N,12117.69315,E,0.014,,151217,,,D*62
$GNRMC,211914.00,A,3114.53687,N,12117.69317,E,0.010,,151217,,,D*63
$GNRMC,211915.00,A,3114.53686,N,12117.69319,E,0.012,,151217,,,D*6F
$GNRMC,211916.00,A,3114.53685,N,12117.69321,E,0.009,,151217,,,D*6E
$GNRMC,211917.00,A,3114.53685,N,12117.69321,E,0.010,,151217,,,D*67
$GNRMC,211918.00,A,3114.53685,N,12117.69322,E,0.002,,151217,,,D*68
$GNRMC,211919.00,A,3114.53687,N,12117.69321,E,0.006,,151217,,,D*6C
$GNRMC,211920.00,A,3114.53690,N,12117.69320,E,0.004,,151217,,,D*63
$GNRMC,211921.00,A,3114.53691,N,12117.69319,E,0.008,,151217,,,D*65
$GNRMC,211922.00,A,3114.53695,N,12117.69315,E,0.004,,151217,,,D*62
$GNRMC,211923.00,A,3114.53698,N,12117.69312,E,0.012,,151217,,,D*6E
$GNRMC,211924.00,A,3114.53702,N,12117.69310,E,0.013,,151217,,,D*68
$GNRMC,211925.00,A,3114.53704,N,12117.69309,E,0.007,,151217,,,D*62
$GNRMC,211926.00,A,3114.53706,N,12117.69307,E,0.007,,151217,,,D*6D
$GNRMC,211927.00,A,3114.53707,N,12117.69306,E,0.008,,151217,,,D*63
$GNRMC,211928.00,A,3114.53710,N,12117.69304,E,0.002,,151217,,,D*62
$GNRMC,211929.00,A,3114.53712,N,12117.69303,E,0.006,,151217,,,D*62
$GNRMC,211930.00,A,3114.53713,N,12117.69301,E,0.007,,151217,,,D*68
$GNRMC,211931.00,A,3114.53714,N,12117.69299,E,0.006,,151217,,,D*6F
$GNRMC,211932.00,A,3114.53715,N,12117.69298,E,0.006,,151217,,,D*6C
$GNRMC,211933.00,A,3114.53715,N,12117.69298,E,0.007,,151217,,,D*6C
$GNRMC,211934.00,A,3114.53715,N,12117.69297,E,0.009,,151217,,,D*6A
$GNRMC,211935.00,A,3114.53715,N,12117.69296,E,0.017,,151217,,,D*65
$GNRMC,211936.00,A,3114.53715,N,12117.69295,E,0.010,,151217,,,D*62
$GNRMC,211937.00,A,3114.53716,N,12117.69294,E,0.004,,151217,,,D*64
$GNRMC,211938.00,A,3114.53717,N,12117.69294,E,0.007,,151217,,,D*69
$GNRMC,211939.00,A,3114.53718,N,12117.69292,E,0.004,,151217,,,D*62
$GNRMC,211940.00,A,3114.53721,N,12117.69290,E,0.011,,151217,,,D*60
$GNRMC,211941.00,A,3114.53723,N,12117.69287,E,0.007,,151217,,,D*62
$GNRMC,211942.00,A,3114.53723,N,12117.69285,E,0.004,,151217,,,D*60
$GNRMC,211943.00,A,3114.53724,N,12117.69282,E,0.017,,151217,,,D*63
$GNRMC,211944.00,A,3114.53725,N,12117.69279,E,0.004,,151217,,,D*63
$GNRMC,211945.00,A,3114.53727,N,12117.69278,E,0.008,,151217,,,D*6D
$GNRMC,211946.00,A,3114.53728,N,12117.69275,E,0.001,,151217,,,D*65
$GNRMC,211947.00,A,3114.53730,N,12117.69273,E,0.008,,151217,,,D*62
$GNRMC,211948.00,A,3114.53734,N,12117.69271,E,0.010,,151217,,,D*62
$GNRMC,211949.00,A,3114.53736,N,12117.69268,E,0.008,,151217,,,D*60
$GNRMC,211950.00,A,3114.53739,N,12117.69266,E,0.003,,151217,,,D*62
$GNRMC,211951.00,A,3114.53741,N,12117.69264,E,0.012,,151217,,,D*6E
$GNRMC,211952.00,A,3114.53742,N,12117.69262,E,0.010,,151217,,,D*6A
$GNRMC,211953.00,A,3114.53744,N,12117.69258,E,0.014,,151217,,,D*60
$GNRMC,211954.00,A,3114.53745,N,12117.69255,E,0.007,,151217,,,D*69
$GNRMC,211955.00,A,3114.53746,N,12117.69252,E,0.011,,151217,,,D*6B
$GNRMC,211956.00,A,3114.53747,N,12117.69249,E,0.008,,151217,,,D*6B
$GNRMC,211957.00,A,3114.53748,N,12117.69243,E,0.007,,151217,,,D*60
$GNRMC,211958.00,A,3114.53749,N,12117.69238,E,0.014,,151217,,,D*60
$GNRMC,211959.00,A,3114.53750,N,12117.69233,E,0.009,,151217,,,D*6E
$GNRMC,212000.00,A,3114.53751,N,12117.69228,E,0.008,,151217,,,D*62
$GNRMC,212001.00,A,3114.53753,N,12117.69224,E,0.011,,151217,,,D*65
$GNRMC,212002.00,A,3114.53753,N,12117.69221,E,0.001,,151217,,,D*62
$GNRMC,212003.00,A,3114.53754,N,12117.69219,E,0.007,,151217,,,D*69
$GNRMC,212004.00,A,3114.53754,N,12117.69219,E,0.005,,151217,,,D*6C
$GNRMC,212005.00,A,3114.53755,N,12117.69219,E,0.009,,151217,,,D*60
$GNRMC,212006.00,A,3114.53755,N,12117.69220,E,0.002,,151217,,,D*62
$GNRMC,212007.00,A,3114.53754,N,12117.69220,E,0.013,,151217,,,D*62
$GNRMC,212008.00,A,3114.53755,N,12117.69221,E,0.006,,151217,,,D*69
$GNRMC,212009.00,A,3114.53755,N,12117.69222,E,0.001,,151217,,,D*6C
$GNRMC,212010.00,A,3114.53754,N,12117.69223,E,0.006,,151217,,,D*63
$GNRMC,212011.00,A,3114.53753,N,12117.69225,E,0.007,,151217,,,D*62
$GNRMC,212012.00,A,3114.53752,N,12117.69226,E,0.006,,151217,,,D*62
$GNRMC,212013.00,A,3114.53751,N,12117.69228,E,0.003,,151217,,,D*6B
$GNRMC,212014.00,A,3114.53750,N,12117.69231,E,0.004,,151217,,,D*62
$GNRMC,212015.00,A,3114.53749,N,12117.69233,E,0.010,,151217,,,D*6C
$GNRMC,212016.00,A,3114.53748,N,12117.69235,E,0.007,,151217,,,D*6E
$GNRMC,212017.00,A,3114.53747,N,12117.69238,E,0.007,,151217,,,D*6D
$GNRMC,212018.00,A,3114.53746,N,12117.69242,E,0.016,,151217,,,D*6E
$GNRMC,212019.00,A,3114.53745,N,12117.69246,E,0.002,,151217,,,D*6D
$GNRMC,212020.00,A,3114.53744,N,12117.69249,E,0.007,,151217,,,D*6C
$GNRMC,212021.00,A,3114.53744,N,12117.69252,E,0.007,,151217,,,D*67
$GNRMC,212022.00,A,3114.53744,N,12117.69254,E,0.007,,151217,,,D*62
$GNRMC,212023.00,A,3114.53743,N,12117.69256,E,0.004,,151217,,,D*65
$GNRMC,212024.00,A,3114.53741,N,12117.69258,E,0.007,,151217,,,D*6D
$GNRMC,212025.00,A,3114.53740,N,12117.69260,E,0.012,,151217,,,D*62
$GNRMC,212026.00,A,3114.53737,N,12117.69262,E,0.002,,151217,,,D*62
$GNRMC,212027.00,A,3114.53734,N,12117.69265,E,0.010,,151217,,,D*64
$GNRMC,212028.00,A,3114.53731,N,12117.69268,E,0.003,,151217,,,D*61
$GNRMC,212029.00,A,3114.53727,N,12117.69272,E,0.004,,151217,,,D*6B
$GNRMC,212030.00,A,3114.53722,N,12117.69276,E,0.001,,151217,,,D*67
$GNRMC,212031.00,A,3114.53718,N,12117.69280,E,0.007,,151217,,,D*60
$GNRMC,212032.00,A,3114.53715,N,12117.69284,E,0.003,,151217,,,D*6E
$GNRMC,212033.00,A,3114.53712,N,12117.69288,E,0.006,,151217,,,D*61
$GNRMC,212034.00,A,3114.53709,N,12117.69292,E,0.009,,151217,,,D*68
$GNRMC,212035.00,A,3114.53706,N,12117.69296,E,0.008,,151217,,,D*63
$GNRMC,212036.00,A,3114.53702,N,12117.69298,E,0.010,,151217,,,D*63
$GNRMC,212037.00,A,3114.53699,N,12117.69300,E,0.012,,151217,,,D*63
$GNRMC,212038.00,A,3114.53696,N,12117.69301,E,0.003,,151217,,,D*62
$GNRMC,212039.00,A,3114.53693,N,12117.69302,E,0.006,,151217,,,D*60
$GNRMC,212040.00,A,3114.53690,N,12117.69301,E,0.011,,151217,,,D*68
$GNRMC,212041.00,A,3114.53688,N,12117.69300,E,0.008,,151217,,,D*69
$GNRMC,212042.00,A,3114.53688,N,12117.69299,E,0.008,,151217,,,D*6B
$GNRMC,212043.00,A,3114.53689,N,12117.69298,E,0.008,,151217,,,D*6A
$GNRMC,212044.00,A,3114.53689,N,12117.69296,E,0.016,,151217,,,D*6C
$GNRMC,212045.00,A,3114.53689,N,12117.69295,E,0.009,,151217,,,D*60
$GNRMC,212046.00,A,3114.53689,N,12117.69293,E,0.007,,151217,,,D*6B
$GNRMC,212047.00,A,3114.53688,N,12117.69292,E,0.004,,151217,,,D*69
$GNRMC,212048.00,A,3114.53688,N,12117.69290,E,0.007,,151217,,,D*67
$GNRMC,212049.00,A,3114.53687,N,12117.69289,E,0.007,,151217,,,D*61
$GNRMC,212050.00,A,3114.53688,N,12117.69288,E,0.009,,151217,,,D*69
$GNRMC,212051.00,A,3114.53688,N,12117.69287,E,0.010,,151217,,,D*6F
$GNRMC,212052.00,A,3114.53688,N,12117.69285,E,0.001,,151217,,,D*6E
$GNRMC,212053.00,A,3114.53687,N,12117.69284,E,0.005,,151217,,,D*65
$GNRMC,212054.00,A,3114.53686,N,12117.69284,E,0.006,,151217,,,D*60
$GNRMC,212055.00,A,3114.53686,N,12117.69282,E,0.005,,151217,,,D*64
$GNRMC,212056.00,A,3114.53686,N,12117.69281,E,0.009,,151217,,,D*68
$GNRMC,212057.00,A,3114.53686,N,12117.69281,E,0.008,,151217,,,D*68
$GNRMC,212058.00,A,3114.53687,N,12117.69281,E,0.005,,151217,,,D*6B
$GNRMC,212059.00,A,3114.53687,N,12117.69281,E,0.003,,151217,,,D*6C
$GNRMC,212100.00,A,3114.53687,N,12117.69280,E,0.006,,151217,,,D*65
$GNRMC,212101.00,A,3114.53686,N,12117.69279,E,0.002,,151217,,,D*67
$GNRMC,212102.00,A,3114.53687,N,12117.69279,E,0.005,,151217,,,D*62
$GNRMC,212103.00,A,3114.53687,N,12117.69277,E,0.008,,151217,,,D*60
$GNRMC,212104.00,A,3114.53687,N,12117.69275,E,0.009,,151217,,,D*64
$GNRMC,212105.00,A,3114.53687,N,12117.69275,E,0.013,,151217,,,D*6E
$GNRMC,212106.00,A,3114.53689,N,12117.69274,E,0.008,,151217,,,D*68
$GNRMC,212107.00,A,3114.53691,N,12117.69273,E,0.015,,151217,,,D*6B
$GNRMC,212108.00,A,3114.53693,N,12117.69271,E,0.021,,151217,,,D*63
$GNRMC,212109.00,A,3114.53695,N,12117.69269,E,0.012,,151217,,,D*6D
$GNRMC,212110.00,A,3114.53697,N,12117.69267,E,0.002,,151217,,,D*68
$GNRMC,212111.00,A,3114.53699,N,12117.69265,E,0.009,,151217,,,D*6E
$GNRMC,212112.00,A,3114.53702,N,12117.69263,E,0.007,,151217,,,D*66
$GNRMC,212113.00,A,3114.53704,N,12117.69262,E,0.008,,151217,,,D*6F
$GNRMC,212114.00,A,3114.53706,N,12117.69261,E,0.005,,151217,,,D*64
$GNRMC,212115.00,A,3114.53708,N,12117.69260,E,0.013,,151217,,,D*6D
$GNRMC,212116.00,A,3114.53708,N,12117.69260,E,0.006,,151217,,,D*6A
$GNRMC,212117.00,A,3114.53709,N,12117.69260,E,0.004,,151217,,,D*68
$GNRMC,212118.00,A,3114.53708,N,12117.69260,E,0.008,,151217,,,D*6A
$GNRMC,212119.00,A,3114.53708,N,12117.69260,E,0.007,,151217,,,D*64
$GNRMC,212120.00,A,3114.53707,N,12117.69262,E,0.004,,151217,,,D*60
$GNRMC,212121.00,A,3114.53707,N,12117.69263,E,0.010,,151217,,,D*65
$GNRMC,212122.00,A,3114.53706,N,12117.69265,E,0.010,,151217,,,D*61
$GNRMC,212123.00,A,3114.53706,N,12117.69267,E,0.010,,151217,,,D*62
$GNRMC,212124.00,A,3114.53707,N,12117.69268,E,0.004,,151217,,,D*6E
$GNRMC,212125.00,A,3114.53707,N,12117.69269,E,0.005,,151217,,,D*6F
$GNRMC,212126.00,A,3114.53707,N,12117.69271,E,0.006,,151217,,,D*66
$GNRMC,212127.00,A,3114.53707,N,12117.69272,E,0.007,,151217,,,D*65
$GNRMC,212128.00,A,3114.53709,N,12117.69274,E,0.002,,151217,,,D*67
$GNRMC,212129.00,A,3114.53709,N,12117.69276,E,0.007,,151217,,,D*61
$GNRMC,212130.00,A,3114.53710,N,12117.69279,E,0.005,,151217,,,D*6C
$GNRMC,212131.00,A,3114.53711,N,12117.69282,E,0.007,,151217,,,D*6A
$GNRMC,212132.00,A,3114.53712,N,12117.69284,E,0.011,,151217,,,D*6B
$GNRMC,212133.00,A,3114.53712,N,12117.69286,E,0.012,,151217,,,D*6B
$GNRMC,212134.00,A,3114.53713,N,12117.69288,E,0.017,,151217,,,D*66
$GNRMC,212135.00,A,3114.53713,N,12117.69289,E,0.004,,151217,,,D*64
$GNRMC,212136.00,A,3114.53715,N,12117.69291,E,0.003,,151217,,,D*6F
$GNRMC,212137.00,A,3114.53717,N,12117.69291,E,0.017,,151217,,,D*69
$GNRMC,212138.00,A,3114.53718,N,12117.69293,E,0.002,,151217,,,D*6F
$GNRMC,212139.00,A,3114.53718,N,12117.69294,E,0.001,,151217,,,D*6A
$GNRMC,212140.00,A,3114.53719,N,12117.69294,E,0.003,,151217,,,D*67
$GNRMC,212141.00,A,3114.53719,N,12117.69293,E,0.006,,151217,,,D*64
$GNRMC,212142.00,A,3114.53719,N,12117.69291,E,0.010,,151217,,,D*62
$GNRMC,212143.00,A,3114.53717,N,12117.69291,E,0.005,,151217,,,D*69
$GNRMC,212144.00,A,3114.53716,N,12117.69291,E,0.007,,151217,,,D*6D
$GNRMC,212145.00,A,3114.53714,N,12117.69291,E,0.004,,151217,,,D*6D
$GNRMC,212146.00,A,3114.53713,N,12117.69291,E,0.001,,151217,,,D*6C
$GNRMC,212147.00,A,3114.53712,N,12117.69291,E,0.010,,151217,,,D*6C
$GNRMC,212148.00,A,3114.53711,N,12117.69290,E,0.009,,151217,,,D*69
$GNRMC,212149.00,A,3114.53711,N,12117.69289,E,0.010,,151217,,,D*68
$GNRMC,212150.00,A,3114.53710,N,12117.69289,E,0.006,,151217,,,D*66
$GNRMC,212151.00,A,3114.53710,N,12117.69289,E,0.004,,151217,,,D*65
$GNRMC,212152.00,A,3114.53709,N,12117.69287,E,0.004,,151217,,,D*60
$GNRMC,212153.00,A,3114.53710,N,12117.69286,E,0.013,,151217,,,D*6E
$GNRMC,212154.00,A,3114.53710,N,12117.69283,E,0.007,,151217,,,D*69
$GNRMC,212155.00,A,3114.53711,N,12117.69279,E,0.006,,151217,,,D*6D
$GNRMC,212156.00,A,3114.53713,N,12117.69276,E,0.004,,151217,,,D*61
$GNRMC,212157.00,A,3114.53716,N,12117.69272,E,0.013,,151217,,,D*67
$GNRMC,212158.00,A,3114.53719,N,12117.69269,E,0.013,,151217,,,D*6D
$GNRMC,212159.00,A,3114.53720,N,12117.69266,E,0.007,,151217,,,D*6C
$GNRMC,212200.00,A,3114.53722,N,12117.69263,E,0.009,,151217,,,D*6A
$GNRMC,212201.00,A,3114.53723,N,12117.69259,E,0.011,,151217,,,D*6A
$GNRMC,212202.00,A,3114.53725,N,12117.69255,E,0.015,,151217,,,D*67
$GNRMC,212203.00,A,3114.53726,N,12117.69251,E,0.008,,151217,,,D*6D
$GNRMC,212204.00,A,3114.53727,N,12117.69248,E,0.008,,151217,,,D*63
$GNRMC,212205.00,A,3114.53728,N,12117.69245,E,0.004,,151217,,,D*6C
$GNRMC,212206.00,A,3114.53728,N,12117.69244,E,0.013,,151217,,,D*68
$GNRMC,212207.00,A,3114.53729,N,12117.69241,E,0.015,,151217,,,D*6B
$GNRMC,212208.00,A,3114.53730,N,12117.69238,E,0.011,,151217,,,D*66
$GNRMC,212209.00,A,3114.53730,N,12117.69235,E,0.009,,151217,,,D*63
$GNRMC,212210.00,A,3114.53730,N,12117.69233,E,0.004,,151217,,,D*60
$GNRMC,212211.00,A,3114.53730,N,12117.69231,E,0.011,,151217,,,D*67
$GNRMC,212212.00,A,3114.53729,N,12117.69230,E,0.008,,151217,,,D*65
$GNRMC,212213.00,A,3114.53728,N,12117.69228,E,0.007,,151217,,,D*63
$GNRMC,212214.00,A,3114.53727,N,12117.69226,E,0.011,,151217,,,D*62
$GNRMC,212215.00,A,3114.53726,N,12117.69225,E,0.008,,151217,,,D*69
$GNRMC,212216.00,A,3114.53726,N,12117.69223,E,0.001,,151217,,,D*65
$GNRMC,212217.00,A,3114.53726,N,12117.69222,E,0.008,,151217,,,D*6C
$GNRMC,212218.00,A,3114.53727,N,12117.69221,E,0.006,,151217,,,D*6F
$GNRMC,212219.00,A,3114.53727,N,12117.69221,E,0.002,,151217,,,D*6A
$GNRMC,212220.00,A,3114.53728,N,12117.69222,E,0.007,,151217,,,D*69
$GNRMC,212221.00,A,3114.53728,N,12117.69223,E,0.006,,151217,,,D*68
$GNRMC,212222.00,A,3114.53728,N,12117.69223,E,0.010,,151217,,,D*6C
$GNRMC,212223.00,A,3114.53728,N,12117.69223,E,0.011,,151217,,,D*6C
$GNRMC,212224.00,A,3114.53728,N,12117.69223,E,0.008,,151217,,,D*63
$GNRMC,212225.00,A,3114.53728,N,12117.69224,E,0.016,,151217,,,D*6A
$GNRMC,212226.00,A,3114.53728,N,12117.69224,E,0.006,,151217,,,D*68
$GNRMC,212227.00,A,3114.53728,N,12117.69224,E,0.009,,151217,,,D*66
$GNRMC,212228.00,A,3114.53728,N,12117.69225,E,0.004,,151217,,,D*65
$GNRMC,212229.00,A,3114.53728,N,12117.69225,E,0.004,,151217,,,D*64
$GNRMC,212230.00,A,3114.53728,N,12117.69225,E,0.009,,151217,,,D*61
$GNRMC,212231.00,A,3114.53728,N,12117.69225,E,0.001,,151217,,,D*68
$GNRMC,212232.00,A,3114.53727,N,12117.69225,E,0.013,,151217,,,D*67
$GNRMC,212233.00,A,3114.53728,N,12117.69225,E,0.005,,151217,,,D*6E
$GNRMC,212234.00,A,3114.53729,N,12117.69223,E,0.003,,151217,,,D*68
$GNRMC,212235.00,A,3114.53730,N,12117.69221,E,0.009,,151217,,,D*69
$GNRMC,212236.00,A,3114.53730,N,12117.69220,E,0.006,,151217,,,D*64
$GNRMC,212237.00,A,3114.53729,N,12117.69217,E,0.010,,151217,,,D*6E
$GNRMC,212238.00,A,3114.53729,N,12117.69215,E,0.009,,151217,,,D*6B
$GNRMC,212239.00,A,3114.53729,N,12117.69212,E,0.014,,151217,,,D*61
$GNRMC,212240.00,A,3114.53729,N,12117.69210,E,0.007,,151217,,,D*6F
$GNRMC,212241.00,A,3114.53729,N,12117.69209,E,0.014,,151217,,,D*64
$GNRMC,212242.00,A,3114.53728,N,12117.69207,E,0.011,,151217,,,D*6D
$GNRMC,212243.00,A,3114.53728,N,12117.69206,E,0.016,,151217,,,D*6A
$GNRMC,212244.00,A,3114.53727,N,12117.69204,E,0.016,,151217,,,D*60
$GNRMC,212245.00,A,3114.53725,N,12117.69202,E,0.016,,151217,,,D*65
$GNRMC,212246.00,A,3114.53724,N,12117.69201,E,0.007,,151217,,,D*64
$GNRMC,212247.00,A,3114.53723,N,12117.69199,E,0.007,,151217,,,D*60
$GNRMC,212248.00,A,3114.53722,N,12117.69199,E,0.004,,151217,,,D*6D
$GNRMC,212249.00,A,3114.53721,N,12117.69198,E,0.018,,151217,,,D*63
$GNRMC,212250.00,A,3114.53720,N,12117.69197,E,0.021,,151217,,,D*6F
$GNRMC,212251.00,A,3114.53718,N,12117.69198,E,0.005,,151217,,,D*6C
$GNRMC,212252.00,A,3114.53717,N,12117.69197,E,0.005,,151217,,,D*6F
$GNRMC,212253.00,A,3114.53716,N,12117.69197,E,0.007,,151217,,,D*6D
$GNRMC,212254.00,A,3114.53715,N,12117.69197,E,0.002,,151217,,,D*6C
$GNRMC,212255.00,A,3114.53712,N,12117.69197,E,0.002,,151217,,,D*6A
$GNRMC,212256.00,A,3114.53710,N,12117.69197,E,0.009,,151217,,,D*60
$GNRMC,212257.00,A,3114.53708,N,12117.69197,E,0.010,,151217,,,D*60
$GNRMC,212258.00,A,3114.53706,N,12117.69197,E,0.008,,151217,,,D*68
$GNRMC,212259.00,A,3114.53703,N,12117.69198,E,0.019,,151217,,,D*63
$GNRMC,212300.00,A,3114.53702,N,12117.69199,E,0.009,,151217,,,D*6F
$GNRMC,212301.00,A,3114.53701,N,12117.69201,E,0.012,,151217,,,D*65
$GNRMC,212302.00,A,3114.53701,N,12117.69202,E,0.010,,151217,,,D*67
$GNRMC,212303.00,A,3114.53701,N,12117.69202,E,0.006,,151217,,,D*61
$GNRMC,212304.00,A,3114.53700,N,12117.69202,E,0.014,,151217,,,D*64
$GNRMC,212305.00,A,3114.53700,N,12117.69201,E,0.006,,151217,,,D*65
$GNRMC,212306.00,A,3114.53700,N,12117.69201,E,0.008,,151217,,,D*68
$GNRMC,212307.00,A,3114.53699,N,12117.69200,E,0.016,,151217,,,D*66
$GNRMC,212308.00,A,3114.53699,N,12117.69200,E,0.007,,151217,,,D*69
$GNRMC,212309.00,A,3114.53699,N,12117.69199,E,0.011,,151217,,,D*6C
$GNRMC,212310.00,A,3114.53699,N,12117.69198,E,0.012,,151217,,,D*66
$GNRMC,212311.00,A,3114.53699,N,12117.69197,E,0.012,,151217,,,D*68
$GNRMC,212312.00,A,3114.53698,N,12117.69197,E,0.009,,151217,,,D*60
$GNRMC,212313.00,A,3114.53698,N,12117.69196,E,0.013,,151217,,,D*6B
$GNRMC,212314.00,A,3114.53698,N,12117.69196,E,0.007,,151217,,,D*69
$GNRMC,212315.00,A,3114.53697,N,12117.69197,E,0.014,,151217,,,D*64
$GNRMC,212316.00,A,3114.53697,N,12117.69197,E,0.014,,151217,,,D*67
$GNRMC,212317.00,A,3114.53697,N,12117.69197,E,0.014,,151217,,,D*66
$GNRMC,212318.00,A,3114.53698,N,12117.69198,E,0.016,,151217,,,D*6B
$GNRMC,212319.00,A,3114.53699,N,12117.69198,E,0.015,,151217,,,D*68
$GNRMC,212320.00,A,3114.53700,N,12117.69200,E,0.010,,151217,,,D*64
$GNRMC,212321.00,A,3114.53701,N,12117.69202,E,0.007,,151217,,,D*60
$GNRMC,212322.00,A,3114.53702,N,12117.69204,E,0.005,,151217,,,D*64
$GNRMC,212323.00,A,3114.53703,N,12117.69205,E,0.008,,151217,,,D*68
$GNRMC,212324.00,A,3114.53705,N,12117.69206,E,0.010,,151217,,,D*63
$GNRMC,212325.00,A,3114.53707,N,12117.69207,E,0.001,,151217,,,D*61
$GNRMC,212326.00,A,3114.53709,N,12117.69208,E,0.005,,151217,,,D*67
$GNRMC,212327.00,A,3114.53710,N,12117.69208,E,0.006,,151217,,,D*6D
$GNRMC,212328.00,A,3114.53711,N,12117.69209,E,0.006,,151217,,,D*62
$GNRMC,212329.00,A,3114.53712,N,12117.69211,E,0.003,,151217,,,D*6C
$GNRMC,212330.00,A,3114.53713,N,12117.69213,E,0.003,,151217,,,D*67
$GNRMC,212331.00,A,3114.53713,N,12117.69216,E,0.005,,151217,,,D*65
$GNRMC,212332.00,A,3114.53713,N,12117.69220,E,0.007,,151217,,,D*61
$GNRMC,212333.00,A,3114.53713,N,12117.69224,E,0.009,,151217,,,D*6A
$GNRMC,212334.00,A,3114.53714,N,12117.69227,E,0.006,,151217,,,D*66
$GNRMC,212335.00,A,3114.53714,N,12117.69230,E,0.002,,151217,,,D*65
$GNRMC,212336.00,A,3114.53716,N,12117.69232,E,0.006,,151217,,,D*62
$GNRMC,212337.00,A,3114.53718,N,12117.69233,E,0.008,,151217,,,D*62
$GNRMC,212338.00,A,3114.53721,N,12117.69234,E,0.013,,151217,,,D*6A
$GNRMC,212339.00,A,3114.53723,N,12117.69234,E,0.014,,151217,,,D*6E
$GNRMC,212340.00,A,3114.53725,N,12117.69235,E,0.005,,151217,,,D*67
$GNRMC,212341.00,A,3114.53725,N,12117.69235,E,0.002,,151217,,,D*61
$GNRMC,212342.00,A,3114.53725,N,12117.69235,E,0.002,,151217,,,D*62
$GNRMC,212343.00,A,3114.53725,N,12117.69236,E,0.014,,151217,,,D*67
$GNRMC,212344.00,A,3114.53724,N,12117.69238,E,0.007,,151217,,,D*6D
$GNRMC,212345.00,A,3114.53723,N,12117.69240,E,0.008,,151217,,,D*6B
$GNRMC,212346.00,A,3114.53721,N,12117.69241,E,0.001,,151217,,,D*62
$GNRMC,212347.00,A,3114.53720,N,12117.69243,E,0.004,,151217,,,D*65
$GNRMC,212348.00,A,3114.53718,N,12117.69244,E,0.006,,151217,,,D*64
$GNRMC,212349.00,A,3114.53717,N,12117.69245,E,0.002,,151217,,,D*6F
$GNRMC,212350.00,A,3114.53715,N,12117.69245,E,0.010,,151217,,,D*66
$GNRMC,212351.00,A,3114.53712,N,12117.69246,E,0.018,,151217,,,D*6B
$GNRMC,212352.00,A,3114.53711,N,12117.69246,E,0.007,,151217,,,D*65
$GNRMC,212353.00,A,3114.53709,N,12117.69247,E,0.009,,151217,,,D*62
$GNRMC,212354.00,A,3114.53709,N,12117.69247,E,0.010,,151217,,,D*6D
$GNRMC,212355.00,A,3114.53709,N,12117.69248,E,0.010,,151217,,,D*63
$GNRMC,212356.00,A,3114.53709,N,12117.69248,E,0.014,,151217,,,D*64
$GNRMC,212357.00,A,3114.53709,N,12117.69249,E,0.003,,151217,,,D*62
$GNRMC,212358.00,A,3114.53708,N,12117.69249,E,0.009,,151217,,,D*66
$GNRMC,212359.00,A,3114.53709,N,12117.69249,E,0.010,,151217,,,D*6E
$GNRMC,212400.00,A,3114.53709,N,12117.69249,E,0.014,,151217,,,D*61
$GNRMC,212401.00,A,3114.53709,N,12117.69250,E,0.015,,151217,,,D*69
$GNRMC,212402.00,A,3114.53709,N,12117.69252,E,0.003,,151217,,,D*6F
$GNRMC,212403.00,A,3114.53708,N,12117.69253,E,0.005,,151217,,,D*68
$GNRMC,212404.00,A,3114.53708,N,12117.69255,E,0.007,,151217,,,D*6B
$GNRMC,212405.00,A,3114.53709,N,12117.69257,E,0.004,,151217,,,D*6A
$GNRMC,212406.00,A,3114.53711,N,12117.69258,E,0.006,,151217,,,D*6D
$GNRMC,212407.00,A,3114.53712,N,12117.69259,E,0.007,,151217,,,D*6F
$GNRMC,212408.00,A,3114.53713,N,12117.69260,E,0.002,,151217,,,D*6E
$GNRMC,212409.00,A,3114.53713,N,12117.69260,E,0.006,,151217,,,D*6B
$GNRMC,212410.00,A,3114.53714,N,12117.69261,E,0.009,,151217,,,D*6A
$GNRMC,212411.00,A,3114.53714,N,12117.69262,E,0.009,,151217,,,D*68
$GNRMC,212412.00,A,3114.53714,N,12117.69262,E,0.007,,151217,,,D*65
$GNRMC,212413.00,A,3114.53715,N,12117.69264,E,0.010,,151217,,,D*65
$GNRMC,212414.00,A,3114.53716,N,12117.69266,E,0.005,,151217,,,D*67
$GNRMC,212415.00,A,3114.53716,N,12117.69268,E,0.004,,151217,,,D*69
$GNRMC,212416.00,A,3114.53717,N,12117.69270,E,0.002,,151217,,,D*64
$GNRMC,212417.00,A,3114.53717,N,12117.69272,E,0.001,,151217,,,D*64
$GNRMC,212418.00,A,3114.53718,N,12117.69272,E,0.010,,151217,,,D*64
$GNRMC,212419.00,A,3114.53719,N,12117.69273,E,0.003,,151217,,,D*67
$GNRMC,212420.00,A,3114.53720,N,12117.69273,E,0.004,,151217,,,D*60
$GNRMC,212421.00,A,3114.53722,N,12117.69273,E,0.003,,151217,,,D*64
$GNRMC,212422.00,A,3114.53724,N,12117.69273,E,0.010,,151217,,,D*63
$GNRMC,212423.00,A,3114.53726,N,12117.69272,E,0.016,,151217,,,D*67
$GNRMC,212424.00,A,3114.53727,N,12117.69272,E,0.007,,151217,,,D*61
$GNRMC,212425.00,A,3114.53728,N,12117.69273,E,0.011,,151217,,,D*69
$GNRMC,212426.00,A,3114.53728,N,12117.69274,E,0.006,,151217,,,D*6B
$GNRMC,212427.00,A,3114.53727,N,12117.69276,E,0.007,,151217,,,D*66
$GNRMC,212428.00,A,3114.53727,N,12117.69278,E,0.007,,151217,,,D*67
$GNRMC,212429.00,A,3114.53726,N,12117.69279,E,0.009,,151217,,,D*68
$GNRMC,212430.00,A,3114.53725,N,12117.69281,E,0.008,,151217,,,D*65
$GNRMC,212431.00,A,3114.53723,N,12117.69284,E,0.005,,151217,,,D*6A
$GNRMC,212432.00,A,3114.53722,N,12117.69286,E,0.009,,151217,,,D*66
$GNRMC,212433.00,A,3114.53722,N,12117.69288,E,0.016,,151217,,,D*67
$GNRMC,212434.00,A,3114.53722,N,12117.69291,E,0.009,,151217,,,D*66
$GNRMC,212435.00,A,3114.53722,N,12117.69293,E,0.003,,151217,,,D*6F
$GNRMC,212436.00,A,3114.53721,N,12117.69296,E,0.003,,151217,,,D*6A
$GNRMC,212437.00,A,3114.53720,N,12117.69299,E,0.008,,151217,,,D*6E
$GNRMC,212438.00,A,3114.53721,N,12117.69302,E,0.004,,151217,,,D*6F
$GNRMC,212439.00,A,3114.53721,N,12117.69306,E,0.003,,151217,,,D*6D
$GNRMC,212440.00,A,3114.53721,N,12117.69311,E,0.005,,151217,,,D*63
$GNRMC,212441.00,A,3114.53720,N,12117.69314,E,0.010,,151217,,,D*62
$GNRMC,212442.00,A,3114.53718,N,12117.69317,E,0.012,,151217,,,D*6B
$GNRMC,212443.00,A,3114.53716,N,12117.69320,E,0.009,,151217,,,D*6A
$GNRMC,212444.00,A,3114.53715,N,12117.69324,E,0.003,,151217,,,D*60
$GNRMC,212445.00,A,3114.53714,N,12117.69328,E,0.005,,151217,,,D*6A
$GNRMC,212446.00,A,3114.53712,N,12117.69332,E,0.016,,151217,,,D*66
$GNRMC,212447.00,A,3114.53710,N,12117.69336,E,0.004,,151217,,,D*62
$GNRMC,212448.00,A,3114.53708,N,12117.69339,E,0.002,,151217,,,D*6D
$GNRMC,212449.00,A,3114.53707,N,12117.69341,E,0.004,,151217,,,D*6A
$GNRMC,212450.00,A,3114.53705,N,12117.69343,E,0.004,,151217,,,D*62
$GNRMC,212451.00,A,3114.53704,N,12117.69345,E,0.015,,151217,,,D*64
$GNRMC,212452.00,A,3114.53702,N,12117.69347,E,0.015,,151217,,,D*63
$GNRMC,212453.00,A,3114.53701,N,12117.69348,E,0.013,,151217,,,D*68
$GNRMC,212454.00,A,3114.53701,N,12117.69349,E,0.004,,151217,,,D*68
$GNRMC,212455.00,A,3114.53700,N,12117.69349,E,0.011,,151217,,,D*6C
$GNRMC,212456.00,A,3114.53700,N,12117.69349,E,0.005,,151217,,,D*6A
$GNRMC,212457.00,A,3114.53700,N,12117.69350,E,0.001,,151217,,,D*67
$GNRMC,212458.00,A,3114.53700,N,12117.69350,E,0.011,,151217,,,D*69
$GNRMC,212459.00,A,3114.53699,N,12117.69348,E,0.006,,151217,,,D*66
$GNRMC,212500.00,A,3114.53700,N,12117.69346,E,0.010,,151217,,,D*63
$GNRMC,212501.00,A,3114.53700,N,12117.69346,E,0.005,,151217,,,D*66
$GNRMC,212502.00,A,3114.53700,N,12117.69346,E,0.003,,151217,,,D*63
$GNRMC,212503.00,A,3114.53700,N,12117.69344,E,0.007,,151217,,,D*64
$GNRMC,212504.00,A,3114.53700,N,12117.69341,E,0.008,,151217,,,D*69
$GNRMC,212505.00,A,3114.53700,N,12117.69339,E,0.004,,151217,,,D*6B
$GNRMC,212506.00,A,3114.53700,N,12117.69337,E,0.004,,151217,,,D*66
$GNRMC,212507.00,A,3114.53701,N,12117.69334,E,0.005,,151217,,,D*64
$GNRMC,212508.00,A,3114.53702,N,12117.69331,E,0.019,,151217,,,D*60
$GNRMC,212509.00,A,3114.53701,N,12117.69330,E,0.007,,151217,,,D*6C
$GNRMC,212510.00,A,3114.53700,N,12117.69329,E,0.012,,151217,,,D*69
$GNRMC,212511.00,A,3114.53698,N,12117.69328,E,0.006,,151217,,,D*6C
$GNRMC,212512.00,A,3114.53697,N,12117.69327,E,0.013,,151217,,,D*6B
$GNRMC,212513.00,A,3114.53697,N,12117.69327,E,0.007,,151217,,,D*6F
$GNRMC,212514.00,A,3114.53698,N,12117.69327,E,0.002,,151217,,,D*62
$GNRMC,212515.00,A,3114.53698,N,12117.69327,E,0.008,,151217,,,D*69
$GNRMC,212516.00,A,3114.53698,N,12117.69328,E,0.013,,151217,,,D*6F
$GNRMC,212517.00,A,3114.53700,N,12117.69326,E,0.013,,151217,,,D*60
$GNRMC,212518.00,A,3114.53701,N,12117.69326,E,0.017,,151217,,,D*6A
$GNRMC,212519.00,A,3114.53702,N,12117.69326,E,0.006,,151217,,,D*68
$GNRMC,212520.00,A,3114.53701,N,12117.69331,E,0.011,,151217,,,D*61
$GNRMC,212521.00,A,3114.53700,N,12117.69336,E,0.011,,151217,,,D*66
$GNRMC,212522.00,A,3114.53698,N,12117.69339,E,0.002,,151217,,,D*68
$GNRMC,212523.00,A,3114.53696,N,12117.69341,E,0.005,,151217,,,D*6F
$GNRMC,212524.00,A,3114.53695,N,12117.69343,E,0.011,,151217,,,D*6C
$GNRMC,212525.00,A,3114.53692,N,12117.69346,E,0.010,,151217,,,D*6E
$GNRMC,212526.00,A,3114.53690,N,12117.69349,E,0.012,,151217,,,D*62
$GNRMC,212527.00,A,3114.53688,N,12117.69349,E,0.011,,151217,,,D*69
$GNRMC,212528.00,A,3114.53687,N,12117.69346,E,0.003,,151217,,,D*65
$GNRMC,212529.00,A,3114.53686,N,12117.69345,E,0.005,,151217,,,D*60
$GNRMC,212530.00,A,3114.53685,N,12117.69345,E,0.002,,151217,,,D*6C
$GNRMC,212531.00,A,3114.53684,N,12117.69345,E,0.008,,151217,,,D*66
$GNRMC,212532.00,A,3114.53684,N,12117.69345,E,0.013,,151217,,,D*6F
$GNRMC,212533.00,A,3114.53684,N,12117.69345,E,0.008,,151217,,,D*64
$GNRMC,212534.00,A,3114.53686,N,12117.69343,E,0.006,,151217,,,D*69
$GNRMC,212535.00,A,3114.53685,N,12117.69343,E,0.008,,151217,,,D*65
$GNRMC,212536.00,A,3114.53684,N,12117.69344,E,0.011,,151217,,,D*68
$GNRMC,212537.00,A,3114.53683,N,12117.69343,E,0.012,,151217,,,D*6A
$GNRMC,212538.00,A,3114.53690,N,12117.69337,E,0.008,,151217,,,D*6F
$GNRMC,212539.00,A,3114.53697,N,12117.69331,E,0.015,,151217,,,D*63
$GNRMC,212540.00,A,3114.53703,N,12117.69327,E,0.013,,151217,,,D*60
$GNRMC,212541.00,A,3114.53708,N,12117.69323,E,0.015,,151217,,,D*68
$GNRMC,212542.00,A,3114.53713,N,12117.69319,E,0.014,,151217,,,D*69
$GNRMC,212543.00,A,3114.53717,N,12117.69316,E,0.004,,151217,,,D*62
$GNRMC,212544.00,A,3114.53720,N,12117.69312,E,0.010,,151217,,,D*60
$GNRMC,212545.00,A,3114.53723,N,12117.69310,E,0.009,,151217,,,D*68
$GNRMC,212546.00,A,3114.53727,N,12117.69306,E,0.016,,151217,,,D*66
$GNRMC,212547.00,A,3114.53729,N,12117.69302,E,0.005,,151217,,,D*6F
$GNRMC,212548.00,A,3114.53730,N,12117.69299,E,0.011,,151217,,,D*6E
$GNRMC,212549.00,A,3114.53730,N,12117.69297,E,0.018,,151217,,,D*68
$GNRMC,212550.00,A,3114.53730,N,12117.69295,E,0.018,,151217,,,D*62
$GNRMC,212551.00,A,3114.53731,N,12117.69294,E,0.015,,151217,,,D*6E
$GNRMC,212552.00,A,3114.53731,N,12117.69292,E,0.005,,151217,,,D*6A
$GNRMC,212553.00,A,3114.53732,N,12117.69293,E,0.008,,151217,,,D*64
$GNRMC,212554.00,A,3114.53733,N,12117.69293,E,0.011,,151217,,,D*6A
$GNRMC,212555.00,A,3114.53733,N,12117.69293,E,0.005,,151217,,,D*6E
$GNRMC,212556.00,A,3114.53734,N,12117.69291,E,0.003,,151217,,,D*6E
$GNRMC,212557.00,A,3114.53735,N,12117.69289,E,0.007,,151217,,,D*63
$GNRMC,212558.00,A,3114.53737,N,12117.69287,E,0.011,,151217,,,D*67
$GNRMC,212559.00,A,3114.53738,N,12117.69285,E,0.021,,151217,,,D*68
$GNRMC,212600.00,A,3114.53739,N,12117.69283,E,0.008,,151217,,,D*6B
$GNRMC,212601.00,A,3114.53740,N,12117.69280,E,0.009,,151217,,,D*66
$GNRMC,212602.00,A,3114.53741,N,12117.69276,E,0.012,,151217,,,D*67
$GNRMC,212603.00,A,3114.53742,N,12117.69274,E,0.016,,151217,,,D*63
$GNRMC,212604.00,A,3114.53742,N,12117.69271,E,0.004,,151217,,,D*62
$GNRMC,212605.00,A,3114.53743,N,12117.69270,E,0.014,,151217,,,D*62
$GNRMC,212606.00,A,3114.53743,N,12117.69269,E,0.012,,151217,,,D*6F
$GNRMC,212607.00,A,3114.53744,N,12117.69267,E,0.016,,151217,,,D*63
$GNRMC,212608.00,A,3114.53746,N,12117.69266,E,0.009,,151217,,,D*61
$GNRMC,212609.00,A,3114.53746,N,12117.69263,E,0.009,,151217,,,D*65
$GNRMC,212610.00,A,3114.53746,N,12117.69261,E,0.015,,151217,,,D*62
$GNRMC,212611.00,A,3114.53746,N,12117.69259,E,0.005,,151217,,,D*69
$GNRMC,212612.00,A,3114.53746,N,12117.69258,E,0.016,,151217,,,D*69
$GNRMC,212613.00,A,3114.53746,N,12117.69258,E,0.010,,151217,,,D*6E
$GNRMC,212614.00,A,3114.53746,N,12117.69257,E,0.007,,151217,,,D*60
$GNRMC,212615.00,A,3114.53746,N,12117.69255,E,0.012,,151217,,,D*67
$GNRMC,212616.00,A,3114.53747,N,12117.69253,E,0.008,,151217,,,D*68
$GNRMC,212617.00,A,3114.53748,N,12117.69252,E,0.015,,151217,,,D*6B
$GNRMC,212618.00,A,3114.53749,N,12117.69252,E,0.015,,151217,,,D*65
$GNRMC,212619.00,A,3114.53750,N,12117.69253,E,0.007,,151217,,,D*6E
$GNRMC,212620.00,A,3114.53749,N,12117.69254,E,0.003,,151217,,,D*6F
$GNRMC,212621.00,A,3114.53748,N,12117.69254,E,0.008,,151217,,,D*64
$GNRMC,212622.00,A,3114.53747,N,12117.69255,E,0.012,,151217,,,D*62
$GNRMC,212623.00,A,3114.53746,N,12117.69255,E,0.004,,151217,,,D*65
$GNRMC,212624.00,A,3114.53747,N,12117.69254,E,0.004,,151217,,,D*62
$GNRMC,212625.00,A,3114.53747,N,12117.69253,E,0.016,,151217,,,D*67
$GNRMC,212626.00,A,3114.53748,N,12117.69251,E,0.002,,151217,,,D*6C
$GNRMC,212627.00,A,3114.53748,N,12117.69250,E,0.005,,151217,,,D*6B
$GNRMC,212628.00,A,3114.53747,N,12117.69248,E,0.012,,151217,,,D*64
$GNRMC,212629.00,A,3114.53747,N,12117.69246,E,0.003,,151217,,,D*6B
$GNRMC,212630.00,A,3114.53747,N,12117.69246,E,0.003,,151217,,,D*63
$GNRMC,212631.00,A,3114.53747,N,12117.69245,E,0.009,,151217,,,D*6B
$GNRMC,212632.00,A,3114.53747,N,12117.69245,E,0.003,,151217,,,D*62
$GNRMC,212633.00,A,3114.53746,N,12117.69245,E,0.009,,151217,,,D*68
$GNRMC,212634.00,A,3114.53746,N,12117.69245,E,0.004,,151217,,,D*62
$GNRMC,212635.00,A,3114.53743,N,12117.69244,E,0.006,,151217,,,D*65
$GNRMC,212636.00,A,3114.53741,N,12117.69244,E,0.004,,151217,,,D*66
$GNRMC,212637.00,A,3114.53738,N,12117.69245,E,0.007,,151217,,,D*6B
$GNRMC,212638.00,A,3114.53735,N,12117.69247,E,0.013,,151217,,,D*6E
$GNRMC,212639.00,A,3114.53733,N,12117.69249,E,0.011,,151217,,,D*65
$GNRMC,212640.00,A,3114.53732,N,12117.69251,E,0.012,,151217,,,D*60
$GNRMC,212641.00,A,3114.53731,N,12117.69253,E,0.003,,151217,,,D*60
$GNRMC,212642.00,A,3114.53731,N,12117.69255,E,0.008,,151217,,,D*6E
$GNRMC,212643.00,A,3114.53730,N,12117.69258,E,0.005,,151217,,,D*6E
$GNRMC,212644.00,A,3114.53729,N,12117.69261,E,0.006,,151217,,,D*68
$GNRMC,212645.00,A,3114.53727,N,12117.69264,E,0.004,,151217,,,D*60
$GNRMC,212646.00,A,3114.53724,N,12117.69268,E,0.011,,151217,,,D*68
$GNRMC,212647.00,A,3114.53723,N,12117.69271,E,0.006,,151217,,,D*60
$GNRMC,212648.00,A,3114.53722,N,12117.69272,E,0.001,,151217,,,D*6A
$GNRMC,212649.00,A,3114.53721,N,12117.69274,E,0.006,,151217,,,D*69
$GNRMC,212650.00,A,3114.53720,N,12117.69277,E,0.009,,151217,,,D*6C
$GNRMC,212651.00,A,3114.53718,N,12117.69280,E,0.001,,151217,,,D*66
$GNRMC,212652.00,A,3114.53716,N,12117.69284,E,0.007,,151217,,,D*69
$GNRMC,212653.00,A,3114.53714,N,12117.69286,E,0.007,,151217,,,D*68
$GNRMC,212654.00,A,3114.53712,N,12117.69287,E,0.007,,151217,,,D*68
$GNRMC,212655.00,A,3114.53712,N,12117.69289,E,0.008,,151217,,,D*68
$GNRMC,212656.00,A,3114.53712,N,12117.69291,E,0.004,,151217,,,D*6E
$GNRMC,212657.00,A,3114.53711,N,12117.69293,E,0.006,,151217,,,D*6C
$GNRMC,212658.00,A,3114.53710,N,12117.69296,E,0.005,,151217,,,D*64
$GNRMC,212659.00,A,3114.53710,N,12117.69297,E,0.001,,151217,,,D*60
$GNRMC,212700.00,A,3114.53710,N,12117.69298,E,0.005,,151217,,,D*66
$GNRMC,212701.00,A,3114.53710,N,12117.69300,E,0.005,,151217,,,D*67
$GNRMC,212702.00,A,3114.53710,N,12117.69302,E,0.006,,151217,,,D*65
$GNRMC,212703.00,A,3114.53710,N,12117.69306,E,0.015,,151217,,,D*62
$GNRMC,212704.00,A,3114.53710,N,12117.69309,E,0.007,,151217,,,D*69
$GNRMC,212705.00,A,3114.53711,N,12117.69311,E,0.003,,151217,,,D*64
$GNRMC,212706.00,A,3114.53711,N,12117.69314,E,0.002,,151217,,,D*63
$GNRMC,212707.00,A,3114.53712,N,12117.69315,E,0.012,,151217,,,D*61
$GNRMC,212708.00,A,3114.53713,N,12117.69316,E,0.011,,151217,,,D*6F
$GNRMC,212709.00,A,3114.53714,N,12117.69317,E,0.005,,151217,,,D*6D
$GNRMC,212710.00,A,3114.53716,N,12117.69318,E,0.008,,151217,,,D*65
$GNRMC,212711.00,A,3114.53718,N,12117.69318,E,0.016,,151217,,,D*65
$GNRMC,212712.00,A,3114.53720,N,12117.69319,E,0.010,,151217,,,D*6A
$GNRMC,212713.00,A,3114.53721,N,12117.69318,E,0.010,,151217,,,D*6B
$GNRMC,212714.00,A,3114.53722,N,12117.69319,E,0.008,,151217,,,D*67
$GNRMC,212715.00,A,3114.53723,N,12117.69322,E,0.011,,151217,,,D*67
$GNRMC,212716.00,A,3114.53724,N,12117.69324,E,0.010,,151217,,,D*64
$GNRMC,212717.00,A,3114.53724,N,12117.69325,E,0.006,,151217,,,D*63
$GNRMC,212718.00,A,3114.53725,N,12117.69326,E,0.009,,151217,,,D*61
$GNRMC,212719.00,A,3114.53727,N,12117.69324,E,0.014,,151217,,,D*6C
$GNRMC,212720.00,A,3114.53727,N,12117.69323,E,0.016,,151217,,,D*63
$GNRMC,212721.00,A,3114.53728,N,12117.69320,E,0.001,,151217,,,D*68
$GNRMC,212722.00,A,3114.53730,N,12117.69318,E,0.009,,151217,,,D*61
$GNRMC,212723.00,A,3114.53733,N,12117.69314,E,0.011,,151217,,,D*66
$GNRMC,212724.00,A,3114.53739,N,12117.69311,E,0.019,,151217,,,D*66
$GNRMC,212725.00,A,3114.53743,N,12117.69309,E,0.002,,151217,,,D*69
$GNRMC,212726.00,A,3114.53746,N,12117.69307,E,0.003,,151217,,,D*60
$GNRMC,212727.00,A,3114.53749,N,12117.69306,E,0.003,,151217,,,D*6F
$GNRMC,212728.00,A,3114.53751,N,12117.69305,E,0.014,,151217,,,D*6C
$GNRMC,212729.00,A,3114.53753,N,12117.69305,E,0.009,,151217,,,D*63
$GNRMC,212730.00,A,3114.53755,N,12117.69304,E,0.013,,151217,,,D*67
$GNRMC,212731.00,A,3114.53757,N,12117.69305,E,0.002,,151217,,,D*65
$GNRMC,212732.00,A,3114.53759,N,12117.69307,E,0.010,,151217,,,D*69
$GNRMC,212733.00,A,3114.53759,N,12117.69308,E,0.003,,151217,,,D*65
$GNRMC,212734.00,A,3114.53760,N,12117.69309,E,0.003,,151217,,,D*69
$GNRMC,212735.00,A,3114.53760,N,12117.69310,E,0.009,,151217,,,D*6A
$GNRMC,212736.00,A,3114.53761,N,12117.69310,E,0.007,,151217,,,D*66
$GNRMC,212737.00,A,3114.53761,N,12117.69310,E,0.005,,151217,,,D*65
$GNRMC,212738.00,A,3114.53761,N,12117.69311,E,0.001,,151217,,,D*6F
$GNRMC,212739.00,A,3114.53762,N,12117.69313,E,0.014,,151217,,,D*6B
$GNRMC,212740.00,A,3114.53764,N,12117.69314,E,0.001,,151217,,,D*60
$GNRMC,212741.00,A,3114.53768,N,12117.69314,E,0.011,,151217,,,D*6C
$GNRMC,212742.00,A,3114.53770,N,12117.69316,E,0.014,,151217,,,D*61
$GNRMC,212743.00,A,3114.53772,N,12117.69316,E,0.010,,151217,,,D*66
$GNRMC,212744.00,A,3114.53773,N,12117.69318,E,0.015,,151217,,,D*6B
$GNRMC,212745.00,A,3114.53774,N,12117.69320,E,0.013,,151217,,,D*60
$GNRMC,212746.00,A,3114.53774,N,12117.69324,E,0.010,,151217,,,D*64
$GNRMC,212747.00,A,3114.53775,N,12117.69326,E,0.010,,151217,,,D*66
$GNRMC,212748.00,A,3114.53778,N,12117.69328,E,0.011,,151217,,,D*6B
$GNRMC,212749.00,A,3114.53779,N,12117.69329,E,0.013,,151217,,,D*68
$GNRMC,212750.00,A,3114.53780,N,12117.69332,E,0.009,,151217,,,D*67
$GNRMC,212751.00,A,3114.53780,N,12117.69337,E,0.007,,151217,,,D*6D
$GNRMC,212752.00,A,3114.53780,N,12117.69341,E,0.014,,151217,,,D*6D
$GNRMC,212753.00,A,3114.53780,N,12117.69344,E,0.005,,151217,,,D*69
$GNRMC,212754.00,A,3114.53781,N,12117.69347,E,0.003,,151217,,,D*6A
