$GNRMC,212934.00,A,3114.53473,N,12117.69595,E,0.081,,181217,,,A*67
$GNRMC,212935.00,A,3114.53480,N,12117.69599,E,0.104,,181217,,,A*6A
$GNRMC,212936.00,A,3114.53488,N,12117.69604,E,0.135,,181217,,,A*64
$GNRMC,212937.00,A,3114.53494,N,12117.69609,E,0.151,,181217,,,A*67
$GNRMC,212938.00,A,3114.53495,N,12117.69612,E,0.130,,181217,,,A*64
$GNRMC,212939.00,A,3114.53498,N,12117.69613,E,0.071,,181217,,,A*6D
$GNRMC,212939.00,A,3114.53512,N,12117.69620,E,0.009,,181217,,,A*61
$GNRMC,212940.00,A,3114.53528,N,12117.69622,E,0.013,,181217,,,A*6F
$GNRMC,212941.00,A,3114.53546,N,12117.69623,E,0.007,,181217,,,A*62
$GNRMC,212942.00,A,3114.53560,N,12117.69623,E,0.012,,181217,,,A*61
$GNRMC,212943.00,A,3114.53574,N,12117.69625,E,0.013,,181217,,,A*62
$GNRMC,212944.00,A,3114.53584,N,12117.69624,E,0.004,,181217,,,A*6D
$GNRMC,212945.00,A,3114.53594,N,12117.69622,E,0.010,,181217,,,A*6E
$GNRMC,212946.00,A,3114.53604,N,12117.69620,E,0.015,,181217,,,A*60
$GNRMC,212947.00,A,3114.53616,N,12117.69616,E,0.006,,181217,,,A*65
$GNRMC,212948.00,A,3114.53628,N,12117.69610,E,0.014,,181217,,,A*62
$GNRMC,212949.00,A,3114.53638,N,12117.69604,E,0.022,,181217,,,A*62
$GNRMC,212950.00,A,3114.53647,N,12117.69597,E,0.011,,181217,,,A*6B
$GNRMC,212951.00,A,3114.53657,N,12117.69590,E,0.006,,181217,,,A*6A
$GNRMC,212952.00,A,3114.53665,N,12117.69583,E,0.006,,181217,,,A*6A
$GNRMC,212953.00,A,3114.53671,N,12117.69578,E,0.008,,181217,,,A*64
$GNRMC,212954.00,A,3114.53676,N,12117.69573,E,0.004,,181217,,,A*63
$GNRMC,212955.00,A,3114.53680,N,12117.69567,E,0.009,,181217,,,A*63
$GNRMC,212956.00,A,3114.53683,N,12117.69562,E,0.019,,181217,,,A*67
$GNRMC,212957.00,A,3114.53685,N,12117.69558,E,0.012,,181217,,,A*62
$GNRMC,212958.00,A,3114.53688,N,12117.69553,E,0.017,,181217,,,A*6E
$GNRMC,212959.00,A,3114.53690,N,12117.69550,E,0.024,,181217,,,A*65
$GNRMC,213000.00,A,3114.53694,N,12117.69547,E,0.010,,181217,,,A*64
$GNRMC,213001.00,A,3114.53699,N,12117.69543,E,0.017,,181217,,,A*6B
$GNRMC,213002.00,A,3114.53704,N,12117.69539,E,0.002,,181217,,,A*64
$GNRMC,213003.00,A,3114.53710,N,12117.69536,E,0.003,,181217,,,A*6E
$GNRMC,213004.00,A,3114.53715,N,12117.69534,E,0.013,,181217,,,A*6F
$GNRMC,213005.00,A,3114.53719,N,12117.69532,E,0.018,,181217,,,A*6F
$GNRMC,213006.00,A,3114.53723,N,12117.69529,E,0.015,,181217,,,A*62
$GNRMC,213007.00,A,3114.53727,N,12117.69527,E,0.005,,181217,,,A*68
$GNRMC,213008.00,A,3114.53732,N,12117.69524,E,0.005,,181217,,,A*60
$GNRMC,213009.00,A,3114.53736,N,12117.69521,E,0.012,,181217,,,A*66
$GNRMC,213010.00,A,3114.53741,N,12117.69519,E,0.005,,181217,,,A*63
$GNRMC,213011.00,A,3114.53747,N,12117.69517,E,0.007,,181217,,,A*68
$GNRMC,213012.00,A,3114.53752,N,12117.69515,E,0.015,,181217,,,A*6E
$GNRMC,213013.00,A,3114.53753,N,12117.69514,E,0.009,,181217,,,A*62
$GNRMC,213014.00,A,3114.53754,N,12117.69513,E,0.006,,181217,,,A*6A
$GNRMC,213015.00,A,3114.53754,N,12117.69513,E,0.013,,181217,,,A*6F
$GNRMC,213016.00,A,3114.53753,N,12117.69513,E,0.022,,181217,,,A*69
$GNRMC,213017.00,A,3114.53752,N,12117.69514,E,0.006,,181217,,,A*68
$GNRMC,213018.00,A,3114.53751,N,12117.69515,E,0.011,,181217,,,A*63
$GNRMC,213019.00,A,3114.53749,N,12117.69516,E,0.012,,181217,,,A*6B
$GNRMC,213020.00,A,3114.53748,N,12117.69517,E,0.020,,181217,,,A*60
$GNRMC,213021.00,A,3114.53746,N,12117.69517,E,0.004,,181217,,,A*69
$GNRMC,213022.00,A,3114.53744,N,12117.69518,E,0.008,,181217,,,A*6B
$GNRMC,213023.00,A,3114.53741,N,12117.69519,E,0.010,,181217,,,A*67
$GNRMC,213024.00,A,3114.53738,N,12117.69520,E,0.005,,181217,,,A*60
$GNRMC,213025.00,A,3114.53735,N,12117.69520,E,0.016,,181217,,,A*6E
$GNRMC,213026.00,A,3114.53732,N,12117.69521,E,0.019,,181217,,,A*64
$GNRMC,213027.00,A,3114.53728,N,12117.69521,E,0.007,,181217,,,A*61
$GNRMC,213028.00,A,3114.53724,N,12117.69521,E,0.011,,181217,,,A*65
$GNRMC,213029.00,A,3114.53720,N,12117.69522,E,0.003,,181217,,,A*60
$GNRMC,213030.00,A,3114.53716,N,12117.69522,E,0.006,,181217,,,A*68
$GNRMC,213031.00,A,3114.53712,N,12117.69522,E,0.003,,181217,,,A*68
$GNRMC,213032.00,A,3114.53708,N,12117.69522,E,0.006,,181217,,,A*65
$GNRMC,213033.00,A,3114.53705,N,12117.69522,E,0.005,,181217,,,A*6A
$GNRMC,213034.00,A,3114.53702,N,12117.69522,E,0.015,,181217,,,A*6B
$GNRMC,213035.00,A,3114.53699,N,12117.69522,E,0.016,,181217,,,A*6A
$GNRMC,213036.00,A,3114.53696,N,12117.69522,E,0.010,,181217,,,A*60
$GNRMC,213037.00,A,3114.53693,N,12117.69523,E,0.013,,181217,,,A*66
$GNRMC,213038.00,A,3114.53690,N,12117.69524,E,0.010,,181217,,,A*6E
$GNRMC,213039.00,A,3114.53689,N,12117.69524,E,0.007,,181217,,,A*61
$GNRMC,213040.00,A,3114.53688,N,12117.69524,E,0.006,,181217,,,A*6F
$GNRMC,213041.00,A,3114.53686,N,12117.69523,E,0.006,,181217,,,A*67
$GNRMC,213042.00,A,3114.53685,N,12117.69523,E,0.001,,181217,,,A*60
$GNRMC,213043.00,A,3114.53685,N,12117.69523,E,0.005,,181217,,,A*65
$GNRMC,213044.00,A,3114.53685,N,12117.69522,E,0.010,,181217,,,A*67
$GNRMC,213045.00,A,3114.53684,N,12117.69521,E,0.006,,181217,,,A*63
$GNRMC,213046.00,A,3114.53682,N,12117.69520,E,0.015,,181217,,,A*65
$GNRMC,213047.00,A,3114.53681,N,12117.69519,E,0.009,,181217,,,A*60
$GNRMC,213048.00,A,3114.53681,N,12117.69519,E,0.002,,181217,,,A*64
$GNRMC,213049.00,A,3114.53681,N,12117.69519,E,0.011,,181217,,,A*67
$GNRMC,213050.00,A,3114.53682,N,12117.69519,E,0.003,,181217,,,A*6F
$GNRMC,213051.00,A,3114.53682,N,12117.69520,E,0.004,,181217,,,A*63
$GNRMC,213052.00,A,3114.53683,N,12117.69520,E,0.012,,181217,,,A*66
$GNRMC,213053.00,A,3114.53683,N,12117.69521,E,0.009,,181217,,,A*6C
$GNRMC,213054.00,A,3114.53683,N,12117.69522,E,0.004,,181217,,,A*65
$GNRMC,213055.00,A,3114.53683,N,12117.69521,E,0.008,,181217,,,A*6B
$GNRMC,213056.00,A,3114.53683,N,12117.69521,E,0.011,,181217,,,A*60
$GNRMC,213057.00,A,3114.53684,N,12117.69521,E,0.014,,181217,,,A*63
$GNRMC,213058.00,A,3114.53684,N,12117.69521,E,0.005,,181217,,,A*6C
$GNRMC,213059.00,A,3114.53684,N,12117.69522,E,0.009,,181217,,,A*62
$GNRMC,213100.00,A,3114.53683,N,12117.69523,E,0.004,,181217,,,A*64
$GNRMC,213101.00,A,3114.53681,N,12117.69523,E,0.003,,181217,,,A*60
$GNRMC,213102.00,A,3114.53679,N,12117.69524,E,0.007,,181217,,,A*67
$GNRMC,213103.00,A,3114.53677,N,12117.69525,E,0.004,,181217,,,A*6A
$GNRMC,213104.00,A,3114.53675,N,12117.69525,E,0.019,,181217,,,A*63
$GNRMC,213105.00,A,3114.53673,N,12117.69525,E,0.009,,181217,,,A*65
$GNRMC,213106.00,A,3114.53670,N,12117.69526,E,0.011,,181217,,,A*6F
$GNRMC,213107.00,A,3114.53668,N,12117.69527,E,0.008,,181217,,,A*6E
$GNRMC,213108.00,A,3114.53667,N,12117.69527,E,0.016,,181217,,,A*61
$GNRMC,213109.00,A,3114.53666,N,12117.69527,E,0.007,,181217,,,A*61
$GNRMC,213110.00,A,3114.53665,N,12117.69527,E,0.008,,181217,,,A*65
$GNRMC,213111.00,A,3114.53663,N,12117.69527,E,0.008,,181217,,,A*62
$GNRMC,213112.00,A,3114.53662,N,12117.69527,E,0.008,,181217,,,A*60
$GNRMC,213113.00,A,3114.53661,N,12117.69527,E,0.015,,181217,,,A*6E
$GNRMC,213114.00,A,3114.53660,N,12117.69527,E,0.022,,181217,,,A*6C
$GNRMC,213115.00,A,3114.53660,N,12117.69526,E,0.010,,181217,,,A*6D
$GNRMC,213116.00,A,3114.53661,N,12117.69526,E,0.013,,181217,,,A*6C
$GNRMC,213117.00,A,3114.53662,N,12117.69527,E,0.013,,181217,,,A*6F
$GNRMC,213118.00,A,3114.53664,N,12117.69527,E,0.003,,181217,,,A*67
$GNRMC,213119.00,A,3114.53665,N,12117.69526,E,0.003,,181217,,,A*66
$GNRMC,213120.00,A,3114.53668,N,12117.69527,E,0.006,,181217,,,A*65
$GNRMC,213121.00,A,3114.53671,N,12117.69526,E,0.007,,181217,,,A*6C
$GNRMC,213122.00,A,3114.53675,N,12117.69526,E,0.006,,181217,,,A*6A
$GNRMC,213123.00,A,3114.53679,N,12117.69525,E,0.027,,181217,,,D*62
$GNRMC,213124.00,A,3114.53683,N,12117.69523,E,0.029,,181217,,,D*68
$GNRMC,213125.00,A,3114.53688,N,12117.69522,E,0.005,,181217,,,D*6D
$GNRMC,213126.00,A,3114.53692,N,12117.69522,E,0.009,,181217,,,D*69
$GNRMC,213127.00,A,3114.53697,N,12117.69522,E,0.000,,181217,,,D*64
$GNRMC,213128.00,A,3114.53701,N,12117.69521,E,0.007,,181217,,,D*61
$GNRMC,213129.00,A,3114.53705,N,12117.69521,E,0.008,,181217,,,D*6B
$GNRMC,213130.00,A,3114.53708,N,12117.69520,E,0.014,,181217,,,D*62
$GNRMC,213131.00,A,3114.53711,N,12117.69520,E,0.009,,181217,,,D*67
$GNRMC,213132.00,A,3114.53714,N,12117.69520,E,0.005,,181217,,,D*6D
$GNRMC,213133.00,A,3114.53717,N,12117.69520,E,0.007,,181217,,,D*6D
$GNRMC,213134.00,A,3114.53721,N,12117.69519,E,0.018,,181217,,,D*6B
$GNRMC,213135.00,A,3114.53724,N,12117.69519,E,0.005,,181217,,,D*63
$GNRMC,213136.00,A,3114.53726,N,12117.69519,E,0.015,,181217,,,D*63
$GNRMC,213137.00,A,3114.53728,N,12117.69518,E,0.009,,181217,,,D*60
$GNRMC,213138.00,A,3114.53730,N,12117.69519,E,0.009,,181217,,,D*67
$GNRMC,213139.00,A,3114.53732,N,12117.69519,E,0.012,,181217,,,D*6E
$GNRMC,213140.00,A,3114.53734,N,12117.69518,E,0.008,,181217,,,D*6C
$GNRMC,213141.00,A,3114.53736,N,12117.69519,E,0.015,,181217,,,D*62
$GNRMC,213142.00,A,3114.53738,N,12117.69519,E,0.005,,181217,,,D*6E
$GNRMC,213143.00,A,3114.53741,N,12117.69519,E,0.011,,181217,,,D*64
$GNRMC,213144.00,A,3114.53743,N,12117.69519,E,0.017,,181217,,,D*67
$GNRMC,213145.00,A,3114.53745,N,12117.69518,E,0.005,,181217,,,D*62
$GNRMC,213146.00,A,3114.53748,N,12117.69519,E,0.020,,181217,,,D*6A
$GNRMC,213147.00,A,3114.53750,N,12117.69519,E,0.015,,181217,,,D*64
$GNRMC,213148.00,A,3114.53752,N,12117.69520,E,0.005,,181217,,,D*62
$GNRMC,213149.00,A,3114.53754,N,12117.69520,E,0.011,,181217,,,D*60
$GNRMC,213150.00,A,3114.53756,N,12117.69520,E,0.007,,181217,,,D*6D
$GNRMC,213151.00,A,3114.53759,N,12117.69521,E,0.005,,181217,,,D*60
$GNRMC,213152.00,A,3114.53763,N,12117.69521,E,0.010,,181217,,,D*6E
$GNRMC,213153.00,A,3114.53767,N,12117.69521,E,0.008,,181217,,,D*62
$GNRMC,213154.00,A,3114.53771,N,12117.69522,E,0.016,,181217,,,D*6E
$GNRMC,213155.00,A,3114.53773,N,12117.69522,E,0.005,,181217,,,D*6F
$GNRMC,213156.00,A,3114.53774,N,12117.69522,E,0.015,,181217,,,D*6A
$GNRMC,213157.00,A,3114.53775,N,12117.69522,E,0.006,,181217,,,D*68
$GNRMC,213158.00,A,3114.53776,N,12117.69523,E,0.009,,181217,,,D*6A
$GNRMC,213159.00,A,3114.53779,N,12117.69523,E,0.006,,181217,,,D*6B
$GNRMC,213200.00,A,3114.53781,N,12117.69524,E,0.005,,181217,,,D*67
$GNRMC,213201.00,A,3114.53783,N,12117.69524,E,0.010,,181217,,,D*60
$GNRMC,213202.00,A,3114.53786,N,12117.69523,E,0.013,,181217,,,D*62
$GNRMC,213203.00,A,3114.53790,N,12117.69524,E,0.008,,181217,,,D*69
$GNRMC,213204.00,A,3114.53793,N,12117.69525,E,0.024,,181217,,,D*62
$GNRMC,213205.00,A,3114.53797,N,12117.69526,E,0.003,,181217,,,D*61
$GNRMC,213206.00,A,3114.53800,N,12117.69528,E,0.028,,181217,,,D*64
$GNRMC,213207.00,A,3114.53803,N,12117.69530,E,0.016,,181217,,,D*62
$GNRMC,213208.00,A,3114.53805,N,12117.69534,E,0.006,,181217,,,D*6E
$GNRMC,213209.00,A,3114.53806,N,12117.69537,E,0.006,,181217,,,D*6F
$GNRMC,213210.00,A,3114.53806,N,12117.69539,E,0.004,,181217,,,D*6B
$GNRMC,213211.00,A,3114.53806,N,12117.69541,E,0.009,,181217,,,D*68
$GNRMC,213212.00,A,3114.53807,N,12117.69543,E,0.008,,181217,,,D*69
$GNRMC,213213.00,A,3114.53807,N,12117.69546,E,0.007,,181217,,,D*62
$GNRMC,213214.00,A,3114.53807,N,12117.69550,E,0.019,,181217,,,D*6D
$GNRMC,213215.00,A,3114.53806,N,12117.69552,E,0.005,,181217,,,D*62
$GNRMC,213216.00,A,3114.53805,N,12117.69554,E,0.007,,181217,,,D*66
$GNRMC,213217.00,A,3114.53804,N,12117.69557,E,0.004,,181217,,,D*66
$GNRMC,213218.00,A,3114.53802,N,12117.69558,E,0.010,,181217,,,D*65
$GNRMC,213219.00,A,3114.53801,N,12117.69560,E,0.005,,181217,,,D*68
$GNRMC,213220.00,A,3114.53801,N,12117.69562,E,0.016,,181217,,,D*62
$GNRMC,213221.00,A,3114.53800,N,12117.69564,E,0.022,,181217,,,D*63
$GNRMC,213222.00,A,3114.53801,N,12117.69566,E,0.015,,181217,,,D*67
$GNRMC,213223.00,A,3114.53801,N,12117.69568,E,0.014,,181217,,,D*69
$GNRMC,213224.00,A,3114.53801,N,12117.69571,E,0.020,,181217,,,D*61
$GNRMC,213225.00,A,3114.53801,N,12117.69574,E,0.006,,181217,,,D*61
$GNRMC,213226.00,A,3114.53801,N,12117.69577,E,0.014,,181217,,,D*62
$GNRMC,213227.00,A,3114.53802,N,12117.69580,E,0.006,,181217,,,D*6B
$GNRMC,213228.00,A,3114.53804,N,12117.69583,E,0.014,,181217,,,D*62
$GNRMC,213229.00,A,3114.53804,N,12117.69585,E,0.010,,181217,,,D*61
$GNRMC,213230.00,A,3114.53805,N,12117.69587,E,0.016,,181217,,,D*6C
$GNRMC,213231.00,A,3114.53806,N,12117.69590,E,0.009,,181217,,,D*66
$GNRMC,213232.00,A,3114.53806,N,12117.69592,E,0.017,,181217,,,D*68
$GNRMC,213233.00,A,3114.53807,N,12117.69595,E,0.009,,181217,,,D*60
$GNRMC,213234.00,A,3114.53808,N,12117.69597,E,0.013,,181217,,,D*61
$GNRMC,213235.00,A,3114.53810,N,12117.69599,E,0.002,,181217,,,D*67
$GNRMC,213236.00,A,3114.53813,N,12117.69602,E,0.017,,181217,,,D*62
$GNRMC,213237.00,A,3114.53815,N,12117.69605,E,0.013,,181217,,,D*66
$GNRMC,213238.00,A,3114.53817,N,12117.69608,E,0.001,,181217,,,D*65
$GNRMC,213239.00,A,3114.53819,N,12117.69610,E,0.002,,181217,,,D*60
$GNRMC,213240.00,A,3114.53821,N,12117.69611,E,0.006,,181217,,,D*60
$GNRMC,213241.00,A,3114.53822,N,12117.69612,E,0.003,,181217,,,D*64
$GNRMC,213242.00,A,3114.53822,N,12117.69613,E,0.006,,181217,,,D*63
$GNRMC,213243.00,A,3114.53823,N,12117.69613,E,0.005,,181217,,,D*60
$GNRMC,213244.00,A,3114.53821,N,12117.69613,E,0.022,,181217,,,D*60
$GNRMC,213245.00,A,3114.53820,N,12117.69613,E,0.004,,181217,,,D*64
$GNRMC,213246.00,A,3114.53821,N,12117.69613,E,0.012,,181217,,,D*61
$GNRMC,213247.00,A,3114.53821,N,12117.69613,E,0.005,,181217,,,D*66
$GNRMC,213248.00,A,3114.53822,N,12117.69613,E,0.008,,181217,,,D*67
$GNRMC,213249.00,A,3114.53822,N,12117.69616,E,0.004,,181217,,,D*6F
$GNRMC,213250.00,A,3114.53820,N,12117.69618,E,0.005,,181217,,,D*6A
$GNRMC,213251.00,A,3114.53818,N,12117.69619,E,0.014,,181217,,,D*61
$GNRMC,213252.00,A,3114.53815,N,12117.69621,E,0.011,,181217,,,D*61
$GNRMC,213253.00,A,3114.53814,N,12117.69622,E,0.004,,181217,,,D*66
$GNRMC,213254.00,A,3114.53813,N,12117.69625,E,0.020,,181217,,,D*67
$GNRMC,213255.00,A,3114.53814,N,12117.69628,E,0.007,,181217,,,D*69
$GNRMC,213256.00,A,3114.53814,N,12117.69630,E,0.019,,181217,,,D*6C
$GNRMC,213257.00,A,3114.53813,N,12117.69634,E,0.026,,181217,,,D*62
$GNRMC,213258.00,A,3114.53812,N,12117.69636,E,0.009,,181217,,,D*63
$GNRMC,213259.00,A,3114.53811,N,12117.69639,E,0.012,,181217,,,D*64
$GNRMC,213300.00,A,3114.53808,N,12117.69641,E,0.002,,181217,,,D*6F
$GNRMC,213301.00,A,3114.53805,N,12117.69644,E,0.005,,181217,,,D*61
$GNRMC,213302.00,A,3114.53802,N,12117.69646,E,0.010,,181217,,,D*63
$GNRMC,213303.00,A,3114.53800,N,12117.69648,E,0.006,,181217,,,D*69
$GNRMC,213304.00,A,3114.53799,N,12117.69649,E,0.012,,181217,,,D*65
$GNRMC,213305.00,A,3114.53798,N,12117.69650,E,0.001,,181217,,,D*6F
$GNRMC,213306.00,A,3114.53796,N,12117.69652,E,0.017,,181217,,,D*67
$GNRMC,213307.00,A,3114.53794,N,12117.69653,E,0.005,,181217,,,D*66
$GNRMC,213308.00,A,3114.53791,N,12117.69654,E,0.007,,181217,,,D*69
$GNRMC,213309.00,A,3114.53786,N,12117.69656,E,0.007,,181217,,,D*6C
$GNRMC,213310.00,A,3114.53781,N,12117.69659,E,0.014,,181217,,,D*6E
$GNRMC,213311.00,A,3114.53778,N,12117.69663,E,0.012,,181217,,,D*66
$GNRMC,213312.00,A,3114.53776,N,12117.69666,E,0.013,,181217,,,D*6F
$GNRMC,213313.00,A,3114.53775,N,12117.69670,E,0.006,,181217,,,D*6E
$GNRMC,213314.00,A,3114.53774,N,12117.69675,E,0.005,,181217,,,D*6E
$GNRMC,213315.00,A,3114.53774,N,12117.69679,E,0.006,,181217,,,D*60
$GNRMC,213316.00,A,3114.53774,N,12117.69682,E,0.009,,181217,,,D*68
$GNRMC,213317.00,A,3114.53774,N,12117.69685,E,0.016,,181217,,,D*60
$GNRMC,213318.00,A,3114.53773,N,12117.69688,E,0.008,,181217,,,D*6A
$GNRMC,213319.00,A,3114.53772,N,12117.69691,E,0.005,,181217,,,D*6F
$GNRMC,213320.00,A,3114.53770,N,12117.69693,E,0.002,,181217,,,D*62
$GNRMC,213321.00,A,3114.53767,N,12117.69695,E,0.013,,181217,,,D*63
$GNRMC,213322.00,A,3114.53763,N,12117.69697,E,0.008,,181217,,,D*6C
$GNRMC,213323.00,A,3114.53760,N,12117.69699,E,0.012,,181217,,,D*6B
$GNRMC,213324.00,A,3114.53758,N,12117.69700,E,0.014,,181217,,,D*60
$GNRMC,213325.00,A,3114.53756,N,12117.69702,E,0.002,,181217,,,D*6A
$GNRMC,213326.00,A,3114.53754,N,12117.69704,E,0.010,,181217,,,D*6E
$GNRMC,213327.00,A,3114.53753,N,12117.69706,E,0.016,,181217,,,D*6C
$GNRMC,213328.00,A,3114.53753,N,12117.69707,E,0.008,,181217,,,D*6D
$GNRMC,213329.00,A,3114.53752,N,12117.69709,E,0.010,,181217,,,D*6A
$GNRMC,213330.00,A,3114.53752,N,12117.69710,E,0.004,,181217,,,D*6F
$GNRMC,213331.00,A,3114.53752,N,12117.69711,E,0.006,,181217,,,D*6D
$GNRMC,213332.00,A,3114.53753,N,12117.69710,E,0.009,,181217,,,D*61
$GNRMC,213333.00,A,3114.53752,N,12117.69710,E,0.010,,181217,,,D*69
$GNRMC,213334.00,A,3114.53753,N,12117.69709,E,0.008,,181217,,,D*6E
$GNRMC,213335.00,A,3114.53754,N,12117.69708,E,0.015,,181217,,,D*65
$GNRMC,213336.00,A,3114.53755,N,12117.69705,E,0.008,,181217,,,D*66
$GNRMC,213337.00,A,3114.53759,N,12117.69702,E,0.006,,181217,,,D*62
$GNRMC,213338.00,A,3114.53763,N,12117.69700,E,0.009,,181217,,,D*69
$GNRMC,213339.00,A,3114.53768,N,12117.69698,E,0.017,,181217,,,D*6C
$GNRMC,213340.00,A,3114.53772,N,12117.69695,E,0.002,,181217,,,D*60
$GNRMC,213341.00,A,3114.53774,N,12117.69692,E,0.010,,181217,,,D*63
$GNRMC,213342.00,A,3114.53776,N,12117.69689,E,0.010,,181217,,,D*68
$GNRMC,213343.00,A,3114.53777,N,12117.69686,E,0.008,,181217,,,D*6E
$GNRMC,213344.00,A,3114.53780,N,12117.69681,E,0.005,,181217,,,D*6B
$GNRMC,213345.00,A,3114.53784,N,12117.69677,E,0.008,,181217,,,D*6A
$GNRMC,213346.00,A,3114.53788,N,12117.69674,E,0.008,,181217,,,D*66
$GNRMC,213347.00,A,3114.53792,N,12117.69670,E,0.002,,181217,,,D*62
$GNRMC,213348.00,A,3114.53797,N,12117.69667,E,0.005,,181217,,,D*69
$GNRMC,213349.00,A,3114.53801,N,12117.69664,E,0.006,,181217,,,D*68
$GNRMC,213350.00,A,3114.53805,N,12117.69662,E,0.003,,181217,,,D*67
$GNRMC,213351.00,A,3114.53806,N,12117.69659,E,0.013,,181217,,,D*6C
$GNRMC,213352.00,A,3114.53809,N,12117.69656,E,0.003,,181217,,,D*6E
$GNRMC,213353.00,A,3114.53812,N,12117.69654,E,0.007,,181217,,,D*63
$GNRMC,213354.00,A,3114.53817,N,12117.69650,E,0.009,,181217,,,D*6B
$GNRMC,213355.00,A,3114.53823,N,12117.69646,E,0.012,,181217,,,D*60
$GNRMC,213356.00,A,3114.53830,N,12117.69640,E,0.005,,181217,,,D*61
$GNRMC,213357.00,A,3114.53838,N,12117.69634,E,0.015,,181217,,,D*6A
$GNRMC,213358.00,A,3114.53846,N,12117.69627,E,0.011,,181217,,,D*6A
$GNRMC,213359.00,A,3114.53854,N,12117.69620,E,0.008,,181217,,,D*67
$GNRMC,213400.00,A,3114.53863,N,12117.69614,E,0.013,,181217,,,D*65
$GNRMC,213401.00,A,3114.53871,N,12117.69607,E,0.000,,181217,,,D*67
$GNRMC,213402.00,A,3114.53875,N,12117.69601,E,0.009,,181217,,,D*6F
$GNRMC,213403.00,A,3114.53883,N,12117.69596,E,0.009,,181217,,,D*6A
$GNRMC,213404.00,A,3114.53890,N,12117.69591,E,0.005,,181217,,,D*64
$GNRMC,213405.00,A,3114.53895,N,12117.69587,E,0.009,,181217,,,D*6B
$GNRMC,213406.00,A,3114.53900,N,12117.69583,E,0.004,,181217,,,D*6C
$GNRMC,213407.00,A,3114.53905,N,12117.69578,E,0.008,,181217,,,D*60
$GNRMC,213408.00,A,3114.53909,N,12117.69576,E,0.009,,181217,,,D*6C
$GNRMC,213409.00,A,3114.53911,N,12117.69574,E,0.006,,181217,,,D*69
$GNRMC,213410.00,A,3114.53913,N,12117.69573,E,0.009,,181217,,,D*6B
$GNRMC,213411.00,A,3114.53914,N,12117.69573,E,0.010,,181217,,,D*65
$GNRMC,213412.00,A,3114.53915,N,12117.69573,E,0.006,,181217,,,D*60
$GNRMC,213413.00,A,3114.53914,N,12117.69575,E,0.010,,181217,,,D*61
$GNRMC,213414.00,A,3114.53915,N,12117.69577,E,0.006,,181217,,,D*62
$GNRMC,213415.00,A,3114.53915,N,12117.69578,E,0.013,,181217,,,D*68
$GNRMC,213416.00,A,3114.53915,N,12117.69579,E,0.014,,181217,,,D*6D
$GNRMC,213417.00,A,3114.53914,N,12117.69580,E,0.007,,181217,,,D*69
$GNRMC,213418.00,A,3114.53913,N,12117.69580,E,0.006,,181217,,,D*60
$GNRMC,213419.00,A,3114.53913,N,12117.69581,E,0.012,,181217,,,D*65
$GNRMC,213420.00,A,3114.53913,N,12117.69580,E,0.004,,181217,,,D*69
$GNRMC,213421.00,A,3114.53913,N,12117.69580,E,0.013,,181217,,,D*6E
$GNRMC,213422.00,A,3114.53913,N,12117.69580,E,0.008,,181217,,,D*67
$GNRMC,213423.00,A,3114.53912,N,12117.69580,E,0.008,,181217,,,D*67
$GNRMC,213424.00,A,3114.53911,N,12117.69580,E,0.003,,181217,,,D*68
$GNRMC,213425.00,A,3114.53911,N,12117.69581,E,0.002,,181217,,,D*69
$GNRMC,213426.00,A,3114.53909,N,12117.69582,E,0.009,,181217,,,D*6B
$GNRMC,213427.00,A,3114.53908,N,12117.69584,E,0.009,,181217,,,D*6D
$GNRMC,213428.00,A,3114.53906,N,12117.69586,E,0.009,,181217,,,D*6E
$GNRMC,213429.00,A,3114.53904,N,12117.69589,E,0.007,,181217,,,D*6C
$GNRMC,213430.00,A,3114.53901,N,12117.69591,E,0.009,,181217,,,D*66
$GNRMC,213431.00,A,3114.53901,N,12117.69594,E,0.002,,181217,,,D*69
$GNRMC,213432.00,A,3114.53899,N,12117.69596,E,0.006,,181217,,,D*6C
$GNRMC,213433.00,A,3114.53897,N,12117.69598,E,0.017,,181217,,,D*6D
$GNRMC,213434.00,A,3114.53896,N,12117.69601,E,0.023,,181217,,,D*6F
$GNRMC,213435.00,A,3114.53897,N,12117.69606,E,0.012,,181217,,,D*6A
$GNRMC,213436.00,A,3114.53899,N,12117.69610,E,0.011,,181217,,,D*63
$GNRMC,213437.00,A,3114.53899,N,12117.69616,E,0.012,,181217,,,D*67
$GNRMC,213438.00,A,3114.53898,N,12117.69623,E,0.018,,181217,,,D*65
$GNRMC,213439.00,A,3114.53898,N,12117.69631,E,0.014,,181217,,,D*6B
$GNRMC,213440.00,A,3114.53900,N,12117.69644,E,0.009,,181217,,,D*6B
$GNRMC,213441.00,A,3114.53902,N,12117.69654,E,0.014,,181217,,,D*65
$GNRMC,213442.00,A,3114.53905,N,12117.69663,E,0.025,,181217,,,D*67
$GNRMC,213443.00,A,3114.53904,N,12117.69668,E,0.012,,181217,,,D*68
$GNRMC,213444.00,A,3114.53903,N,12117.69672,E,0.002,,181217,,,D*62
$GNRMC,213445.00,A,3114.53900,N,12117.69676,E,0.014,,181217,,,D*63
$GNRMC,213446.00,A,3114.53898,N,12117.69679,E,0.029,,181217,,,D*61
$GNRMC,213447.00,A,3114.53898,N,12117.69683,E,0.013,,181217,,,D*6C
$GNRMC,213448.00,A,3114.53899,N,12117.69689,E,0.014,,181217,,,D*6F
$GNRMC,213449.00,A,3114.53898,N,12117.69693,E,0.007,,181217,,,D*66
$GNRMC,213450.00,A,3114.53901,N,12117.69701,E,0.003,,181217,,,D*61
$GNRMC,213451.00,A,3114.53901,N,12117.69708,E,0.015,,181217,,,D*6E
$GNRMC,213452.00,A,3114.53902,N,12117.69716,E,0.013,,181217,,,D*67
$GNRMC,213453.00,A,3114.53903,N,12117.69722,E,0.010,,181217,,,D*63
$GNRMC,213454.00,A,3114.53903,N,12117.69728,E,0.011,,181217,,,D*6F
$GNRMC,213455.00,A,3114.53903,N,12117.69734,E,0.005,,181217,,,D*66
$GNRMC,213456.00,A,3114.53901,N,12117.69736,E,0.011,,181217,,,D*60
$GNRMC,213457.00,A,3114.53899,N,12117.69739,E,0.017,,181217,,,D*68
$GNRMC,213458.00,A,3114.53898,N,12117.69741,E,0.017,,181217,,,D*69
$GNRMC,213459.00,A,3114.53896,N,12117.69743,E,0.007,,181217,,,D*65
$GNRMC,213500.00,A,3114.53894,N,12117.69745,E,0.009,,181217,,,D*62
$GNRMC,213501.00,A,3114.53891,N,12117.69747,E,0.005,,181217,,,D*68
$GNRMC,213502.00,A,3114.53890,N,12117.69748,E,0.006,,181217,,,D*66
$GNRMC,213503.00,A,3114.53889,N,12117.69749,E,0.010,,181217,,,D*69
$GNRMC,213504.00,A,3114.53888,N,12117.69749,E,0.008,,181217,,,D*66
$GNRMC,213505.00,A,3114.53888,N,12117.69749,E,0.018,,181217,,,D*66
$GNRMC,213506.00,A,3114.53886,N,12117.69748,E,0.014,,181217,,,D*66
$GNRMC,213507.00,A,3114.53886,N,12117.69747,E,0.016,,181217,,,D*6A
$GNRMC,213508.00,A,3114.53885,N,12117.69747,E,0.008,,181217,,,D*69
$GNRMC,213509.00,A,3114.53884,N,12117.69746,E,0.009,,181217,,,D*69
$GNRMC,213510.00,A,3114.53883,N,12117.69745,E,0.015,,181217,,,D*68
$GNRMC,213511.00,A,3114.53882,N,12117.69743,E,0.010,,181217,,,D*6B
$GNRMC,213512.00,A,3114.53882,N,12117.69741,E,0.005,,181217,,,D*6E
$GNRMC,213513.00,A,3114.53881,N,12117.69740,E,0.007,,181217,,,D*6F
$GNRMC,213514.00,A,3114.53880,N,12117.69737,E,0.015,,181217,,,D*6A
$GNRMC,213515.00,A,3114.53879,N,12117.69736,E,0.023,,181217,,,D*69
$GNRMC,213516.00,A,3114.53876,N,12117.69735,E,0.015,,181217,,,D*63
$GNRMC,213517.00,A,3114.53871,N,12117.69734,E,0.024,,181217,,,D*66
$GNRMC,213518.00,A,3114.53868,N,12117.69735,E,0.011,,181217,,,D*66
$GNRMC,213519.00,A,3114.53864,N,12117.69736,E,0.015,,181217,,,D*6C
$GNRMC,213520.00,A,3114.53860,N,12117.69737,E,0.015,,181217,,,D*63
$GNRMC,213521.00,A,3114.53856,N,12117.69738,E,0.015,,181217,,,D*68
$GNRMC,213522.00,A,3114.53852,N,12117.69740,E,0.029,,181217,,,D*6F
$GNRMC,213523.00,A,3114.53848,N,12117.69741,E,0.016,,181217,,,D*68
$GNRMC,213524.00,A,3114.53845,N,12117.69744,E,0.009,,181217,,,D*69
$GNRMC,213525.00,A,3114.53840,N,12117.69745,E,0.014,,181217,,,D*60
$GNRMC,213526.00,A,3114.53834,N,12117.69748,E,0.011,,181217,,,D*68
$GNRMC,213527.00,A,3114.53828,N,12117.69751,E,0.014,,181217,,,D*69
$GNRMC,213528.00,A,3114.53821,N,12117.69753,E,0.006,,181217,,,D*6E
$GNRMC,213529.00,A,3114.53814,N,12117.69756,E,0.022,,181217,,,D*6A
$GNRMC,213530.00,A,3114.53809,N,12117.69759,E,0.009,,181217,,,D*68
$GNRMC,213531.00,A,3114.53803,N,12117.69760,E,0.017,,181217,,,D*66
$GNRMC,213532.00,A,3114.53797,N,12117.69761,E,0.014,,181217,,,D*65
$GNRMC,213533.00,A,3114.53793,N,12117.69761,E,0.006,,181217,,,D*63
$GNRMC,213534.00,A,3114.53790,N,12117.69762,E,0.018,,181217,,,D*6B
$GNRMC,213535.00,A,3114.53787,N,12117.69763,E,0.007,,181217,,,D*63
$GNRMC,213536.00,A,3114.53787,N,12117.69763,E,0.006,,181217,,,D*61
$GNRMC,213537.00,A,3114.53785,N,12117.69764,E,0.014,,181217,,,D*66
$GNRMC,213538.00,A,3114.53783,N,12117.69765,E,0.013,,181217,,,D*69
$GNRMC,213539.00,A,3114.53781,N,12117.69766,E,0.010,,181217,,,D*6A
$GNRMC,213540.00,A,3114.53780,N,12117.69768,E,0.010,,181217,,,D*6B
$GNRMC,213541.00,A,3114.53777,N,12117.69771,E,0.010,,181217,,,D*6A
$GNRMC,213542.00,A,3114.53776,N,12117.69772,E,0.006,,181217,,,D*6C
$GNRMC,213543.00,A,3114.53777,N,12117.69773,E,0.010,,181217,,,D*6A
$GNRMC,213544.00,A,3114.53776,N,12117.69772,E,0.004,,181217,,,D*68
$GNRMC,213545.00,A,3114.53775,N,12117.69771,E,0.018,,181217,,,D*64
$GNRMC,213546.00,A,3114.53773,N,12117.69769,E,0.010,,181217,,,D*60
$GNRMC,213547.00,A,3114.53772,N,12117.69767,E,0.009,,181217,,,D*66
$GNRMC,213548.00,A,3114.53770,N,12117.69764,E,0.016,,181217,,,D*66
$GNRMC,213549.00,A,3114.53769,N,12117.69761,E,0.016,,181217,,,D*6A
$GNRMC,213550.00,A,3114.53766,N,12117.69759,E,0.010,,181217,,,D*60
$GNRMC,213551.00,A,3114.53764,N,12117.69757,E,0.010,,181217,,,D*6D
$GNRMC,213552.00,A,3114.53764,N,12117.69754,E,0.011,,181217,,,D*6C
$GNRMC,213553.00,A,3114.53764,N,12117.69751,E,0.007,,181217,,,D*6F
$GNRMC,213554.00,A,3114.53765,N,12117.69749,E,0.006,,181217,,,D*61
$GNRMC,213555.00,A,3114.53765,N,12117.69746,E,0.014,,181217,,,D*6C
$GNRMC,213556.00,A,3114.53763,N,12117.69744,E,0.007,,181217,,,D*69
$GNRMC,213557.00,A,3114.53761,N,12117.69743,E,0.012,,181217,,,D*69
$GNRMC,213558.00,A,3114.53760,N,12117.69741,E,0.012,,181217,,,D*65
$GNRMC,213559.00,A,3114.53757,N,12117.69741,E,0.004,,181217,,,D*67
$GNRMC,213600.00,A,3114.53755,N,12117.69741,E,0.003,,181217,,,D*6D
$GNRMC,213601.00,A,3114.53754,N,12117.69740,E,0.011,,181217,,,D*6F
$GNRMC,213602.00,A,3114.53752,N,12117.69741,E,0.012,,181217,,,D*68
$GNRMC,213603.00,A,3114.53750,N,12117.69740,E,0.015,,181217,,,D*6D
$GNRMC,213604.00,A,3114.53749,N,12117.69737,E,0.001,,181217,,,D*67
$GNRMC,213605.00,A,3114.53749,N,12117.69735,E,0.021,,181217,,,D*66
$GNRMC,213606.00,A,3114.53749,N,12117.69732,E,0.005,,181217,,,D*64
$GNRMC,213607.00,A,3114.53749,N,12117.69729,E,0.013,,181217,,,D*68
$GNRMC,213608.00,A,3114.53749,N,12117.69727,E,0.016,,181217,,,D*6C
$GNRMC,213609.00,A,3114.53748,N,12117.69728,E,0.024,,181217,,,D*62
$GNRMC,213610.00,A,3114.53748,N,12117.69728,E,0.010,,181217,,,D*6D
$GNRMC,213611.00,A,3114.53749,N,12117.69728,E,0.001,,181217,,,D*6D
$GNRMC,213612.00,A,3114.53751,N,12117.69728,E,0.011,,181217,,,D*66
$GNRMC,213613.00,A,3114.53753,N,12117.69726,E,0.012,,181217,,,D*68
$GNRMC,213614.00,A,3114.53758,N,12117.69724,E,0.007,,181217,,,D*62
$GNRMC,213615.00,A,3114.53761,N,12117.69722,E,0.020,,181217,,,D*6A
$GNRMC,213616.00,A,3114.53764,N,12117.69721,E,0.007,,181217,,,D*6A
$GNRMC,213617.00,A,3114.53766,N,12117.69719,E,0.010,,181217,,,D*64
$GNRMC,213618.00,A,3114.53766,N,12117.69719,E,0.013,,181217,,,D*68
$GNRMC,213619.00,A,3114.53766,N,12117.69718,E,0.020,,181217,,,D*68
$GNRMC,213620.00,A,3114.53766,N,12117.69718,E,0.008,,181217,,,D*68
$GNRMC,213621.00,A,3114.53765,N,12117.69717,E,0.012,,181217,,,D*6E
$GNRMC,213622.00,A,3114.53764,N,12117.69716,E,0.005,,181217,,,D*6B
$GNRMC,213623.00,A,3114.53763,N,12117.69714,E,0.012,,181217,,,D*69
$GNRMC,213624.00,A,3114.53762,N,12117.69712,E,0.018,,181217,,,D*63
$GNRMC,213625.00,A,3114.53761,N,12117.69710,E,0.018,,181217,,,D*63
$GNRMC,213626.00,A,3114.53760,N,12117.69710,E,0.004,,181217,,,D*6C
$GNRMC,213627.00,A,3114.53759,N,12117.69711,E,0.010,,181217,,,D*63
$GNRMC,213628.00,A,3114.53758,N,12117.69712,E,0.015,,181217,,,D*6B
$GNRMC,213629.00,A,3114.53758,N,12117.69714,E,0.007,,181217,,,D*6F
$GNRMC,213630.00,A,3114.53758,N,12117.69716,E,0.013,,181217,,,D*60
$GNRMC,213631.00,A,3114.53759,N,12117.69718,E,0.023,,181217,,,D*6D
$GNRMC,213632.00,A,3114.53761,N,12117.69719,E,0.003,,181217,,,D*66
$GNRMC,213633.00,A,3114.53764,N,12117.69719,E,0.002,,181217,,,D*63
$GNRMC,213634.00,A,3114.53767,N,12117.69716,E,0.008,,181217,,,D*62
$GNRMC,213635.00,A,3114.53772,N,12117.69714,E,0.012,,181217,,,D*6E
$GNRMC,213636.00,A,3114.53777,N,12117.69713,E,0.010,,181217,,,D*6D
$GNRMC,213637.00,A,3114.53785,N,12117.69710,E,0.018,,181217,,,D*6A
$GNRMC,213638.00,A,3114.53790,N,12117.69707,E,0.014,,181217,,,D*6B
$GNRMC,213639.00,A,3114.53795,N,12117.69703,E,0.008,,181217,,,D*66
$GNRMC,213640.00,A,3114.53801,N,12117.69702,E,0.016,,181217,,,D*64
$GNRMC,213641.00,A,3114.53805,N,12117.69701,E,0.011,,181217,,,D*65
$GNRMC,213642.00,A,3114.53809,N,12117.69698,E,0.006,,181217,,,D*6D
$GNRMC,213643.00,A,3114.53814,N,12117.69696,E,0.006,,181217,,,D*6E
$GNRMC,213644.00,A,3114.53818,N,12117.69692,E,0.002,,181217,,,D*65
$GNRMC,213645.00,A,3114.53820,N,12117.69689,E,0.030,,181217,,,D*64
$GNRMC,213646.00,A,3114.53823,N,12117.69686,E,0.001,,181217,,,D*69
$GNRMC,213647.00,A,3114.53826,N,12117.69683,E,0.009,,181217,,,D*60
$GNRMC,213648.00,A,3114.53829,N,12117.69681,E,0.011,,181217,,,D*6B
$GNRMC,213649.00,A,3114.53832,N,12117.69678,E,0.014,,181217,,,D*63
$GNRMC,213650.00,A,3114.53836,N,12117.69673,E,0.002,,181217,,,D*63
$GNRMC,213651.00,A,3114.53839,N,12117.69669,E,0.006,,181217,,,D*62
$GNRMC,213652.00,A,3114.53842,N,12117.69662,E,0.002,,181217,,,D*62
$GNRMC,213653.00,A,3114.53845,N,12117.69655,E,0.016,,181217,,,D*65
$GNRMC,213654.00,A,3114.53848,N,12117.69648,E,0.015,,181217,,,D*60
$GNRMC,213655.00,A,3114.53852,N,12117.69642,E,0.021,,181217,,,D*67
$GNRMC,213656.00,A,3114.53855,N,12117.69636,E,0.021,,181217,,,D*60
$GNRMC,213657.00,A,3114.53858,N,12117.69631,E,0.005,,181217,,,D*6D
$GNRMC,213658.00,A,3114.53861,N,12117.69628,E,0.002,,181217,,,D*67
$GNRMC,213659.00,A,3114.53862,N,12117.69627,E,0.008,,181217,,,D*60
$GNRMC,213700.00,A,3114.53863,N,12117.69627,E,0.015,,181217,,,D*60
$GNRMC,213701.00,A,3114.53863,N,12117.69628,E,0.005,,181217,,,D*6F
$GNRMC,213702.00,A,3114.53863,N,12117.69629,E,0.007,,181217,,,D*6F
$GNRMC,213703.00,A,3114.53862,N,12117.69629,E,0.009,,181217,,,D*61
$GNRMC,213704.00,A,3114.53862,N,12117.69628,E,0.012,,181217,,,D*6D
$GNRMC,213705.00,A,3114.53862,N,12117.69628,E,0.012,,181217,,,D*6C
$GNRMC,213706.00,A,3114.53862,N,12117.69628,E,0.006,,181217,,,D*6A
$GNRMC,213707.00,A,3114.53861,N,12117.69627,E,0.001,,181217,,,D*60
$GNRMC,213708.00,A,3114.53860,N,12117.69627,E,0.012,,181217,,,D*6C
$GNRMC,213709.00,A,3114.53858,N,12117.69628,E,0.006,,181217,,,D*6C
$GNRMC,213710.00,A,3114.53856,N,12117.69629,E,0.010,,181217,,,D*6C
$GNRMC,213711.00,A,3114.53853,N,12117.69630,E,0.008,,181217,,,D*69
$GNRMC,213712.00,A,3114.53852,N,12117.69629,E,0.003,,181217,,,D*68
$GNRMC,213713.00,A,3114.53850,N,12117.69628,E,0.006,,181217,,,D*6F
$GNRMC,213714.00,A,3114.53848,N,12117.69628,E,0.007,,181217,,,D*60
$GNRMC,213715.00,A,3114.53845,N,12117.69626,E,0.014,,181217,,,D*60
$GNRMC,213716.00,A,3114.53843,N,12117.69625,E,0.015,,181217,,,D*67
$GNRMC,213717.00,A,3114.53842,N,12117.69625,E,0.006,,181217,,,D*65
$GNRMC,213718.00,A,3114.53841,N,12117.69627,E,0.012,,181217,,,D*6E
$GNRMC,213719.00,A,3114.53840,N,12117.69629,E,0.006,,181217,,,D*65
$GNRMC,213720.00,A,3114.53839,N,12117.69631,E,0.006,,181217,,,D*68
$GNRMC,213721.00,A,3114.53837,N,12117.69631,E,0.014,,181217,,,D*64
$GNRMC,213722.00,A,3114.53835,N,12117.69632,E,0.002,,181217,,,D*61
$GNRMC,213723.00,A,3114.53832,N,12117.69631,E,0.009,,181217,,,D*6F
$GNRMC,213724.00,A,3114.53828,N,12117.69631,E,0.003,,181217,,,D*69
$GNRMC,213725.00,A,3114.53827,N,12117.69630,E,0.019,,181217,,,D*6D
$GNRMC,213726.00,A,3114.53826,N,12117.69628,E,0.007,,181217,,,D*69
$GNRMC,213727.00,A,3114.53826,N,12117.69626,E,0.012,,181217,,,D*62
$GNRMC,213728.00,A,3114.53825,N,12117.69625,E,0.007,,181217,,,D*69
$GNRMC,213729.00,A,3114.53824,N,12117.69624,E,0.014,,181217,,,D*6A
$GNRMC,213730.00,A,3114.53824,N,12117.69625,E,0.006,,181217,,,D*60
$GNRMC,213731.00,A,3114.53826,N,12117.69626,E,0.004,,181217,,,D*62
$GNRMC,213732.00,A,3114.53830,N,12117.69628,E,0.010,,181217,,,D*6D
$GNRMC,213733.00,A,3114.53833,N,12117.69629,E,0.013,,181217,,,D*6D
$GNRMC,213734.00,A,3114.53837,N,12117.69629,E,0.013,,181217,,,D*6E
$GNRMC,213735.00,A,3114.53841,N,12117.69628,E,0.008,,181217,,,D*65
$GNRMC,213736.00,A,3114.53847,N,12117.69626,E,0.006,,181217,,,D*60
$GNRMC,213737.00,A,3114.53848,N,12117.69622,E,0.007,,181217,,,D*6B
$GNRMC,213738.00,A,3114.53851,N,12117.69618,E,0.014,,181217,,,D*67
$GNRMC,213739.00,A,3114.53852,N,12117.69615,E,0.005,,181217,,,D*68
$GNRMC,213740.00,A,3114.53853,N,12117.69614,E,0.008,,181217,,,D*6B
$GNRMC,213741.00,A,3114.53853,N,12117.69612,E,0.003,,181217,,,D*67
$GNRMC,213742.00,A,3114.53851,N,12117.69612,E,0.011,,181217,,,D*65
$GNRMC,213743.00,A,3114.53851,N,12117.69613,E,0.020,,181217,,,D*67
$GNRMC,213744.00,A,3114.53852,N,12117.69612,E,0.006,,181217,,,D*66
$GNRMC,213745.00,A,3114.53852,N,12117.69611,E,0.014,,181217,,,D*67
$GNRMC,213746.00,A,3114.53854,N,12117.69610,E,0.010,,181217,,,D*67
$GNRMC,213747.00,A,3114.53858,N,12117.69611,E,0.002,,181217,,,D*68
$GNRMC,213748.00,A,3114.53859,N,12117.69610,E,0.012,,181217,,,D*66
$GNRMC,213749.00,A,3114.53861,N,12117.69610,E,0.010,,181217,,,D*6E
$GNRMC,213750.00,A,3114.53862,N,12117.69608,E,0.012,,181217,,,D*6E
$GNRMC,213751.00,A,3114.53866,N,12117.69609,E,0.002,,181217,,,D*6B
$GNRMC,213752.00,A,3114.53867,N,12117.69609,E,0.002,,181217,,,D*69
$GNRMC,213753.00,A,3114.53867,N,12117.69608,E,0.007,,181217,,,D*6C
$GNRMC,213754.00,A,3114.53867,N,12117.69607,E,0.008,,181217,,,D*6B
$GNRMC,213755.00,A,3114.53866,N,12117.69606,E,0.007,,181217,,,D*65
$GNRMC,213756.00,A,3114.53864,N,12117.69605,E,0.013,,181217,,,D*62
$GNRMC,213757.00,A,3114.53865,N,12117.69603,E,0.009,,181217,,,D*6F
$GNRMC,213758.00,A,3114.53866,N,12117.69602,E,0.010,,181217,,,D*6A
$GNRMC,213759.00,A,3114.53867,N,12117.69602,E,0.005,,181217,,,D*6E
$GNRMC,213800.00,A,3114.53869,N,12117.69602,E,0.005,,181217,,,D*63
$GNRMC,213801.00,A,3114.53870,N,12117.69603,E,0.016,,181217,,,D*69
$GNRMC,213802.00,A,3114.53871,N,12117.69605,E,0.010,,181217,,,D*6B
$GNRMC,213803.00,A,3114.53871,N,12117.69605,E,0.006,,181217,,,D*6D
$GNRMC,213804.00,A,3114.53871,N,12117.69606,E,0.009,,181217,,,D*66
$GNRMC,213805.00,A,3114.53869,N,12117.69607,E,0.003,,181217,,,D*65
$GNRMC,213806.00,A,3114.53868,N,12117.69607,E,0.005,,181217,,,D*61
$GNRMC,213807.00,A,3114.53868,N,12117.69606,E,0.004,,181217,,,D*60
$GNRMC,213808.00,A,3114.53869,N,12117.69606,E,0.004,,181217,,,D*6E
$GNRMC,213809.00,A,3114.53871,N,12117.69606,E,0.007,,181217,,,D*65
$GNRMC,213810.00,A,3114.53873,N,12117.69605,E,0.004,,181217,,,D*6F
$GNRMC,213811.00,A,3114.53874,N,12117.69603,E,0.015,,181217,,,D*6F
$GNRMC,213812.00,A,3114.53875,N,12117.69602,E,0.013,,181217,,,D*6A
$GNRMC,213813.00,A,3114.53877,N,12117.69602,E,0.011,,181217,,,D*6B
$GNRMC,213814.00,A,3114.53877,N,12117.69602,E,0.007,,181217,,,D*6B
$GNRMC,213815.00,A,3114.53878,N,12117.69603,E,0.013,,181217,,,D*61
$GNRMC,213816.00,A,3114.53880,N,12117.69602,E,0.007,,181217,,,D*61
$GNRMC,213817.00,A,3114.53879,N,12117.69602,E,0.004,,181217,,,D*65
$GNRMC,213818.00,A,3114.53879,N,12117.69602,E,0.008,,181217,,,D*66
$GNRMC,213819.00,A,3114.53878,N,12117.69602,E,0.011,,181217,,,D*6E
$GNRMC,213820.00,A,3114.53876,N,12117.69602,E,0.005,,181217,,,D*6F
$GNRMC,213821.00,A,3114.53874,N,12117.69602,E,0.015,,181217,,,D*6D
$GNRMC,213822.00,A,3114.53874,N,12117.69603,E,0.011,,181217,,,D*6B
$GNRMC,213823.00,A,3114.53874,N,12117.69603,E,0.009,,181217,,,D*63
$GNRMC,213824.00,A,3114.53876,N,12117.69603,E,0.006,,181217,,,D*69
$GNRMC,213825.00,A,3114.53876,N,12117.69603,E,0.017,,181217,,,D*68
$GNRMC,213826.00,A,3114.53876,N,12117.69603,E,0.020,,181217,,,D*6F
$GNRMC,213827.00,A,3114.53877,N,12117.69602,E,0.016,,181217,,,D*6B
$GNRMC,213828.00,A,3114.53877,N,12117.69602,E,0.006,,181217,,,D*65
$GNRMC,213829.00,A,3114.53878,N,12117.69601,E,0.017,,181217,,,D*68
$GNRMC,213830.00,A,3114.53877,N,12117.69599,E,0.006,,181217,,,D*6D
$GNRMC,213831.00,A,3114.53878,N,12117.69599,E,0.004,,181217,,,D*61
$GNRMC,213832.00,A,3114.53879,N,12117.69599,E,0.004,,181217,,,D*63
$GNRMC,213833.00,A,3114.53880,N,12117.69599,E,0.010,,181217,,,D*61
$GNRMC,213834.00,A,3114.53880,N,12117.69599,E,0.004,,181217,,,D*63
$GNRMC,213835.00,A,3114.53879,N,12117.69599,E,0.004,,181217,,,D*64
$GNRMC,213836.00,A,3114.53877,N,12117.69598,E,0.013,,181217,,,D*6E
$GNRMC,213837.00,A,3114.53876,N,12117.69599,E,0.004,,181217,,,D*69
$GNRMC,213838.00,A,3114.53874,N,12117.69599,E,0.010,,181217,,,D*61
$GNRMC,213839.00,A,3114.53872,N,12117.69600,E,0.006,,181217,,,D*62
$GNRMC,213840.00,A,3114.53871,N,12117.69601,E,0.007,,181217,,,D*6F
$GNRMC,213841.00,A,3114.53870,N,12117.69602,E,0.002,,181217,,,D*69
$GNRMC,213842.00,A,3114.53870,N,12117.69603,E,0.004,,181217,,,D*6D
$GNRMC,213843.00,A,3114.53871,N,12117.69605,E,0.011,,181217,,,D*6F
$GNRMC,213844.00,A,3114.53870,N,12117.69606,E,0.011,,181217,,,D*6A
$GNRMC,213845.00,A,3114.53868,N,12117.69605,E,0.009,,181217,,,D*68
$GNRMC,213846.00,A,3114.53866,N,12117.69604,E,0.018,,181217,,,D*64
$GNRMC,213847.00,A,3114.53865,N,12117.69602,E,0.007,,181217,,,D*6E
$GNRMC,213848.00,A,3114.53862,N,12117.69601,E,0.009,,181217,,,D*6B
$GNRMC,213849.00,A,3114.53859,N,12117.69600,E,0.007,,181217,,,D*6D
$GNRMC,213850.00,A,3114.53857,N,12117.69600,E,0.008,,181217,,,D*64
$GNRMC,213851.00,A,3114.53856,N,12117.69599,E,0.007,,181217,,,D*68
$GNRMC,213852.00,A,3114.53855,N,12117.69597,E,0.009,,181217,,,D*68
$GNRMC,213853.00,A,3114.53855,N,12117.69594,E,0.011,,181217,,,D*63
$GNRMC,213854.00,A,3114.53855,N,12117.69592,E,0.002,,181217,,,D*60
$GNRMC,213855.00,A,3114.53855,N,12117.69590,E,0.010,,181217,,,D*60
$GNRMC,213856.00,A,3114.53853,N,12117.69588,E,0.019,,181217,,,D*65
$GNRMC,213857.00,A,3114.53850,N,12117.69585,E,0.013,,181217,,,D*60
$GNRMC,213858.00,A,3114.53847,N,12117.69583,E,0.006,,181217,,,D*6B
$GNRMC,213859.00,A,3114.53844,N,12117.69580,E,0.013,,181217,,,D*6E
$GNRMC,213900.00,A,3114.53841,N,12117.69576,E,0.007,,181217,,,D*6A
$GNRMC,213901.00,A,3114.53838,N,12117.69572,E,0.005,,181217,,,D*63
$GNRMC,213902.00,A,3114.53835,N,12117.69568,E,0.008,,181217,,,D*6B
$GNRMC,213903.00,A,3114.53833,N,12117.69563,E,0.007,,181217,,,D*68
$GNRMC,213904.00,A,3114.53830,N,12117.69557,E,0.003,,181217,,,D*6F
$GNRMC,213905.00,A,3114.53828,N,12117.69551,E,0.010,,181217,,,D*63
$GNRMC,213906.00,A,3114.53825,N,12117.69546,E,0.008,,181217,,,D*62
$GNRMC,213907.00,A,3114.53823,N,12117.69540,E,0.012,,181217,,,D*68
$GNRMC,213908.00,A,3114.53820,N,12117.69534,E,0.002,,181217,,,D*66
$GNRMC,213909.00,A,3114.53817,N,12117.69529,E,0.010,,181217,,,D*6C
$GNRMC,213910.00,A,3114.53813,N,12117.69525,E,0.011,,181217,,,D*6D
$GNRMC,213911.00,A,3114.53810,N,12117.69521,E,0.008,,181217,,,D*63
$GNRMC,213912.00,A,3114.53809,N,12117.69517,E,0.003,,181217,,,D*66
$GNRMC,213913.00,A,3114.53807,N,12117.69513,E,0.014,,181217,,,D*6B
$GNRMC,213914.00,A,3114.53809,N,12117.69510,E,0.007,,181217,,,D*63
$GNRMC,213915.00,A,3114.53809,N,12117.69506,E,0.007,,181217,,,D*65
$GNRMC,213916.00,A,3114.53809,N,12117.69502,E,0.014,,181217,,,D*60
$GNRMC,213917.00,A,3114.53812,N,12117.69501,E,0.007,,181217,,,D*6A
$GNRMC,213918.00,A,3114.53812,N,12117.69498,E,0.004,,181217,,,D*67
$GNRMC,213919.00,A,3114.53813,N,12117.69495,E,0.003,,181217,,,D*6D
$GNRMC,213920.00,A,3114.53816,N,12117.69494,E,0.014,,181217,,,D*65
$GNRMC,213921.00,A,3114.53817,N,12117.69492,E,0.008,,181217,,,D*6E
$GNRMC,213922.00,A,3114.53818,N,12117.69489,E,0.005,,181217,,,D*65
$GNRMC,213923.00,A,3114.53821,N,12117.69487,E,0.003,,181217,,,D*66
$GNRMC,213924.00,A,3114.53824,N,12117.69486,E,0.003,,181217,,,D*65
$GNRMC,213925.00,A,3114.53826,N,12117.69485,E,0.015,,181217,,,D*62
$GNRMC,213926.00,A,3114.53829,N,12117.69484,E,0.007,,181217,,,D*6C
$GNRMC,213927.00,A,3114.53831,N,12117.69482,E,0.011,,181217,,,D*65
$GNRMC,213928.00,A,3114.53833,N,12117.69481,E,0.005,,181217,,,D*6E
$GNRMC,213929.00,A,3114.53835,N,12117.69480,E,0.005,,181217,,,D*68
$GNRMC,213930.00,A,3114.53836,N,12117.69479,E,0.010,,181217,,,D*61
$GNRMC,213931.00,A,3114.53837,N,12117.69477,E,0.012,,181217,,,D*6D
$GNRMC,213932.00,A,3114.53837,N,12117.69476,E,0.013,,181217,,,D*6E
$GNRMC,213933.00,A,3114.53838,N,12117.69474,E,0.020,,181217,,,D*62
$GNRMC,213934.00,A,3114.53839,N,12117.69473,E,0.005,,181217,,,D*64
$GNRMC,213935.00,A,3114.53839,N,12117.69472,E,0.014,,181217,,,D*64
$GNRMC,213936.00,A,3114.53839,N,12117.69472,E,0.005,,181217,,,D*67
$GNRMC,213937.00,A,3114.53841,N,12117.69472,E,0.009,,181217,,,D*65
$GNRMC,213938.00,A,3114.53843,N,12117.69474,E,0.014,,181217,,,D*62
$GNRMC,213939.00,A,3114.53846,N,12117.69474,E,0.006,,181217,,,D*65
$GNRMC,213940.00,A,3114.53848,N,12117.69474,E,0.010,,181217,,,D*62
$GNRMC,213941.00,A,3114.53852,N,12117.69473,E,0.004,,181217,,,D*6A
$GNRMC,213942.00,A,3114.53855,N,12117.69475,E,0.003,,181217,,,D*6F
$GNRMC,213943.00,A,3114.53857,N,12117.69479,E,0.007,,181217,,,D*64
$GNRMC,213944.00,A,3114.53856,N,12117.69485,E,0.012,,181217,,,D*65
$GNRMC,213945.00,A,3114.53854,N,12117.69492,E,0.007,,181217,,,D*64
$GNRMC,213946.00,A,3114.53853,N,12117.69498,E,0.012,,181217,,,D*6E
$GNRMC,213947.00,A,3114.53851,N,12117.69505,E,0.020,,181217,,,D*69
$GNRMC,213948.00,A,3114.53848,N,12117.69514,E,0.010,,181217,,,D*6D
$GNRMC,213949.00,A,3114.53846,N,12117.69524,E,0.019,,181217,,,D*68
$GNRMC,213950.00,A,3114.53843,N,12117.69530,E,0.014,,181217,,,D*6D
$GNRMC,213951.00,A,3114.53840,N,12117.69537,E,0.024,,181217,,,D*6B
$GNRMC,213952.00,A,3114.53837,N,12117.69543,E,0.002,,181217,,,D*6F
$GNRMC,213953.00,A,3114.53834,N,12117.69550,E,0.021,,181217,,,D*6E
$GNRMC,213954.00,A,3114.53831,N,12117.69557,E,0.006,,181217,,,D*6E
$GNRMC,213955.00,A,3114.53828,N,12117.69564,E,0.015,,181217,,,D*65
$GNRMC,213956.00,A,3114.53826,N,12117.69571,E,0.008,,181217,,,D*60
$GNRMC,213957.00,A,3114.53824,N,12117.69577,E,0.009,,181217,,,D*64
$GNRMC,213958.00,A,3114.53822,N,12117.69582,E,0.008,,181217,,,D*66
$GNRMC,213959.00,A,3114.53822,N,12117.69586,E,0.013,,181217,,,D*69
$GNRMC,214000.00,A,3114.53821,N,12117.69590,E,0.020,,181217,,,D*6F
$GNRMC,214001.00,A,3114.53820,N,12117.69597,E,0.004,,181217,,,D*6E
$GNRMC,214002.00,A,3114.53819,N,12117.69603,E,0.016,,181217,,,D*6A
$GNRMC,214003.00,A,3114.53818,N,12117.69612,E,0.012,,181217,,,D*6E
$GNRMC,214004.00,A,3114.53816,N,12117.69620,E,0.010,,181217,,,D*64
$GNRMC,214005.00,A,3114.53818,N,12117.69626,E,0.007,,181217,,,D*6B
$GNRMC,214006.00,A,3114.53815,N,12117.69631,E,0.011,,181217,,,D*64
$GNRMC,214007.00,A,3114.53807,N,12117.69643,E,0.026,,181217,,,D*67
$GNRMC,214008.00,A,3114.53801,N,12117.69653,E,0.016,,181217,,,D*6C
$GNRMC,214009.00,A,3114.53797,N,12117.69660,E,0.010,,181217,,,D*6B
$GNRMC,214010.00,A,3114.53797,N,12117.69665,E,0.006,,181217,,,D*61
$GNRMC,214011.00,A,3114.53797,N,12117.69669,E,0.008,,181217,,,D*62
$GNRMC,214012.00,A,3114.53797,N,12117.69671,E,0.010,,181217,,,D*61
$GNRMC,214013.00,A,3114.53798,N,12117.69671,E,0.020,,181217,,,D*6C
$GNRMC,214014.00,A,3114.53798,N,12117.69671,E,0.015,,181217,,,D*6D
$GNRMC,214015.00,A,3114.53799,N,12117.69672,E,0.011,,181217,,,D*6A
$GNRMC,214016.00,A,3114.53802,N,12117.69671,E,0.014,,181217,,,D*62
$GNRMC,214017.00,A,3114.53806,N,12117.69670,E,0.004,,181217,,,D*67
$GNRMC,214018.00,A,3114.53809,N,12117.69667,E,0.010,,181217,,,D*64
$GNRMC,214019.00,A,3114.53811,N,12117.69666,E,0.012,,181217,,,D*6F
$GNRMC,214020.00,A,3114.53815,N,12117.69665,E,0.004,,181217,,,D*65
$GNRMC,214021.00,A,3114.53820,N,12117.69663,E,0.005,,181217,,,D*65
$GNRMC,214022.00,A,3114.53824,N,12117.69661,E,0.015,,181217,,,D*61
$GNRMC,214023.00,A,3114.53827,N,12117.69659,E,0.006,,181217,,,D*6A
$GNRMC,214024.00,A,3114.53830,N,12117.69657,E,0.010,,181217,,,D*62
$GNRMC,214025.00,A,3114.53832,N,12117.69654,E,0.012,,181217,,,D*60
$GNRMC,214026.00,A,3114.53833,N,12117.69650,E,0.007,,181217,,,D*62
$GNRMC,214027.00,A,3114.53834,N,12117.69648,E,0.005,,181217,,,D*6F
$GNRMC,214028.00,A,3114.53835,N,12117.69645,E,0.004,,181217,,,D*6D
$GNRMC,214029.00,A,3114.53836,N,12117.69643,E,0.003,,181217,,,D*6E
$GNRMC,214030.00,A,3114.53836,N,12117.69640,E,0.014,,181217,,,D*63
$GNRMC,214031.00,A,3114.53835,N,12117.69638,E,0.019,,181217,,,D*63
$GNRMC,214032.00,A,3114.53835,N,12117.69633,E,0.016,,181217,,,D*64
$GNRMC,214033.00,A,3114.53836,N,12117.69629,E,0.015,,181217,,,D*6E
$GNRMC,214034.00,A,3114.53836,N,12117.69625,E,0.004,,181217,,,D*65
$GNRMC,214035.00,A,3114.53838,N,12117.69619,E,0.009,,181217,,,D*68
$GNRMC,214036.00,A,3114.53840,N,12117.69614,E,0.020,,181217,,,D*62
$GNRMC,214037.00,A,3114.53843,N,12117.69608,E,0.002,,181217,,,D*6D
$GNRMC,214038.00,A,3114.53845,N,12117.69603,E,0.001,,181217,,,D*6C
$GNRMC,214039.00,A,3114.53848,N,12117.69598,E,0.005,,181217,,,D*65
$GNRMC,214040.00,A,3114.53850,N,12117.69594,E,0.008,,181217,,,D*63
$GNRMC,214041.00,A,3114.53855,N,12117.69587,E,0.014,,181217,,,D*68
$GNRMC,214042.00,A,3114.53860,N,12117.69581,E,0.010,,181217,,,D*6F
$GNRMC,214043.00,A,3114.53864,N,12117.69575,E,0.010,,181217,,,D*61
$GNRMC,214044.00,A,3114.53867,N,12117.69570,E,0.016,,181217,,,D*66
$GNRMC,214045.00,A,3114.53871,N,12117.69564,E,0.012,,181217,,,D*61
$GNRMC,214046.00,A,3114.53874,N,12117.69561,E,0.003,,181217,,,D*62
$GNRMC,214047.00,A,3114.53876,N,12117.69557,E,0.005,,181217,,,D*62
$GNRMC,214048.00,A,3114.53878,N,12117.69554,E,0.008,,181217,,,D*6D
$GNRMC,214049.00,A,3114.53880,N,12117.69551,E,0.008,,181217,,,D*6E
$GNRMC,214050.00,A,3114.53882,N,12117.69547,E,0.006,,181217,,,D*6D
$GNRMC,214051.00,A,3114.53883,N,12117.69545,E,0.010,,181217,,,D*68
$GNRMC,214052.00,A,3114.53882,N,12117.69543,E,0.004,,181217,,,D*69
$GNRMC,214053.00,A,3114.53881,N,12117.69543,E,0.021,,181217,,,D*6C
$GNRMC,214054.00,A,3114.53879,N,12117.69543,E,0.006,,181217,,,D*69
$GNRMC,214055.00,A,3114.53876,N,12117.69544,E,0.015,,181217,,,D*62
$GNRMC,214056.00,A,3114.53871,N,12117.69546,E,0.018,,181217,,,D*69
$GNRMC,214057.00,A,3114.53866,N,12117.69548,E,0.014,,181217,,,D*6C
$GNRMC,214058.00,A,3114.53862,N,12117.69551,E,0.010,,181217,,,D*6B
$GNRMC,214059.00,A,3114.53858,N,12117.69554,E,0.013,,181217,,,D*65
$GNRMC,214100.00,A,3114.53854,N,12117.69555,E,0.013,,181217,,,D*65
$GNRMC,214101.00,A,3114.53849,N,12117.69557,E,0.012,,181217,,,D*6B
$GNRMC,214102.00,A,3114.53845,N,12117.69557,E,0.020,,181217,,,D*65
$GNRMC,214103.00,A,3114.53841,N,12117.69558,E,0.008,,181217,,,D*65
$GNRMC,214104.00,A,3114.53836,N,12117.69559,E,0.007,,181217,,,D*6C
$GNRMC,214105.00,A,3114.53833,N,12117.69560,E,0.009,,181217,,,D*6C
$GNRMC,214106.00,A,3114.53829,N,12117.69562,E,0.019,,181217,,,D*67
$GNRMC,214107.00,A,3114.53827,N,12117.69564,E,0.008,,181217,,,D*6E
$GNRMC,214108.00,A,3114.53824,N,12117.69566,E,0.007,,181217,,,D*6F
$GNRMC,214109.00,A,3114.53825,N,12117.69569,E,0.020,,181217,,,D*65
$GNRMC,214110.00,A,3114.53825,N,12117.69571,E,0.009,,181217,,,D*6F
$GNRMC,214111.00,A,3114.53824,N,12117.69574,E,0.025,,181217,,,D*64
$GNRMC,214112.00,A,3114.53822,N,12117.69577,E,0.013,,181217,,,D*67
$GNRMC,214113.00,A,3114.53821,N,12117.69579,E,0.014,,181217,,,D*6C
$GNRMC,214114.00,A,3114.53821,N,12117.69581,E,0.003,,181217,,,D*6A
$GNRMC,214115.00,A,3114.53821,N,12117.69582,E,0.008,,181217,,,D*63
$GNRMC,214116.00,A,3114.53819,N,12117.69584,E,0.017,,181217,,,D*63
$GNRMC,214117.00,A,3114.53818,N,12117.69586,E,0.010,,181217,,,D*66
$GNRMC,214118.00,A,3114.53817,N,12117.69588,E,0.012,,181217,,,D*6A
$GNRMC,214119.00,A,3114.53816,N,12117.69590,E,0.014,,181217,,,D*65
$GNRMC,214120.00,A,3114.53815,N,12117.69591,E,0.004,,181217,,,D*6C
$GNRMC,214121.00,A,3114.53813,N,12117.69591,E,0.006,,181217,,,D*69
$GNRMC,214122.00,A,3114.53812,N,12117.69590,E,0.006,,181217,,,D*6A
$GNRMC,214123.00,A,3114.53809,N,12117.69590,E,0.010,,181217,,,D*66
$GNRMC,214124.00,A,3114.53807,N,12117.69590,E,0.017,,181217,,,D*68
$GNRMC,214125.00,A,3114.53806,N,12117.69590,E,0.010,,181217,,,D*6F
$GNRMC,214126.00,A,3114.53808,N,12117.69591,E,0.006,,181217,,,D*64
$GNRMC,214127.00,A,3114.53809,N,12117.69591,E,0.009,,181217,,,D*6B
$GNRMC,214128.00,A,3114.53810,N,12117.69592,E,0.008,,181217,,,D*6E
$GNRMC,214129.00,A,3114.53811,N,12117.69593,E,0.009,,181217,,,D*6E
$GNRMC,214130.00,A,3114.53813,N,12117.69592,E,0.009,,181217,,,D*65
$GNRMC,214131.00,A,3114.53812,N,12117.69591,E,0.004,,181217,,,D*6B
$GNRMC,214132.00,A,3114.53812,N,12117.69590,E,0.007,,181217,,,D*6A
$GNRMC,214133.00,A,3114.53810,N,12117.69589,E,0.011,,181217,,,D*66
$GNRMC,214134.00,A,3114.53809,N,12117.69588,E,0.004,,181217,,,D*6C
$GNRMC,214135.00,A,3114.53807,N,12117.69588,E,0.003,,181217,,,D*64
$GNRMC,214136.00,A,3114.53805,N,12117.69587,E,0.004,,181217,,,D*6D
$GNRMC,214137.00,A,3114.53803,N,12117.69586,E,0.003,,181217,,,D*6C
$GNRMC,214138.00,A,3114.53800,N,12117.69586,E,0.007,,181217,,,D*64
$GNRMC,214139.00,A,3114.53795,N,12117.69585,E,0.009,,181217,,,D*6B
$GNRMC,214140.00,A,3114.53790,N,12117.69585,E,0.009,,181217,,,D*60
$GNRMC,214141.00,A,3114.53785,N,12117.69584,E,0.014,,181217,,,D*68
$GNRMC,214142.00,A,3114.53780,N,12117.69582,E,0.008,,181217,,,D*65
$GNRMC,214143.00,A,3114.53776,N,12117.69580,E,0.017,,181217,,,D*61
$GNRMC,214144.00,A,3114.53771,N,12117.69579,E,0.010,,181217,,,D*60
$GNRMC,214145.00,A,3114.53768,N,12117.69578,E,0.013,,181217,,,D*6B
$GNRMC,214146.00,A,3114.53765,N,12117.69576,E,0.002,,181217,,,D*6B
$GNRMC,214147.00,A,3114.53761,N,12117.69576,E,0.002,,181217,,,D*6E
$GNRMC,214148.00,A,3114.53759,N,12117.69574,E,0.017,,181217,,,D*6C
$GNRMC,214149.00,A,3114.53756,N,12117.69573,E,0.008,,181217,,,D*6B
$GNRMC,214150.00,A,3114.53752,N,12117.69572,E,0.007,,181217,,,D*69
$GNRMC,214151.00,A,3114.53750,N,12117.69571,E,0.006,,181217,,,D*68
$GNRMC,214152.00,A,3114.53749,N,12117.69569,E,0.009,,181217,,,D*65
$GNRMC,214153.00,A,3114.53748,N,12117.69566,E,0.011,,181217,,,D*63
$GNRMC,214154.00,A,3114.53747,N,12117.69564,E,0.010,,181217,,,D*68
$GNRMC,214155.00,A,3114.53746,N,12117.69562,E,0.009,,181217,,,D*66
$GNRMC,214156.00,A,3114.53743,N,12117.69559,E,0.004,,181217,,,D*65
$GNRMC,214157.00,A,3114.53742,N,12117.69557,E,0.003,,181217,,,D*6C
$GNRMC,214158.00,A,3114.53740,N,12117.69555,E,0.001,,181217,,,D*61
$GNRMC,214159.00,A,3114.53739,N,12117.69552,E,0.006,,181217,,,D*6E
$GNRMC,214200.00,A,3114.53738,N,12117.69550,E,0.012,,181217,,,D*67
$GNRMC,214201.00,A,3114.53739,N,12117.69547,E,0.003,,181217,,,D*61
$GNRMC,214202.00,A,3114.53740,N,12117.69544,E,0.008,,181217,,,D*64
$GNRMC,214203.00,A,3114.53741,N,12117.69542,E,0.012,,181217,,,D*69
$GNRMC,214204.00,A,3114.53741,N,12117.69540,E,0.010,,181217,,,D*6E
$GNRMC,214205.00,A,3114.53741,N,12117.69540,E,0.008,,181217,,,D*66
$GNRMC,214206.00,A,3114.53741,N,12117.69541,E,0.005,,181217,,,D*69
$GNRMC,214207.00,A,3114.53741,N,12117.69541,E,0.010,,181217,,,D*6C
$GNRMC,214208.00,A,3114.53742,N,12117.69541,E,0.009,,181217,,,D*68
$GNRMC,214209.00,A,3114.53742,N,12117.69541,E,0.005,,181217,,,D*65
$GNRMC,214210.00,A,3114.53743,N,12117.69541,E,0.003,,181217,,,D*6A
$GNRMC,214211.00,A,3114.53743,N,12117.69541,E,0.013,,181217,,,D*6A
$GNRMC,214212.00,A,3114.53743,N,12117.69541,E,0.009,,181217,,,D*62
$GNRMC,214213.00,A,3114.53744,N,12117.69540,E,0.012,,181217,,,D*6F
$GNRMC,214214.00,A,3114.53746,N,12117.69537,E,0.005,,181217,,,D*6C
$GNRMC,214215.00,A,3114.53750,N,12117.69533,E,0.006,,181217,,,D*6D
$GNRMC,214216.00,A,3114.53754,N,12117.69528,E,0.004,,181217,,,D*62
$GNRMC,214217.00,A,3114.53758,N,12117.69524,E,0.011,,181217,,,D*67
$GNRMC,214218.00,A,3114.53762,N,12117.69519,E,0.007,,181217,,,D*68
$GNRMC,214219.00,A,3114.53767,N,12117.69515,E,0.002,,181217,,,D*65
$GNRMC,214220.00,A,3114.53771,N,12117.69511,E,0.003,,181217,,,D*6D
$GNRMC,214221.00,A,3114.53776,N,12117.69506,E,0.014,,181217,,,D*6B
$GNRMC,214222.00,A,3114.53782,N,12117.69503,E,0.015,,181217,,,D*67
$GNRMC,214223.00,A,3114.53787,N,12117.69500,E,0.003,,181217,,,D*67
$GNRMC,214224.00,A,3114.53792,N,12117.69497,E,0.004,,181217,,,D*6C
$GNRMC,214225.00,A,3114.53797,N,12117.69494,E,0.021,,181217,,,D*6C
$GNRMC,214226.00,A,3114.53801,N,12117.69491,E,0.012,,181217,,,D*6A
$GNRMC,214227.00,A,3114.53804,N,12117.69489,E,0.006,,181217,,,D*62
$GNRMC,214228.00,A,3114.53807,N,12117.69487,E,0.001,,181217,,,D*67
$GNRMC,214229.00,A,3114.53810,N,12117.69486,E,0.006,,181217,,,D*66
$GNRMC,214230.00,A,3114.53814,N,12117.69485,E,0.009,,181217,,,D*66
$GNRMC,214231.00,A,3114.53817,N,12117.69484,E,0.005,,181217,,,D*69
$GNRMC,214232.00,A,3114.53819,N,12117.69486,E,0.004,,181217,,,D*67
$GNRMC,214233.00,A,3114.53821,N,12117.69487,E,0.004,,181217,,,D*6C
$GNRMC,214234.00,A,3114.53823,N,12117.69488,E,0.008,,181217,,,D*6A
$GNRMC,214235.00,A,3114.53824,N,12117.69490,E,0.014,,181217,,,D*68
$GNRMC,214236.00,A,3114.53826,N,12117.69491,E,0.015,,181217,,,D*69
$GNRMC,214237.00,A,3114.53827,N,12117.69493,E,0.003,,181217,,,D*6C
$GNRMC,214238.00,A,3114.53827,N,12117.69495,E,0.008,,181217,,,D*6E
$GNRMC,214239.00,A,3114.53827,N,12117.69498,E,0.011,,181217,,,D*6A
$GNRMC,214240.00,A,3114.53827,N,12117.69501,E,0.012,,181217,,,D*66
$GNRMC,214241.00,A,3114.53828,N,12117.69503,E,0.011,,181217,,,D*69
$GNRMC,214242.00,A,3114.53830,N,12117.69505,E,0.004,,181217,,,D*61
$GNRMC,214243.00,A,3114.53832,N,12117.69505,E,0.005,,181217,,,D*63
$GNRMC,214244.00,A,3114.53834,N,12117.69507,E,0.013,,181217,,,D*67
$GNRMC,214245.00,A,3114.53835,N,12117.69508,E,0.009,,181217,,,D*63
$GNRMC,214246.00,A,3114.53835,N,12117.69508,E,0.002,,181217,,,D*6B
$GNRMC,214247.00,A,3114.53835,N,12117.69509,E,0.011,,181217,,,D*69
$GNRMC,214248.00,A,3114.53834,N,12117.69509,E,0.000,,181217,,,D*67
$GNRMC,214249.00,A,3114.53833,N,12117.69511,E,0.008,,181217,,,D*60
$GNRMC,214250.00,A,3114.53832,N,12117.69514,E,0.012,,181217,,,D*67
$GNRMC,214251.00,A,3114.53831,N,12117.69516,E,0.003,,181217,,,D*67
$GNRMC,214252.00,A,3114.53830,N,12117.69519,E,0.015,,181217,,,D*6D
$GNRMC,214253.00,A,3114.53829,N,12117.69522,E,0.008,,181217,,,D*60
$GNRMC,214254.00,A,3114.53828,N,12117.69526,E,0.014,,181217,,,D*6F
$GNRMC,214255.00,A,3114.53827,N,12117.69530,E,0.007,,181217,,,D*64
$GNRMC,214256.00,A,3114.53825,N,12117.69533,E,0.024,,181217,,,D*67
$GNRMC,214257.00,A,3114.53823,N,12117.69535,E,0.010,,181217,,,D*61
$GNRMC,214258.00,A,3114.53822,N,12117.69538,E,0.004,,181217,,,D*67
$GNRMC,214259.00,A,3114.53820,N,12117.69540,E,0.006,,181217,,,D*69
$GNRMC,214300.00,A,3114.53818,N,12117.69543,E,0.002,,181217,,,D*68
$GNRMC,214301.00,A,3114.53816,N,12117.69547,E,0.004,,181217,,,D*65
$GNRMC,214302.00,A,3114.53814,N,12117.69550,E,0.011,,181217,,,D*66
$GNRMC,214303.00,A,3114.53814,N,12117.69553,E,0.011,,181217,,,D*64
$GNRMC,214304.00,A,3114.53812,N,12117.69555,E,0.009,,181217,,,D*6A
$GNRMC,214305.00,A,3114.53810,N,12117.69558,E,0.006,,181217,,,D*6B
$GNRMC,214306.00,A,3114.53808,N,12117.69562,E,0.007,,181217,,,D*69
$GNRMC,214307.00,A,3114.53806,N,12117.69565,E,0.006,,181217,,,D*60
$GNRMC,214308.00,A,3114.53804,N,12117.69568,E,0.005,,181217,,,D*63
$GNRMC,214309.00,A,3114.53802,N,12117.69572,E,0.010,,181217,,,D*6B
$GNRMC,214310.00,A,3114.53801,N,12117.69575,E,0.001,,181217,,,D*67
$GNRMC,214311.00,A,3114.53801,N,12117.69580,E,0.008,,181217,,,D*65
$GNRMC,214312.00,A,3114.53800,N,12117.69584,E,0.017,,181217,,,D*6D
$GNRMC,214313.00,A,3114.53799,N,12117.69586,E,0.002,,181217,,,D*65
$GNRMC,214314.00,A,3114.53800,N,12117.69589,E,0.007,,181217,,,D*67
$GNRMC,214315.00,A,3114.53800,N,12117.69593,E,0.015,,181217,,,D*6E
$GNRMC,214316.00,A,3114.53800,N,12117.69598,E,0.020,,181217,,,D*60
$GNRMC,214317.00,A,3114.53801,N,12117.69602,E,0.017,,181217,,,D*64
$GNRMC,214318.00,A,3114.53801,N,12117.69606,E,0.014,,181217,,,D*6C
$GNRMC,214319.00,A,3114.53801,N,12117.69608,E,0.007,,181217,,,D*61
$GNRMC,214320.00,A,3114.53802,N,12117.69611,E,0.008,,181217,,,D*6F
$GNRMC,214321.00,A,3114.53803,N,12117.69615,E,0.003,,181217,,,D*60
$GNRMC,214322.00,A,3114.53803,N,12117.69620,E,0.005,,181217,,,D*63
$GNRMC,214323.00,A,3114.53804,N,12117.69624,E,0.007,,181217,,,D*63
$GNRMC,214324.00,A,3114.53804,N,12117.69628,E,0.016,,181217,,,D*68
$GNRMC,214325.00,A,3114.53804,N,12117.69630,E,0.006,,181217,,,D*61
$GNRMC,214326.00,A,3114.53804,N,12117.69632,E,0.007,,181217,,,D*61
$GNRMC,214327.00,A,3114.53803,N,12117.69634,E,0.012,,181217,,,D*65
$GNRMC,214328.00,A,3114.53803,N,12117.69635,E,0.006,,181217,,,D*6E
$GNRMC,214329.00,A,3114.53803,N,12117.69636,E,0.009,,181217,,,D*63
$GNRMC,214330.00,A,3114.53804,N,12117.69638,E,0.002,,181217,,,D*69
$GNRMC,214331.00,A,3114.53804,N,12117.69641,E,0.015,,181217,,,D*60
$GNRMC,214332.00,A,3114.53806,N,12117.69643,E,0.001,,181217,,,D*66
$GNRMC,214333.00,A,3114.53807,N,12117.69647,E,0.002,,181217,,,D*61
$GNRMC,214334.00,A,3114.53809,N,12117.69649,E,0.009,,181217,,,D*6D
$GNRMC,214335.00,A,3114.53812,N,12117.69650,E,0.014,,181217,,,D*62
$GNRMC,214336.00,A,3114.53814,N,12117.69652,E,0.012,,181217,,,D*63
$GNRMC,214337.00,A,3114.53815,N,12117.69653,E,0.012,,181217,,,D*62
$GNRMC,214338.00,A,3114.53816,N,12117.69654,E,0.005,,181217,,,D*6F
$GNRMC,214339.00,A,3114.53817,N,12117.69656,E,0.010,,181217,,,D*69
$GNRMC,214340.00,A,3114.53818,N,12117.69657,E,0.012,,181217,,,D*6B
$GNRMC,214341.00,A,3114.53819,N,12117.69657,E,0.007,,181217,,,D*6F
$GNRMC,214342.00,A,3114.53820,N,12117.69658,E,0.004,,181217,,,D*6A
$GNRMC,214343.00,A,3114.53821,N,12117.69659,E,0.014,,181217,,,D*6A
$GNRMC,214344.00,A,3114.53821,N,12117.69660,E,0.008,,181217,,,D*6A
$GNRMC,214345.00,A,3114.53822,N,12117.69660,E,0.008,,181217,,,D*68
$GNRMC,214346.00,A,3114.53822,N,12117.69660,E,0.009,,181217,,,D*6A
$GNRMC,214347.00,A,3114.53822,N,12117.69660,E,0.021,,181217,,,D*61
$GNRMC,214348.00,A,3114.53821,N,12117.69660,E,0.009,,181217,,,D*67
$GNRMC,214349.00,A,3114.53820,N,12117.69659,E,0.004,,181217,,,D*60
$GNRMC,214350.00,A,3114.53818,N,12117.69659,E,0.005,,181217,,,D*62
$GNRMC,214351.00,A,3114.53816,N,12117.69658,E,0.003,,181217,,,D*6A
$GNRMC,214352.00,A,3114.53815,N,12117.69658,E,0.007,,181217,,,D*6E
$GNRMC,214353.00,A,3114.53813,N,12117.69656,E,0.015,,181217,,,D*64
$GNRMC,214354.00,A,3114.53812,N,12117.69653,E,0.003,,181217,,,D*60
$GNRMC,214355.00,A,3114.53812,N,12117.69650,E,0.010,,181217,,,D*60
$GNRMC,214356.00,A,3114.53812,N,12117.69646,E,0.010,,181217,,,D*64
$GNRMC,214357.00,A,3114.53812,N,12117.69642,E,0.002,,181217,,,D*62
$GNRMC,214358.00,A,3114.53811,N,12117.69639,E,0.005,,181217,,,D*65
$GNRMC,214359.00,A,3114.53811,N,12117.69634,E,0.006,,181217,,,D*6A
$GNRMC,214400.00,A,3114.53811,N,12117.69629,E,0.009,,181217,,,D*62
$GNRMC,214401.00,A,3114.53810,N,12117.69626,E,0.009,,181217,,,D*6D
$GNRMC,214402.00,A,3114.53808,N,12117.69623,E,0.004,,181217,,,D*6F
$GNRMC,214403.00,A,3114.53807,N,12117.69619,E,0.008,,181217,,,D*64
$GNRMC,214404.00,A,3114.53806,N,12117.69617,E,0.005,,181217,,,D*61
$GNRMC,214405.00,A,3114.53804,N,12117.69616,E,0.018,,181217,,,D*6F
$GNRMC,214406.00,A,3114.53802,N,12117.69615,E,0.002,,181217,,,D*62
$GNRMC,214407.00,A,3114.53800,N,12117.69614,E,0.010,,181217,,,D*63
$GNRMC,214408.00,A,3114.53799,N,12117.69613,E,0.011,,181217,,,D*65
$GNRMC,214409.00,A,3114.53798,N,12117.69613,E,0.013,,181217,,,D*67
$GNRMC,214410.00,A,3114.53797,N,12117.69612,E,0.007,,181217,,,D*64
$GNRMC,214411.00,A,3114.53797,N,12117.69611,E,0.008,,181217,,,D*69
$GNRMC,214412.00,A,3114.53797,N,12117.69611,E,0.011,,181217,,,D*62
$GNRMC,214413.00,A,3114.53797,N,12117.69610,E,0.009,,181217,,,D*6B
$GNRMC,214414.00,A,3114.53798,N,12117.69608,E,0.009,,181217,,,D*6A
