ÂRŠ*5
$GNGSA,A,3,65,71,72,74,73,75,,,,,,,1.27,0.66,1.08*14
$GPGSV,4,1,16,01,02,286,12,03,12,322,30,04,,,22,10,23,182,30*4B
$GPGSV,4,2,16,12,16,040,31,14,77,350,20,22,26,306,32,25,51,058,14*70
$GPGSV,4,3,16,26,25,204,36,29,17,108,25,31,61,288,32,32,73,097,27*72
$GPGSV,4,4,16,40,13,251,,41,33,226,29,42,35,140,,50,35,140,*75
$GLGSV,2,1,08,65,26,326,28,71,46,162,26,72,74,298,31,73,34,037,30*62
$GLGSV,2,2,08,74,71,304,28,75,27,241,39,82,05,025,34,83,03,072,39*67
$GNGLL,3951.85161,N,11622.42163,E,101022.00,A,A*76
$GNRMC,101023.00,A,3951.85141,N,11622.42184,E,0.047,,071217,,,A*64
$GNVTG,,T,,M,0.047,N,0.087,K,A*31
$GNGGA,101023.00,3951.85141,N,11622.42184,E,1,12,0.65,50.5,M,-8.5,M,,*69
$GNGSA,A,3,10,12,32,25,14,03,31,22,26,29,,,1.19,0.65,0.99*19
$GNGSA,A,3,65,71,72,74,73,75,,,,,,,1.19,0.65,0.99*13
$GPGSV,4,1,16,01,02,286,11,03,12,322,30,04,,,23,10,23,182,31*48
$GPGSV,4,2,16,12,16,040,31,14,77,350,18,22,26,306,32,25,51,058,14*7B
$GPGSV,4,3,16,26,25,204,35,29,17,108,27,31,61,288,32,32,73,097,28*7C
$GPGSV,4,4,16,40,13,251,,41,33,226,29,42,35,140,,50,35,140,*75
$GLGSV,2,1,08,65,26,326,29,71,46,162,27,72,74,298,31,73,34,037,30*62
$GLGSV,2,2,08,74,71,304,29,75,27,241,39,82,05,025,35,83,03,072,39*67
$GNGLL,3951.85141,N,11622.42184,E,101023.00,A,A*7C
$GNRMC,101024.00,A,3951.85130,N,11622.42187,E,0.021,,071217,,,A*66
$GNVTG,,T,,M,0.021,N,0.038,K,A*35
$GNGGA,101024.00,3951.85130,N,11622.42187,E,1,12,0.68,50.9,M,-8.5,M,,*6A
$GNGSA,A,3,10,12,32,25,14,03,31,22,26,29,,,1.21,0.68,1.00*1E
$GNGSA,A,3,65,71,72,74,73,75,,,,,,,1.21,0.68,1.00*14
$GPGSV,4,1,16,01,02,286,12,03,12,322,31,04,,,24,10,23,182,30*4C
$GPGSV,4,2,16,12,16,040,31,14,77,350,16,22,26,306,32,25,51,058,14*75
$GPGSV,4,3,16,26,25,204,36,29,17,108,30,31,61,288,32,32,73,097,27*76
$GPGSV,4,4,16,40,13,251,,41,33,226,29,42,35,140,,50,35,140,*75
$GLGSV,2,1,08,65,26,326,29,71,46,162,27,72,74,298,31,73,34,037,29*6A
$GLGSV,2,2,08,74,71,304,29,75,27,241,39,82,05,025,36,83,04,072,39*63
$GNGLL,3951.85130,N,11622.42187,E,101024.00,A,A*7E
$GNRMC,101025.00,A,3951.85137,N,11622.42190,E,0.004,,071217,,,A*61
$GNVTG,,T,,M,0.004,N,0.008,K,A*31
$GNGGA,101025.00,3951.85137,N,11622.42190,E,1,12,0.71,50.8,M,-8.5,M,,*63
$GNGSA,A,3,10,12,32,25,14,03,31,22,26,29,,,1.23,0.71,1.00*14
$GNGSA,A,3,65,71,72,74,73,75,,,,,,,1.23,0.71,1.00*1E
$GPGSV,4,1,16,01,02,286,11,03,12,322,30,04,,,25,10,23,182,30*4F
$GPGSV,4,2,16,12,16,040,31,14,77,350,13,22,26,306,32,25,51,058,15*71
$GPGSV,4,3,16,26,25,204,36,29,17,108,31,31,61,288,32,32,73,097,26*76
$GPGSV,4,4,16,40,13,251,,41,33,226,29,42,35,140,,50,35,140,*75
$GLGSV,2,1,08,65,26,326,29,71,46,162,29,72,74,298,31,73,34,037,29*64
$GLGSV,2,2,08,74,71,304,30,75,27,241,39,82,05,025,37,83,04,072,38*6B
$GNGLL,3951.85137,N,11622.42190,E,101025.00,A,A*7E
$GNRMC,101026.00,A,3951.85140,N,11622.42197,E,0.012,,071217,,,A*62
$GNVTG,,T,,M,0.012,N,0.021,K,A*3D
$GNGGA,101026.00,3951.85140,N,11622.42197,E,1,12,0.66,50.9,M,-8.5,M,,*60
$GNGSA,A,3,10,12,32,25,14,03,31,22,26,29,,,1.27,0.66,1.08*1E
$GNGSA,A,3,65,71,72,74,73,75,,,,,,,1.27,0.66,1.08*14
$GPGSV,4,1,16,01,02,286,13,03,12,322,30,04,,,25,10,23,182,30*4D
$GPGSV,4,2,16,12,16,040,32,14,77,350,13,22,26,306,31,25,51,058,15*71
$GPGSV,4,3,16,26,25,204,36,29,17,108,32,31,61,288,32,32,73,097,26*75
$GPGSV,4,4,16,40,13,251,,41,33,226,28,42,35,140,,50,35,140,*74
$GLGSV,2,1,08,65,26,326,29,71,46,162,30,72,74,298,30,73,34,037,28*6C
$GLGSV,2,2,08,74,71,304,29,75,27,241,38,82,05,025,37,83,04,072,38*62
$GNGLL,3951.85140,N,11622.42197,E,101026.00,A,A*7A
$GNRMC,101027.00,A,3951.85144,N,11622.42204,E,0.018,,071217,,,A*64
$GNVTG,,T,,M,0.018,N,0.033,K,A*34
$GNGGA,101027.00,3951.85144,N,11622.42204,E,1,12,0.65,51.1,M,-8.5,M,,*66
$GNGSA,A,3,10,12,32,25,14,03,31,22,26,29,,,1.19,0.65,0.99*19
$GNGSA,A,3,65,71,72,74,73,75,,,,,,,1.19,0.65,0.99*13
$GPGSV,4,1,16,01,02,286,13,03,12,322,30,04,,,25,10,23,182,31*4C
$GPGSV,4,2,16,12,16,040,32,14,77,350,16,22,26,306,32,25,51,058,18*7A
$GPGSV,4,3,16,26,25,204,36,29,17,108,33,31,61,288,33,32,73,097,25*76
$GPGSV,4,4,16,40,13,251,,41,33,226,28,42,35,140,,50,35,140,*74
$GLGSV,2,1,08,65,26,326,27,71,46,162,30,72,74,298,29,73,34,037,28*6A
$GLGSV,2,2,08,74,71,304,28,75,27,241,38,82,05,025,37,83,04,072,37*6C
$GNGLL,3951.85144,N,11622.42204,E,101027.00,A,A*76
$GNRMC,101028.00,A,3951.85145,N,11622.42210,E,0.021,,071217,,,A*65
$GNVTG,,T,,M,0.021,N,0.040,K,A*3A
$GNGGA,101028.00,3951.85145,N,11622.42210,E,1,12,0.65,51.4,M,-8.5,M,,*68
$GNGSA,A,3,10,12,32,25,14,03,31,22,26,29,,,1.19,0.65,0.99*19
$GNGSA,A,3,65,71,72,74,73,75,,,,,,,1.19,0.65,0.99*13
$GPGSV,4,1,16,01,02,286,12,03,12,322,30,04,,,25,10,23,182,31*4D
$GPGSV,4,2,16,12,16,040,32,14,77,350,18,22,26,306,31,25,51,058,19*76
$GPGSV,4,3,16,26,25,204,36,29,17,108,33,31,61,288,33,32,73,097,25*76
$GPGSV,4,4,16,40,13,251,,41,33,226,29,42,35,140,,50,35,140,*75
$GLGSV,2,1,08,65,26,326,26,71,46,162,30,72,74,298,28,73,34,037,28*6A
$GLGSV,2,2,08,74,71,304,28,75,27,241,38,82,05,025,37,83,04,072,36*6D
$GNGLL,3951.85145,N,11622.42210,E,101028.00,A,A*7D
$GNRMC,101029.00,A,3951.85147,N,11622.42210,E,0.057,,071217,,,A*67
$GNVTG,,T,,M,0.057,N,0.106,K,A*38
$GNGGA,101029.00,3951.85147,N,11622.42210,E,1,12,0.72,51.8,M,-8.5,M,,*61
$GNGSA,A,3,10,12,32,25,14,03,31,22,26,29,,,1.36,0.72,1.16*14
$GNGSA,A,3,65,71,72,74,73,75,,,,,,,1.36,0.72,1.16*1E
$GPGSV,4,1,16,01,02,286,10,03,12,322,30,04,,,25,10,23,182,31*4F
$GPGSV,4,2,16,12,16,040,32,14,77,350,19,22,26,306,32,25,51,058,19*74
$GPGSV,4,3,16,26,25,204,36,29,17,108,32,31,61,288,33,32,73,097,23*71
$GPGSV,4,4,16,40,13,251,,41,33,226,29,42,35,140,,50,35,140,*75
$GLGSV,2,1,08,65,26,326,24,71,46,162,30,72,74,298,29,73,34,037,28*69
$GLGSV,2,2,08,74,71,304,28,75,27,241,38,82,05,025,36,83,04,072,36*6C
$GNGLL,3951.85147,N,11622.42210,E,101029.00,A,A*7E
$GNRMC,101030.00,A,3951.85144,N,11622.42213,E,0.028,,071217,,,A*67
$GNVTG,,T,,M,0.028,N,0.051,K,A*33
$GNGGA,101030.00,3951.85144,N,11622.42213,E,1,12,0.69,52.3,M,-8.5,M,,*6B
$GNGSA,A,3,10,12,32,25,14,03,31,22,26,29,,,1.33,0.69,1.14*19
$GNGSA,A,3,65,71,72,74,73,75,,,,,,,1.33,0.69,1.14*13
$GPGSV,4,1,16,01,02,285,08,03,12,322,30,04,,,25,10,23,182,31*45
$GPGSV,4,2,16,12,16,040,32,14,77,350,20,22,26,306,31,25,51,058,20*77
$GPGSV,4,3,16,26,25,204,36,29,17,108,31,31,61,288,32,32,73,097,20*70
$GPGSV,4,4,16,40,13,251,,41,33,226,29,42,35,140,,50,35,140,*75
$GLGSV,2,1,08,65,26,326,21,71,46,162,30,72,74,298,29,73,34,037,28*6C
$GLGSV,2,2,08,74,71,304,28,75,27,241,38,82,05,025,35,83,04,072,34*6D
$GNGLL,3951.85144,N,11622.42213,E,101030.00,A,A*76
$GNRMC,101031.00,A,3951.85140,N,11622.42214,E,0.017,,071217,,,A*69
$GNVTG,,T,,M,0.017,N,0.031,K,A*39
$GNGGA,101031.00,3951.85140,N,11622.42214,E,1,12,0.69,52.8,M,-8.5,M,,*62
$GNGSA,A,3,10,12,32,25,14,03,31,22,26,29,,,1.33,0.69,1.14*19
$GNGSA,A,3,65,71,72,74,73,75,,,,,,,1.33,0.69,1.14*13
$GPGSV,4,1,16,01,02,285,09,03,12,322,30,04,,,23,10,23,182,31*42
$GPGSV,4,2,16,12,16,040,32,14,77,350,21,22,26,306,31,25,51,058,20*76
$GPGSV,4,3,16,26,25,204,36,29,17,108,30,31,61,288,32,32,73,097,18*7A
$GPGSV,4,4,16,40,13,251,,41,33,226,29,42,35,140,,50,35,140,*75
$GLGSV,2,1,08,65,26,326,19,71,46,162,29,72,74,298,29,73,34,037,28*6F
$GLGSV,2,2,08,74,71,304,27,75,27,241,37,82,05,025,34,83,04,072,33*6B
$GNGLL,3951.85140,N,11622.42214,E,101031.00,A,A*74
$GNRMC,101032.00,A,3951.85133,N,11622.42213,E,0.012,,071217,,,A*6C
$GNVTG,,T,,M,0.012,N,0.023,K,A*3F
$GNGGA,101032.00,3951.85133,N,11622.42213,E,1,12,0.69,53.3,M,-8.5,M,,*68
$GNGSA,A,3,10,12,32,25,14,03,31,22,26,29,,,1.33,0.69,1.14*19
$GNGSA,A,3,65,71,72,74,73,75,,,,,,,1.33,0.69,1.14*13
$GPGSV,4,1,16,01,02,285,11,03,12,321,29,04,,,22,10,23,182,32*42
$GPGSV,4,2,16,12,16,040,32,14,77,350,19,22,26,306,31,25,51,058,21*7C
$GPGSV,4,3,16,26,25,204,35,29,17,108,30,31,61,288,31,32,73,097,19*7B
$GPGSV,4,4,16,40,13,251,,41,33,226,30,42,35,140,,50,35,140,*7D
$GLGSV,2,1,08,65,26,326,19,71,46,162,27,72,74,298,29,73,34,037,28*61
$GLGSV,2,2,08,74,71,304,26,75,27,241,37,82,05,025,33,83,04,072,33*6D
$GNGLL,3951.85133,N,11622.42213,E,101032.00,A,A*74
$GNRMC,101033.00,A,3951.85128,N,11622.42207,E,0.012,,071217,,,A*62
$GNVTG,,T,,M,0.012,N,0.022,K,A*3E
$GNGGA,101033.00,3951.85128,N,11622.42207,E,1,12,0.69,53.8,M,-8.5,M,,*6D
$GNGSA,A,3,10,12,32,25,14,03,31,22,26,29,,,1.33,0.69,1.14*19
$GNGSA,A,3,65,71,72,74,73,75,,,,,,,1.33,0.69,1.14*13
$GPGSV,4,1,16,01,02,285,11,03,12,321,29,04,,,21,10,23,182,32*41
$GPGSV,4,2,16,12,16,040,32,14,77,350,17,22,26,306,31,25,51,058,20*73
$GPGSV,4,3,16,26,25,204,34,29,17,108,30,31,61,288,31,32,73,097,20*70
$GPGSV,4,4,16,40,13,251,,41,33,226,30,42,35,140,,50,35,140,*7D
$GLGSV,2,1,08,65,26,326,22,71,46,162,27,72,74,298,28,73,34,037,29*69
$GLGSV,2,2,08,74,71,304,25,75,27,241,36,82,05,025,34,83,04,072,34*6F
$GNGLL,3951.85128,N,11622.42207,E,101033.00,A,A*7A
$GNRMC,101034.00,A,3951.85124,N,11622.42197,E,0.024,,071217,,,A*66
$GNVTG,,T,,M,0.024,N,0.044,K,A*3B
$GNGGA,101034.00,3951.85124,N,11622.42197,E,1,12,0.69,54.2,M,-8.5,M,,*61
$GNGSA,A,3,10,12,32,25,14,03,31,22,26,29,,,1.33,0.69,1.14*19
$GNGSA,A,3,65,71,72,74,73,75,,,,,,,1.33,0.69,1.14*13
$GPGSV,4,1,16,01,02,285,12,03,12,321,28,04,,,20,10,23,182,32*42
$GPGSV,4,2,16,12,16,040,32,14,77,350,19,22,26,306,31,25,51,058,19*77
$GPGSV,4,3,16,26,25,204,33,29,17,108,29,31,61,288,30,32,73,097,22*7C
$GPGSV,4,4,16,40,13,251,,41,33,226,29,42,35,140,,50,35,140,*75
$GLGSV,2,1,08,65,26,326,25,71,46,162,28,72,74,298,28,73,34,037,30*69
$GLGSV,2,2,08,74,71,304,26,75,27,241,33,82,05,025,35,83,04,072,34*68
$GNGLL,3951.85124,N,11622.42197,E,101034.00,A,A*7B
$GNRMC,101035.00,A,3951.85126,N,11622.42179,E,0.030,,071217,,,A*60
$GNVTG,,T,,M,0.030,N,0.055,K,A*3E
$GNGGA,101035.00,3951.85126,N,11622.42179,E,1,12,0.69,54.4,M,-8.5,M,,*64
$GNGSA,A,3,10,12,32,25,14,03,31,22,26,29,,,1.33,0.69,1.14*19
$GNGSA,A,3,65,71,72,74,73,75,,,,,,,1.33,0.69,1.14*13
$GPGSV,4,1,16,01,02,285,10,03,12,321,27,04,,,21,10,23,182,32*4E
$GPGSV,4,2,16,12,16,040,31,14,77,350,21,22,26,306,32,25,51,058,18*7D
$GPGSV,4,3,16,26,25,204,33,29,17,108,30,31,61,288,29,32,73,097,24*7A
$GPGSV,4,4,16,40,13,251,,41,33,226,29,42,35,140,,50,35,140,*75
$GLGSV,2,1,08,65,26,326,26,71,46,162,30,72,74,298,28,73,34,037,30*63
$GLGSV,2,2,08,74,71,304,27,75,27,241,33,82,05,025,35,83,04,072,35*68
$GNGLL,3951.85126,N,11622.42179,E,101035.00,A,A*78
$GNRMC,101036.00,A,3951.85122,N,11622.42163,E,0.019,,071217,,,A*67
$GNVTG,,T,,M,0.019,N,0.035,K,A*33
$GNGGA,101036.00,3951.85122,N,11622.42163,E,1,12,0.71,54.8,M,-8.5,M,,*6D
$GNGSA,A,3,10,12,32,25,14,03,31,22,26,29,,,1.38,0.71,1.18*17
$GNGSA,A,3,65,71,72,74,73,75,,,,,,,1.38,0.71,1.18*1D
$GPGSV,4,1,16,01,02,285,11,03,12,321,26,04,,,22,10,23,182,32*4D
$GPGSV,4,2,16,12,16,040,31,14,77,350,21,22,26,306,32,25,51,058,17*72
$GPGSV,4,3,16,26,25,204,33,29,17,108,30,31,61,288,29,32,73,097,25*7B
$GPGSV,4,4,16,40,13,251,,41,33,226,29,42,35,140,,50,35,140,*75
$GLGSV,2,1,08,65,26,326,27,71,46,162,31,72,74,298,28,73,34,037,30*63
$GLGSV,2,2,08,74,71,304,27,75,27,241,33,82,05,025,35,83,04,072,36*6B
$GNGLL,3951.85122,N,11622.42163,E,101036.00,A,A*74
$GNRMC,101037.00,A,3951.85123,N,11622.42146,E,0.037,,071217,,,A*6C
$GNVTG,,T,,M,0.037,N,0.068,K,A*37
$GNGGA,101037.00,3951.85123,N,11622.42146,E,1,12,0.71,55.0,M,-8.5,M,,*63
$GNGSA,A,3,10,12,32,25,14,03,31,22,26,29,,,1.36,0.71,1.15*14
$GNGSA,A,3,65,71,72,74,73,75,,,,,,,1.36,0.71,1.15*1E
$GPGSV,4,1,16,01,02,285,08,03,12,321,25,04,,,23,10,23,182,32*47
$GPGSV,4,2,16,12,16,040,31,14,77,350,22,22,26,306,32,25,51,058,18*7E
$GPGSV,4,3,16,26,25,204,32,29,17,108,30,31,61,288,29,32,73,097,26*79
$GPGSV,4,4,16,40,13,251,,41,33,226,30,42,35,140,,50,35,140,*7D
$GLGSV,2,1,08,65,26,326,28,71,46,162,31,72,74,298,28,73,34,037,30*6C
$GLGSV,2,2,08,74,71,304,27,75,27,241,33,82,05,025,35,83,04,072,37*6A
$GNGLL,3951.85123,N,11622.42146,E,101037.00,A,A*73
$GNRMC,101038.00,A,3951.85126,N,11622.42127,E,0.035,,071217,,,A*63
$GNVTG,,T,,M,0.035,N,0.064,K,A*39
$GNGGA,101038.00,3951.85126,N,11622.42127,E,1,12,0.74,55.0,M,-8.5,M,,*6B
$GNGSA,A,3,10,12,32,25,14,03,31,22,26,29,,,1.47,0.74,1.27*16
$GNGSA,A,3,65,71,72,74,73,75,,,,,,,1.47,0.74,1.27*1C
$GPGSV,4,1,16,01,02,285,08,03,12,321,22,04,,,23,10,22,182,33*40
$GPGSV,4,2,16,12,16,040,31,14,77,350,22,22,26,306,33,25,51,058,18*7F
$GPGSV,4,3,16,26,25,204,31,29,17,108,30,31,61,288,29,32,73,097,26*7A
$GPGSV,4,4,16,40,13,251,,41,33,226,29,42,35,140,,50,35,140,*75
$GLGSV,2,1,08,65,26,326,29,71,46,162,30,72,74,298,28,73,34,037,30*6C
$GLGSV,2,2,08,74,71,304,26,75,27,241,34,82,05,025,35,83,04,072,36*6D
$GNGLL,3951.85126,N,11622.42127,E,101038.00,A,A*7E
$GNRMC,101039.00,A,3951.85130,N,11622.42115,E,0.007,,071217,,,A*65
$GNVTG,,T,,M,0.007,N,0.012,K,A*39
$GNGGA,101039.00,3951.85130,N,11622.42115,E,1,12,0.79,54.8,M,-8.5,M,,*68
$GNGSA,A,3,10,12,32,25,14,03,31,22,26,29,,,2.34,0.79,2.20*18
$GNGSA,A,3,65,71,72,74,73,75,,,,,,,2.34,0.79,2.20*12
$GPGSV,4,1,16,01,02,285,07,03,12,321,21,04,,,23,10,22,182,33*4C
$GPGSV,4,2,16,12,16,040,29,14,77,350,22,22,26,306,34,25,51,058,19*70
$GPGSV,4,3,16,26,25,204,30,29,17,108,29,31,61,288,29,32,73,097,25*70
$GPGSV,4,4,16,40,13,251,,41,33,226,29,42,35,140,,50,35,140,*75
$GLGSV,2,1,08,65,26,326,29,71,46,162,31,72,74,298,27,73,34,037,29*6A
$GLGSV,2,2,08,74,71,304,25,75,27,241,34,82,05,025,33,83,04,072,36*68
$GNGLL,3951.85130,N,11622.42115,E,101039.00,A,A*79
$GNRMC,101040.00,A,3951.85133,N,11622.42117,E,0.046,,071217,,,A*6F
$GNVTG,,T,,M,0.046,N,0.085,K,A*32
$GNGGA,101040.00,3951.85133,N,11622.42117,E,1,12,0.87,54.7,M,-8.5,M,,*69
$GNGSA,A,3,10,12,32,25,14,03,31,22,26,29,,,1.80,0.87,1.57*16
$GNGSA,A,3,65,71,72,74,73,75,,,,,,,1.80,0.87,1.57*1C
$GPGSV,4,1,16,01,02,285,10,03,12,321,20,04,,,25,10,22,182,32*4C
$GPGSV,4,2,16,12,15,040,29,14,77,350,23,22,26,306,34,25,51,058,20*78
$GPGSV,4,3,16,26,25,204,30,29,17,108,28,31,61,288,27,32,73,097,24*7E
$GPGSV,4,4,16,40,13,251,,41,33,226,29,42,35,140,,50,35,140,*75
$GLGSV,2,1,08,65,26,326,29,71,46,162,30,72,74,298,27,73,34,037,28*6A
$GLGSV,2,2,08,74,71,304,23,75,27,241,35,82,05,025,31,83,04,072,35*6E
$GNGLL,3951.85133,N,11622.42117,E,101040.00,A,A*76
$GNRMC,101041.00,A,3951.85128,N,11622.42113,E,0.056,,071217,,,A*61
$GNVTG,,T,,M,0.056,N,0.104,K,A*3B
$GNGGA,101041.00,3951.85128,N,11622.42113,E,1,12,0.87,54.9,M,-8.5,M,,*68
$GNGSA,A,3,10,12,32,25,14,03,31,22,26,29,,,1.58,0.87,1.31*13
$GNGSA,A,3,65,71,72,74,73,75,,,,,,,1.58,0.87,1.31*19
$GPGSV,4,1,16,01,02,285,08,03,12,321,20,04,,,26,10,22,182,33*47
$GPGSV,4,2,16,12,15,040,29,14,77,350,24,22,26,306,35,25,51,058,22*7C
$GPGSV,4,3,16,26,25,204,30,29,17,108,28,31,61,288,26,32,73,097,23*78
$GPGSV,4,4,16,40,13,251,,41,33,226,29,42,35,140,,50,35,140,*75
$GLGSV,2,1,08,65,26,326,28,71,46,162,29,72,74,298,27,73,34,037,27*6C
$GLGSV,2,2,08,74,71,304,23,75,27,241,35,82,05,025,30,83,04,072,36*6C
$GNGLL,3951.85128,N,11622.42113,E,101041.00,A,A*79
$GNRMC,101042.00,A,3951.85131,N,11622.42101,E,0.037,,071217,,,A*6E
$GNVTG,,T,,M,0.037,N,0.068,K,A*37
$GNGGA,101042.00,3951.85131,N,11622.42101,E,1,12,0.87,54.9,M,-8.5,M,,*60
$GNGSA,A,3,10,12,32,25,14,03,31,22,26,29,,,1.56,0.87,1.29*14
$GNGSA,A,3,65,71,72,74,73,75,,,,,,,1.56,0.87,1.29*1E
$GPGSV,4,1,16,01,02,285,11,03,12,321,22,04,,,28,10,22,182,33*43
$GPGSV,4,2,16,12,15,040,28,14,77,351,24,22,26,306,35,25,51,058,23*7D
$GPGSV,4,3,16,26,25,204,31,29,17,108,27,31,61,288,23,32,73,097,22*72
$GPGSV,4,4,16,40,13,251,,41,33,226,29,42,35,140,,50,35,140,*75
$GLGSV,2,1,08,65,26,326,27,71,46,162,27,72,74,298,27,73,34,037,26*6C
$GLGSV,2,2,08,74,71,304,23,75,27,241,35,82,05,025,29,83,04,072,37*65
$GNGLL,3951.85131,N,11622.42101,E,101042.00,A,A*71
$GNRMC,101043.00,A,3951.85132,N,11622.42092,E,0.025,,071217,,,A*64
$GNVTG,,T,,M,0.025,N,0.046,K,A*38
$GNGGA,101043.00,3951.85132,N,11622.42092,E,1,12,0.85,54.9,M,-8.5,M,,*6B
$GNGSA,A,3,10,12,32,25,14,03,31,22,26,29,,,1.54,0.85,1.29*14
$GNGSA,A,3,65,71,72,74,73,75,,,,,,,1.54,0.85,1.29*1E
$GPGSV,4,1,16,01,02,285,10,03,12,321,22,04,,,33,10,22,182,32*49
$GPGSV,4,2,16,12,15,040,27,14,77,351,23,22,26,306,35,25,51,058,24*72
$GPGSV,4,3,16,26,25,204,30,29,17,108,26,31,61,288,21,32,73,097,21*73
$GPGSV,4,4,16,40,13,251,,41,33,226,29,42,35,140,,50,35,140,*75
$GLGSV,2,1,08,65,26,326,28,71,46,162,26,72,74,298,28,73,34,037,25*6E
$GLGSV,2,2,08,74,71,304,23,75,27,241,34,82,05,025,29,83,04,072,38*6B
$GNGLL,3951.85132,N,11622.42092,E,101043.00,A,A*78
$GNRMC,101044.00,A,3951.85127,N,11622.42082,E,0.039,,071217,,,A*6B
$GNVTG,,T,,M,0.039,N,0.072,K,A*32
$GNGGA,101044.00,3951.85127,N,11622.42082,E,1,12,0.84,54.9,M,-8.5,M,,*68
$GNGSA,A,3,10,12,32,25,14,03,31,22,26,29,,,1.41,0.84,1.13*18
$GNGSA,A,3,65,71,72,74,73,75,,,,,,,1.41,0.84,1.13*12
$GPGSV,4,1,16,01,02,285,12,03,12,321,21,04,,,32,10,22,182,32*49
$GPGSV,4,2,16,12,15,040,26,14,77,351,23,22,26,306,35,25,51,058,25*72
$GPGSV,4,3,16,26,25,204,30,29,17,108,26,31,61,288,21,32,73,097,22*70
$GPGSV,4,4,16,40,13,251,,41,33,226,29,42,35,140,,50,35,140,*75
$GLGSV,2,1,08,65,26,326,29,71,46,162,26,72,74,298,28,73,34,037,26*6C
$GLGSV,2,2,08,74,71,304,23,75,27,241,33,82,05,025,29,83,04,072,38*6C
$GNGLL,3951.85127,N,11622.42082,E,101044.00,A,A*7A
$GNRMC,101045.00,A,3951.85130,N,11622.42078,E,0.017,,071217,,,A*65
$GNVTG,,T,,M,0.017,N,0.032,K,A*3A
$GNGGA,101045.00,3951.85130,N,11622.42078,E,1,12,0.69,55.2,M,-8.5,M,,*63
$GNGSA,A,3,10,12,32,25,14,03,31,22,26,29,,,1.39,0.69,1.21*15
$GNGSA,A,3,65,71,72,74,73,75,,,,,,,1.39,0.69,1.21*1F
$GPGSV,4,1,16,01,02,285,12,03,12,321,21,04,,,32,10,22,182,32*49
$GPGSV,4,2,16,12,15,040,25,14,77,351,24,22,26,306,34,25,51,058,25*77
$GPGSV,4,3,16,26,25,204,31,29,17,108,26,31,61,288,24,32,73,097,21*77
$GPGSV,4,4,16,40,13,251,,41,33,226,29,42,35,140,,50,35,140,*75
$GLGSV,2,1,08,65,26,326,31,71,46,162,27,72,74,298,27,73,34,037,27*6A
$GLGSV,2,2,08,74,71,304,23,75,27,241,32,82,05,025,29,83,04,072,36*63
$GNGLL,3951.85130,N,11622.42078,E,101045.00,A,A*78
$GNRMC,101046.00,A,3951.85129,N,11622.42078,E,0.024,,071217,,,A*6E
$GNVTG,,T,,M,0.024,N,0.045,K,A*3A
$GNGGA,101046.00,3951.85129,N,11622.42078,E,1,12,0.75,55.0,M,-8.5,M,,*67
$GNGSA,A,3,10,12,32,25,14,03,31,22,26,29,,,1.55,0.75,1.35*17
$GNGSA,A,3,65,71,72,74,73,75,,,,,,,1.55,0.75,1.35*1D
$GPGSV,4,1,16,01,02,285,13,03,12,321,21,04,,,32,10,22,182,31*4B
$GPGSV,4,2,16,12,15,040,25,14,77,351,23,22,26,306,34,25,51,058,25*70
$GPGSV,4,3,16,26,25,204,31,29,17,108,27,31,61,288,27,32,73,097,18*7F
$GPGSV,4,4,16,40,13,251,,41,33,226,29,42,35,140,,50,35,140,*75
$GLGSV,2,1,08,65,26,326,32,71,46,162,27,72,74,298,27,73,34,037,28*66
$GLGSV,2,2,08,74,71,304,23,75,27,241,30,82,05,025,31,83,04,072,33*6D
$GNGLL,3951.85129,N,11622.42078,E,101046.00,A,A*73
$GNRMC,101047.00,A,3951.85123,N,11622.42077,E,0.041,,071217,,,A*69
$GNVTG,,T,,M,0.041,N,0.076,K,A*39
$GNGGA,101047.00,3951.85123,N,11622.42077,E,1,12,0.77,55.2,M,-8.5,M,,*63
$GNGSA,A,3,10,12,32,25,14,03,31,22,26,29,,,1.78,0.77,1.60*1A
$GNGSA,A,3,65,71,72,74,73,75,,,,,,,1.78,0.77,1.60*10
$GPGSV,4,1,16,01,02,285,14,03,12,321,21,04,,,32,10,22,182,31*4C
$GPGSV,4,2,16,12,15,040,23,14,77,351,23,22,26,306,33,25,51,058,25*71
$GPGSV,4,3,16,26,25,204,31,29,17,108,26,31,61,288,29,32,73,097,14*7C
$GPGSV,4,4,16,40,13,251,,41,33,226,30,42,35,140,,50,35,140,*7D
$GLGSV,2,1,08,65,26,326,33,71,46,162,29,72,74,298,26,73,34,037,28*68
$GLGSV,2,2,08,74,71,304,22,75,27,241,30,82,05,025,33,83,04,072,32*6F
$GNGLL,3951.85123,N,11622.42077,E,101047.00,A,A*77
$GNRMC,101048.00,A,3951.85114,N,11622.42080,E,0.034,,071217,,,A*68
$GNVTG,,T,,M,0.034,N,0.064,K,A*38
$GNGGA,101048.00,3951.85114,N,11622.42080,E,1,12,0.75,55.7,M,-8.5,M,,*67
$GNGSA,A,3,10,12,32,25,14,03,31,22,26,29,,,1.39,0.75,1.17*1D
$GNGSA,A,3,65,71,72,74,73,75,,,,,,,1.39,0.75,1.17*17
$GPGSV,4,1,16,01,02,285,17,03,12,321,22,04,,,33,10,22,182,31*4D
$GPGSV,4,2,16,12,15,040,22,14,77,351,23,22,26,306,33,25,51,058,25*70
$GPGSV,4,3,16,26,25,204,31,29,17,108,25,31,61,288,30,32,73,097,15*76
$GPGSV,4,4,16,40,13,251,,41,33,226,29,42,35,140,,50,35,140,*75
$GLGSV,2,1,08,65,26,326,33,71,46,162,30,72,74,298,28,73,34,037,28*6E
$GLGSV,2,2,08,74,71,304,22,75,27,241,29,82,05,025,34,83,04,072,32*60
$GNGLL,3951.85114,N,11622.42080,E,101048.00,A,A*74
$GNRMC,101049.00,A,3951.85100,N,11622.42091,E,0.034,,071217,,,A*6C
$GNVTG,,T,,M,0.034,N,0.063,K,A*3F
$GNGGA,101049.00,3951.85100,N,11622.42091,E,1,12,0.91,56.2,M,-8.5,M,,*6F
$GNGSA,A,3,10,12,32,25,14,03,31,22,26,29,,,1.60,0.91,1.32*1C
$GNGSA,A,3,65,71,72,74,73,75,,,,,,,1.60,0.91,1.32*16
$GPGSV,4,1,16,01,02,285,11,03,12,321,21,04,,,34,10,22,182,30*4E
$GPGSV,4,2,16,12,15,040,22,14,77,351,22,22,26,306,33,25,51,058,25*71
$GPGSV,4,3,16,26,25,204,31,29,17,108,23,31,61,288,31,32,73,097,18*7C
$GPGSV,4,4,16,40,13,251,,41,33,226,29,42,35,140,,50,35,140,*75
$GLGSV,2,1,08,65,26,326,34,71,46,162,31,72,74,298,30,73,34,037,28*61
$GLGSV,2,2,08,74,71,304,23,75,27,241,28,82,05,025,35,83,04,072,32*61
$GNGLL,3951.85100,N,11622.42091,E,101049.00,A,A*70
$GNRMC,101050.00,A,3951.85087,N,11622.42100,E,0.032,,071217,,,A*65
$GNVTG,,T,,M,0.032,N,0.059,K,A*30
$GNGGA,101050.00,3951.85087,N,11622.42100,E,1,12,0.94,56.6,M,-8.5,M,,*61
$GNGSA,A,3,10,12,32,25,14,03,31,22,26,29,,,1.76,0.94,1.49*12
$GNGSA,A,3,65,71,72,74,73,75,,,,,,,1.76,0.94,1.49*18
$GPGSV,4,1,16,01,02,285,09,03,12,321,22,04,,,33,10,22,182,30*43
$GPGSV,4,2,16,12,15,040,21,14,77,351,21,22,26,305,33,25,51,058,24*73
$GPGSV,4,3,16,26,25,204,31,29,17,108,20,31,61,288,31,32,73,097,20*74
$GPGSV,4,4,16,40,13,251,,41,33,226,28,42,35,140,,50,35,140,*74
$GLGSV,2,1,08,65,26,326,34,71,46,162,32,72,74,298,32,73,34,037,27*6F
$GLGSV,2,2,08,74,71,304,23,75,27,241,26,82,05,025,34,83,04,072,32*6E
$GNGLL,3951.85087,N,11622.42100,E,101050.00,A,A*7F
$GNRMC,101051.00,A,3951.85074,N,11622.42104,E,0.040,,071217,,,A*69
$GNVTG,,T,,M,0.040,N,0.074,K,A*3A
$GNGGA,101051.00,3951.85074,N,11622.42104,E,1,12,0.94,56.9,M,-8.5,M,,*67
$GNGSA,A,3,10,12,32,25,14,03,31,22,26,29,,,1.76,0.94,1.49*12
$GNGSA,A,3,65,71,72,74,73,75,,,,,,,1.76,0.94,1.49*18
$GPGSV,4,1,16,01,02,285,09,03,12,321,22,04,,,33,10,22,182,30*43
$GPGSV,4,2,16,12,15,040,20,14,77,351,20,22,26,305,34,25,51,058,22*72
$GPGSV,4,3,16,26,25,204,31,29,17,108,20,31,61,288,31,32,73,097,23*77
$GPGSV,4,4,16,40,13,251,,41,33,226,29,42,35,140,,50,35,140,*75
$GLGSV,2,1,08,65,26,326,34,71,46,162,33,72,74,298,34,73,34,037,25*6A
$GLGSV,2,2,08,74,71,304,23,75,27,241,27,82,05,025,33,83,04,072,32*68
$GNGLL,3951.85074,N,11622.42104,E,101051.00,A,A*76
$GNRMC,101052.00,A,3951.85062,N,11622.42109,E,0.092,,071217,,,A*6F
$GNVTG,,T,,M,0.092,N,0.171,K,A*31
$GNGGA,101052.00,3951.85062,N,11622.42109,E,1,12,0.94,56.7,M,-8.5,M,,*60
$GNGSA,A,3,10,12,32,25,14,03,31,22,26,29,,,1.76,0.94,1.49*12
$GNGSA,A,3,65,71,72,74,73,75,,,,,,,1.76,0.94,1.49*18
$GPGSV,4,1,16,01,02,285,13,03,12,321,20,04,,,33,10,22,182,30*4A
$GPGSV,4,2,16,12,15,040,18,14,77,351,17,22,26,305,34,25,51,058,21*7E
$GPGSV,4,3,16,26,25,204,31,29,17,108,20,31,61,288,30,32,73,097,24*71
$GPGSV,4,4,16,40,13,251,,41,33,226,28,42,35,140,,50,35,140,*74
$GLGSV,2,1,08,65,26,326,33,71,46,162,33,72,74,298,35,73,34,037,24*6D
$GLGSV,2,2,08,74,71,304,25,75,27,241,28,82,05,025,28,83,04,072,31*68
$GNGLL,3951.85062,N,11622.42109,E,101052.00,A,A*7F
$GNRMC,101053.00,A,3951.85046,N,11622.42109,E,0.023,,071217,,,A*62
$GNVTG,,T,,M,0.023,N,0.042,K,A*3A
$GNGGA,101053.00,3951.85046,N,11622.42109,E,1,12,0.94,56.4,M,-8.5,M,,*64
$GNGSA,A,3,10,12,32,25,14,03,31,22,26,29,,,1.76,0.94,1.49*12
$GNGSA,A,3,65,71,72,74,73,75,,,,,,,1.76,0.94,1.49*18
$GPGSV,4,1,16,01,02,285,14,03,12,321,19,04,,,32,10,22,182,30*46
$GPGSV,4,2,16,12,15,040,18,14,77,351,14,22,26,305,34,25,51,057,20*73
$GPGSV,4,3,16,26,25,204,31,29,17,108,19,31,61,288,30,32,73,097,24*7B
$GPGSV,4,4,16,40,13,251,,41,33,226,29,42,35,140,,50,35,140,*75
$GLGSV,2,1,08,65,26,326,34,71,46,162,33,72,74,298,35,73,34,037,25*6B
$GLGSV,2,2,08,74,71,304,25,75,27,241,33,82,05,025,25,83,04,072,32*6C
$GNGLL,3951.85046,N,11622.42109,E,101053.00,A,A*78
$GNRMC,101054.00,A,3951.85035,N,11622.42115,E,0.025,,071217,,,A*6A
$GNVTG,,T,,M,0.025,N,0.046,K,A*38
$GNGGA,101054.00,3951.85035,N,11622.42115,E,1,12,0.94,56.2,M,-8.5,M,,*6C
$GNGSA,A,3,10,12,32,25,14,03,31,22,26,29,,,1.76,0.94,1.49*12
$GNGSA,A,3,65,71,72,74,73,75,,,,,,,1.76,0.94,1.49*18
$GPGSV,4,1,16,01,02,285,15,03,12,321,17,04,,,32,10,22,182,30*49
$GPGSV,4,2,16,12,15,040,17,14,77,351,09,22,26,305,35,25,51,057,20*71
$GPGSV,4,3,16,26,26,204,31,29,17,108,18,31,61,288,31,32,73,097,25*79
$GPGSV,4,4,16,40,13,251,,41,33,226,29,42,35,140,,50,35,140,*75
$GLGSV,2,1,08,65,26,326,34,71,46,162,33,72,74,298,35,73,34,037,26*68
$GLGSV,2,2,08,74,71,304,26,75,27,241,31,82,05,025,21,83,04,072,33*68
$GNGLL,3951.85035,N,11622.42115,E,101054.00,A,A*76
$GNRMC,101055.00,A,3951.85029,N,11622.42127,E,0.030,,071217,,,A*63
$GNVTG,,T,,M,0.030,N,0.056,K,A*3D
$GNGGA,101055.00,3951.85029,N,11622.42127,E,1,12,0.94,56.0,M,-8.5,M,,*63
$GNGSA,A,3,10,32,25,14,03,31,22,26,29,,,,1.76,0.94,1.49*11
$GNGSA,A,3,65,71,72,74,73,75,,,,,,,1.76,0.94,1.49*18
$GPGSV,4,1,16,01,02,285,16,03,12,321,14,04,,,32,10,22,182,30*49
$GPGSV,4,2,16,12,15,040,17,14,77,351,11,22,26,305,35,25,51,057,20*78
$GPGSV,4,3,16,26,26,204,31,29,17,108,18,31,61,288,31,32,73,097,24*78
$GPGSV,4,4,16,40,13,251,,41,33,226,29,42,35,140,,50,35,140,*75
$GLGSV,2,1,08,65,26,326,33,71,46,162,33,72,74,298,34,73,34,037,26*6E
$GLGSV,2,2,08,74,71,304,26,75,27,241,33,82,05,025,19,83,04,072,34*66
$GNGLL,3951.85029,N,11622.42127,E,101055.00,A,A*7B
$GNRMC,101056.00,A,3951.85023,N,11622.42139,E,0.063,,071217,,,A*63
$GNVTG,,T,,M,0.063,N,0.116,K,A*3E
$GNGGA,101056.00,3951.85023,N,11622.42139,E,1,12,0.78,56.0,M,-8.5,M,,*67
$GNGSA,A,3,10,32,25,14,03,31,22,26,29,,,,1.38,0.78,1.14*11
$GNGSA,A,3,65,71,72,74,73,75,,,,,,,1.38,0.78,1.14*18
$GPGSV,4,1,16,01,02,285,18,03,12,321,15,04,,,33,10,22,182,29*4F
$GPGSV,4,2,16,12,15,040,17,14,77,351,13,22,26,305,35,25,51,057,21*7B
$GPGSV,4,3,16,26,26,204,31,29,17,108,23,31,61,288,32,32,73,097,22*75
$GPGSV,4,4,16,40,13,251,,41,33,226,29,42,35,140,,50,35,140,*75
$GLGSV,2,1,08,65,26,326,32,71,46,162,32,72,74,298,34,73,34,037,25*6D
$GLGSV,2,2,08,74,71,304,27,75,27,241,34,82,05,025,24,83,04,072,35*6F
$GNGLL,3951.85023,N,11622.42139,E,101056.00,A,A*7D
$GNRMC,101057.00,A,3951.85017,N,11622.42161,E,0.073,,071217,,,A*69
$GNVTG,,T,,M,0.073,N,0.135,K,A*3E
$GNGGA,101057.00,3951.85017,N,11622.42161,E,1,12,0.78,55.9,M,-8.5,M,,*66
$GNGSA,A,3,10,12,32,25,14,03,31,22,26,29,,,1.38,0.78,1.14*12
$GNGSA,A,3,65,71,72,74,73,75,,,,,,,1.38,0.78,1.14*18
$GPGSV,4,1,16,01,02,285,18,03,12,321,16,04,,,34,10,22,182,30*43
$GPGSV,4,2,16,12,15,040,18,14,77,351,11,22,26,305,35,25,51,057,21*76
$GPGSV,4,3,16,26,26,204,31,29,17,107,27,31,61,288,33,32,73,097,21*7C
$GPGSV,4,4,16,40,13,251,,41,33,226,28,42,35,140,,50,35,140,*74
$GLGSV,2,1,08,65,26,326,32,71,46,162,32,72,74,298,34,73,34,037,25*6D
$GLGSV,2,2,08,74,71,304,27,75,27,241,36,82,05,025,32,83,04,072,36*69
$GNGLL,3951.85017,N,11622.42161,E,101057.00,A,A*76
$GNRMC,101058.00,A,3951.85009,N,11622.42187,E,0.026,,071217,,,A*61
$GNVTG,,T,,M,0.026,N,0.049,K,A*34
$GNGGA,101058.00,3951.85009,N,11622.42187,E,1,12,0.79,55.9,M,-8.5,M,,*6F
$GNGSA,A,3,10,12,32,25,03,31,22,26,29,,,,1.45,0.79,1.22*19
$GNGSA,A,3,65,71,72,74,73,75,,,,,,,1.45,0.79,1.22*16
$GPGSV,4,1,16,01,02,285,18,03,12,321,18,04,,,34,10,22,182,30*4D
$GPGSV,4,2,16,12,15,040,21,14,77,351,09,22,26,305,35,25,51,057,22*76
$GPGSV,4,3,16,26,26,204,31,29,17,107,29,31,61,288,32,32,73,097,20*72
$GPGSV,4,4,16,40,13,251,,41,33,226,27,42,35,140,,50,35,140,*7B
$GLGSV,2,1,08,65,26,326,31,71,46,162,31,72,74,298,34,73,34,037,26*6E
$GLGSV,2,2,08,74,71,304,26,75,27,241,36,82,05,025,32,83,04,072,36*68
$GNGLL,3951.85009,N,11622.42187,E,101058.00,A,A*7E
$GNRMC,101059.00,A,3951.85003,N,11622.42213,E,0.013,,071217,,,A*62
$GNVTG,,T,,M,0.013,N,0.024,K,A*39
$GNGGA,101059.00,3951.85003,N,11622.42213,E,1,12,0.80,55.8,M,-8.5,M,,*6D
$GNGSA,A,3,10,12,32,25,03,31,22,26,29,,,,1.58,0.80,1.36*16
$GNGSA,A,3,65,71,72,74,73,75,,,,,,,1.58,0.80,1.36*19
$GPGSV,4,1,16,01,02,285,18,03,12,321,21,04,,,35,10,22,182,30*46
$GPGSV,4,2,16,12,15,040,24,14,77,351,10,22,26,305,34,25,51,057,22*7A
$GPGSV,4,3,16,26,26,204,31,29,17,107,30,31,61,289,32,32,73,097,19*71
$GPGSV,4,4,16,40,13,251,,41,33,226,28,42,35,140,,50,35,140,*74
$GLGSV,2,1,08,65,26,326,30,71,46,162,29,72,74,298,34,73,34,037,27*67
$GLGSV,2,2,08,74,71,304,26,75,27,241,37,82,05,025,31,83,04,072,35*69
$GNGLL,3951.85003,N,11622.42213,E,101059.00,A,A*7B
$GNRMC,101100.00,A,3951.85000,N,11622.42244,E,0.035,,071217,,,A*6A
$GNVTG,,T,,M,0.035,N,0.064,K,A*39
$GNGGA,101100.00,3951.85000,N,11622.42244,E,1,12,0.80,55.8,M,-8.5,M,,*61
$GNGSA,A,3,10,12,32,25,14,03,31,22,26,29,,,1.47,0.80,1.23*19
$GNGSA,A,3,65,71,72,74,73,75,,,,,,,1.47,0.80,1.23*13
$GPGSV,4,1,16,01,02,285,17,03,12,321,23,04,,,35,10,22,182,30*4B
$GPGSV,4,2,16,12,15,040,26,14,77,351,14,22,26,305,33,25,51,057,22*7B
$GPGSV,4,3,16,26,26,204,31,29,17,107,31,31,61,289,32,32,73,099,20*74
$GPGSV,4,4,16,40,13,251,,41,33,226,28,42,35,140,,50,35,140,*74
$GLGSV,2,1,08,65,26,326,29,71,46,162,28,72,74,298,33,73,34,037,28*66
$GLGSV,2,2,08,74,71,304,24,75,27,241,37,82,05,025,31,83,04,072,34*6A
$GNGLL,3951.85000,N,11622.42244,E,101100.00,A,A*77
$GNRMC,101101.00,A,3951.85008,N,11622.42259,E,0.043,,071217,,,A*6E
$GNVTG,,T,,M,0.043,N,0.079,K,A*34
$GNGGA,101101.00,3951.85008,N,11622.42259,E,1,12,0.84,55.5,M,-8.5,M,,*6D
$GNGSA,A,3,10,12,32,25,14,03,31,22,26,29,,,1.51,0.84,1.26*1F
$GNGSA,A,3,65,71,72,74,73,75,,,,,,,1.51,0.84,1.26*15
$GPGSV,4,1,16,01,02,285,17,03,12,321,25,04,,,36,10,22,182,30*4E
$GPGSV,4,2,16,12,15,040,27,14,77,351,15,22,26,305,33,25,51,057,23*7A
$GPGSV,4,3,16,26,26,204,31,29,17,107,31,31,61,289,32,32,73,099,19*7E
$GPGSV,4,4,16,40,13,251,,41,33,226,28,42,35,140,,50,35,140,*74
$GLGSV,2,1,08,65,26,326,26,71,46,162,26,72,74,298,32,73,34,037,29*67
$GLGSV,2,2,08,74,71,304,22,75,27,241,37,82,05,025,30,83,04,072,34*6D
$GNGLL,3951.85008,N,11622.42259,E,101101.00,A,A*72
$GNRMC,101102.00,A,3951.85013,N,11622.42273,E,0.039,,071217,,,A*62
$GNVTG,,T,,M,0.039,N,0.073,K,A*33
$GNGGA,101102.00,3951.85013,N,11622.42273,E,1,12,0.87,55.2,M,-8.5,M,,*68
$GNGSA,A,3,10,12,32,25,14,03,31,22,26,29,,,1.54,0.87,1.27*18
$GNGSA,A,3,65,71,72,74,73,75,,,,,,,1.54,0.87,1.27*12
$GPGSV,4,1,16,01,02,285,17,03,12,321,26,04,,,36,10,22,182,31*4C
$GPGSV,4,2,16,12,15,040,27,14,77,351,12,22,26,305,33,25,51,057,23*7D
$GPGSV,4,3,16,26,26,204,31,29,17,107,31,31,61,289,31,32,73,099,18*7C
$GPGSV,4,4,16,40,13,251,,41,33,226,28,42,35,140,,50,35,140,*74
$GLGSV,2,1,08,65,26,326,22,71,46,162,25,72,74,298,31,73,34,037,29*63
$GLGSV,2,2,08,74,71,304,19,75,27,241,37,82,05,025,28,83,04,072,34*6C
$GNGLL,3951.85013,N,11622.42273,E,101102.00,A,A*73
$GNRMC,101103.00,A,3951.85020,N,11622.42286,E,0.013,,071217,,,A*61
$GNVTG,,T,,M,0.013,N,0.025,K,A*38
$GNGGA,101103.00,3951.85020,N,11622.42286,E,1,12,0.84,55.1,M,-8.5,M,,*63
$GNGSA,A,3,10,12,32,25,14,03,31,22,26,29,,,1.51,0.84,1.26*1F
$GNGSA,A,3,65,71,72,74,73,75,,,,,,,1.51,0.84,1.26*15
$GPGSV,4,1,16,01,02,285,16,03,12,321,26,04,,,37,10,22,182,31*4C
$GPGSV,4,2,16,12,15,040,27,14,77,351,10,22,26,305,32,25,51,057,23*7E
$GPGSV,4,3,16,26,26,204,30,29,17,107,30,31,61,289,30,32,73,099,16*73
$GPGSV,4,4,16,40,13,251,,41,33,226,28,42,35,140,,50,35,140,*74
$GLGSV,2,1,08,65,26,326,20,71,46,162,26,72,74,298,29,73,34,037,29*6B
$GLGSV,2,2,08,74,71,304,20,75,27,241,38,82,05,025,27,83,04,072,35*67
$GNGLL,3951.85020,N,11622.42286,E,101103.00,A,A*78
$GNRMC,101104.00,A,3951.85028,N,11622.42301,E,0.041,,071217,,,A*67
$GNVTG,,T,,M,0.041,N,0.076,K,A*39
$GNGGA,101104.00,3951.85028,N,11622.42301,E,1,12,0.84,55.0,M,-8.5,M,,*63
$GNGSA,A,3,10,12,32,25,14,03,31,22,26,29,,,1.51,0.84,1.26*1F
$GNGSA,A,3,65,71,72,74,73,75,,,,,,,1.51,0.84,1.26*15
$GPGSV,4,1,16,01,02,285,17,03,12,321,26,04,,,37,10,22,182,31*4D
$GPGSV,4,2,16,12,15,040,27,14,77,351,17,22,26,305,32,25,51,057,23*79
$GPGSV,4,3,16,26,26,204,30,29,17,107,29,31,61,289,29,32,73,099,14*71
$GPGSV,4,4,16,40,13,251,,41,33,226,28,42,35,140,,50,35,140,*74
$GLGSV,2,1,08,65,26,326,21,71,46,162,26,72,74,298,29,73,34,037,31*63
$GLGSV,2,2,08,74,71,304,20,75,27,241,38,82,05,025,27,83,04,072,34*66
$GNGLL,3951.85028,N,11622.42301,E,101104.00,A,A*79
$GNRMC,101105.00,A,3951.85034,N,11622.42315,E,0.037,,071217,,,A*6F
$GNVTG,,T,,M,0.037,N,0.068,K,A*37
$GNGGA,101105.00,3951.85034,N,11622.42315,E,1,12,0.88,55.0,M,-8.5,M,,*66
$GNGSA,A,3,10,12,32,25,03,31,22,26,29,,,,1.69,0.88,1.44*19
$GNGSA,A,3,65,71,72,74,73,75,,,,,,,1.69,0.88,1.44*16
$GPGSV,4,1,16,01,02,285,17,03,12,321,26,04,,,37,10,22,182,30*4C
$GPGSV,4,2,16,12,15,040,26,14,77,351,09,22,26,305,32,25,51,057,24*70
$GPGSV,4,3,16,26,26,204,30,29,17,107,28,31,61,289,28,32,73,099,12*77
$GPGSV,4,4,16,40,13,251,,41,33,226,28,42,35,140,,50,35,140,*74
$GLGSV,2,1,08,65,26,326,25,71,46,162,26,72,74,298,29,73,34,037,31*67
$GLGSV,2,2,08,74,71,304,22,75,27,241,39,82,05,025,28,83,04,072,34*6A
$GNGLL,3951.85034,N,11622.42315,E,101105.00,A,A*70
$GNRMC,101106.00,A,3951.85039,N,11622.42324,E,0.017,,071217,,,A*61
$GNVTG,,T,,M,0.017,N,0.031,K,A*39
$GNGGA,101106.00,3951.85039,N,11622.42324,E,1,12,0.84,55.0,M,-8.5,M,,*66
$GNGSA,A,3,10,12,25,14,03,31,22,26,29,,,,1.55,0.84,1.30*1D
$GNGSA,A,3,65,71,72,74,73,75,,,,,,,1.55,0.84,1.30*16
$GPGSV,4,1,16,01,02,285,18,03,12,321,26,04,,,38,10,22,182,30*4C
$GPGSV,4,2,16,12,15,040,26,14,77,351,11,22,26,305,33,25,51,057,25*79
$GPGSV,4,3,16,26,26,204,29,29,17,107,27,31,61,289,27,32,73,099,*7C
$GPGSV,4,4,16,40,13,251,,41,33,226,28,42,35,140,,50,35,140,*74
$GLGSV,2,1,08,65,26,326,27,71,46,162,26,72,74,298,28,73,34,037,30*65
$GLGSV,2,2,08,74,71,304,23,75,27,241,39,82,05,025,30,83,04,072,34*62
$GNGLL,3951.85039,N,11622.42324,E,101106.00,A,A*7C
$GNRMC,101107.00,A,3951.85040,N,11622.42341,E,0.034,,071217,,,A*6C
$GNVTG,,T,,M,0.034,N,0.062,K,A*3E
$GNGGA,101107.00,3951.85040,N,11622.42341,E,1,12,0.80,55.3,M,-8.5,M,,*6D
$GNGSA,A,3,10,12,25,14,03,31,22,26,29,,,,1.62,0.80,1.41*1B
$GNGSA,A,3,65,71,72,74,73,75,,,,,,,1.62,0.80,1.41*10
$GPGSV,4,1,16,01,02,285,18,03,12,321,25,04,,,38,10,22,182,30*4F
$GPGSV,4,2,16,12,15,040,26,14,77,351,15,22,26,305,33,25,51,057,26*7E
$GPGSV,4,3,16,26,26,204,28,29,17,107,26,31,61,289,26,32,73,099,16*7A
$GPGSV,4,4,16,40,13,251,,41,33,226,29,42,35,140,,50,35,140,*75
$GLGSV,2,1,08,65,26,326,28,71,46,162,27,72,74,298,28,73,34,037,29*63
$GLGSV,2,2,08,74,71,304,24,75,27,241,40,82,05,025,29,83,04,072,34*63
$GNGLL,3951.85040,N,11622.42341,E,101107.00,A,A*70
$GNRMC,101108.00,A,3951.85038,N,11622.42348,E,0.050,,071217,,,A*67
$GNVTG,,T,,M,0.050,N,0.093,K,A*32
$GNGGA,101108.00,3951.85038,N,11622.42348,E,1,12,0.85,55.6,M,-8.5,M,,*64
$GNGSA,A,3,10,12,25,14,03,31,22,26,29,,,,1.65,0.85,1.42*1A
$GNGSA,A,3,65,71,72,74,73,75,,,,,,,1.65,0.85,1.42*11
$GPGSV,4,1,16,01,02,285,18,03,12,321,24,04,,,38,10,22,182,30*4E
$GPGSV,4,2,16,12,15,040,26,14,77,351,14,22,26,305,33,25,51,057,26*7F
$GPGSV,4,3,16,26,26,204,27,29,17,107,25,31,61,289,25,32,73,099,17*74
$GPGSV,4,4,16,40,13,251,,41,33,226,28,42,35,140,,50,35,140,*74
$GLGSV,2,1,08,65,26,326,29,71,46,162,28,72,74,298,28,73,34,037,29*6D
$GLGSV,2,2,08,74,71,304,25,75,27,241,40,82,05,025,28,83,04,072,35*62
$GNGLL,3951.85038,N,11622.42348,E,101108.00,A,A*79
$GNRMC,101109.00,A,3951.85041,N,11622.42350,E,0.016,,071217,,,A*63
$GNVTG,,T,,M,0.016,N,0.029,K,A*31
$GNGGA,101109.00,3951.85041,N,11622.42350,E,1,12,0.92,55.8,M,-8.5,M,,*6A
$GNGSA,A,3,10,12,25,03,31,22,26,29,,,,,1.72,0.92,1.46*1B
$GNGSA,A,3,65,71,72,74,73,75,,,,,,,1.72,0.92,1.46*15
$GPGSV,4,1,16,01,02,285,16,03,12,321,23,04,,,38,10,22,182,29*4F
$GPGSV,4,2,16,12,15,040,25,14,77,351,11,22,26,305,34,25,51,057,27*7F
$GPGSV,4,3,16,26,26,204,25,29,17,107,23,31,61,289,25,32,73,099,19*7E
$GPGSV,4,4,16,40,13,251,,41,33,226,28,42,35,140,,50,35,140,*74
$GLGSV,2,1,08,65,26,326,28,71,46,162,28,72,74,298,27,73,34,037,31*6A
$GLGSV,2,2,08,74,71,304,25,75,27,241,40,82,05,025,26,83,04,072,35*6C
$GNGLL,3951.85041,N,11622.42350,E,101109.00,A,A*7F
$GNRMC,101110.00,A,3951.85046,N,11622.42360,E,0.021,,071217,,,A*6B
$GNVTG,,T,,M,0.021,N,0.039,K,A*34
$GNGGA,101110.00,3951.85046,N,11622.42360,E,1,12,0.87,56.2,M,-8.5,M,,*6B
$GNGSA,A,3,10,12,32,25,03,31,22,26,29,,,,1.64,0.87,1.39*11
$GNGSA,A,3,65,71,72,74,73,75,,,,,,,1.64,0.87,1.39*1E
$GPGSV,4,1,16,01,02,285,16,03,12,321,21,04,,,38,10,22,182,29*4D
$GPGSV,4,2,16,12,15,040,24,14,77,351,08,22,26,305,34,25,51,057,27*76
$GPGSV,4,3,16,26,26,204,23,29,17,107,23,31,61,289,25,32,73,099,20*72
$GPGSV,4,4,16,40,13,251,,41,33,226,28,42,35,140,,50,35,140,*74
$GLGSV,2,1,08,65,26,326,26,71,46,162,28,72,74,298,26,73,34,037,31*65
$GLGSV,2,2,08,74,71,304,26,75,27,241,39,82,05,025,25,83,04,072,36*61
$GNGLL,3951.85046,N,11622.42360,E,101110.00,A,A*73
$GNRMC,101111.00,A,3951.85051,N,11622.42371,E,0.055,,071217,,,A*6F
$GNVTG,,T,,M,0.055,N,0.102,K,A*3E
$GNGGA,101111.00,3951.85051,N,11622.42371,E,1,12,0.87,56.5,M,-8.5,M,,*6B
$GNGSA,A,3,10,12,32,25,03,31,22,26,29,,,,1.64,0.87,1.39*11
$GNGSA,A,3,65,71,72,74,73,75,,,,,,,1.64,0.87,1.39*1E
$GPGSV,4,1,16,01,02,285,17,03,12,321,19,04,,,38,10,22,182,28*46
$GPGSV,4,2,16,12,15,040,23,14,77,351,08,22,26,305,34,25,51,057,26*70
$GPGSV,4,3,16,26,26,204,20,29,17,107,22,31,61,289,25,32,73,099,18*7B
$GPGSV,4,4,16,40,13,251,,41,33,226,28,42,35,140,,50,35,140,*74
$GLGSV,2,1,08,65,26,326,24,71,46,162,28,72,74,298,26,73,34,037,32*64
$GLGSV,2,2,08,74,71,304,26,75,27,241,39,82,05,025,24,83,04,072,37*61
$GNGLL,3951.85051,N,11622.42371,E,101111.00,A,A*74
$GNRMC,101112.00,A,3951.85056,N,11622.42382,E,0.033,,071217,,,A*67
$GNVTG,,T,,M,0.033,N,0.060,K,A*3B
$GNGGA,101112.00,3951.85056,N,11622.42382,E,1,12,0.87,56.8,M,-8.5,M,,*6E
$GNGSA,A,3,10,12,32,25,03,31,22,26,29,,,,1.64,0.87,1.39*11
$GNGSA,A,3,65,71,72,74,73,75,,,,,,,1.64,0.87,1.39*1E
$GPGSV,4,1,16,01,02,285,16,03,12,321,17,04,,,39,10,22,182,27*47
$GPGSV,4,2,16,12,15,040,21,14,77,351,08,22,26,305,33,25,51,057,26*75
$GPGSV,4,3,16,26,26,204,18,29,17,107,21,31,61,289,25,32,73,099,19*72
$GPGSV,4,4,16,40,13,251,,41,33,226,28,42,35,140,,50,35,140,*74
$GLGSV,2,1,08,65,26,326,21,71,46,162,28,72,74,298,27,73,34,037,32*60
$GLGSV,2,2,08,74,71,304,26,75,27,241,39,82,05,025,24,83,04,072,36*60
$GNGLL,3951.85056,N,11622.42382,E,101112.00,A,A*7C
$GNRMC,101113.00,A,3951.85062,N,11622.42394,E,0.006,,071217,,,A*60
$GNVTG,,T,,M,0.006,N,0.012,K,A*38
$GNGGA,101113.00,3951.85062,N,11622.42394,E,1,12,0.87,57.1,M,-8.5,M,,*67
$GNGSA,A,3,10,12,32,25,14,03,31,22,26,29,,,1.52,0.87,1.25*1C
$GNGSA,A,3,65,71,72,74,73,75,,,,,,,1.52,0.87,1.25*16
$GPGSV,4,1,16,01,02,285,16,03,12,321,16,04,,,39,10,22,182,27*46
$GPGSV,4,2,16,12,15,040,21,14,77,351,08,22,26,305,33,25,51,057,26*75
$GPGSV,4,3,16,26,26,204,14,29,17,107,20,31,61,289,26,32,73,099,20*76
$GPGSV,4,4,16,40,13,251,,41,33,226,29,42,35,140,,50,35,140,*75
$GLGSV,2,1,08,65,26,326,21,71,46,162,28,72,74,298,28,73,34,037,32*6F
$GLGSV,2,2,08,74,71,304,25,75,27,241,39,82,05,025,24,83,04,072,36*63
$GNGLL,3951.85062,N,11622.42394,E,101113.00,A,A*7D
$GNRMC,101114.00,A,3951.85068,N,11622.42406,E,0.053,,071217,,,A*61
$GNVTG,,T,,M,0.053,N,0.098,K,A*3A
$GNGGA,101114.00,3951.85068,N,11622.42406,E,1,12,0.85,57.3,M,-8.5,M,,*66
$GNGSA,A,3,10,12,32,25,14,03,31,22,26,29,,,1.57,0.85,1.32*1D
$GNGSA,A,3,65,71,72,74,73,75,,,,,,,1.57,0.85,1.32*17
$GPGSV,4,1,16,01,02,285,14,03,12,321,15,04,,,39,10,22,182,27*47
$GPGSV,4,2,16,12,15,040,20,14,77,351,11,22,26,305,32,25,51,057,26*7D
$GPGSV,4,3,16,26,26,204,12,29,17,107,20,31,61,289,26,32,73,099,20*70
$GPGSV,4,4,16,40,13,251,,41,33,226,29,42,35,140,,50,35,140,*75
$GLGSV,2,1,08,65,26,326,22,71,46,162,30,72,74,298,29,73,34,037,33*65
$GLGSV,2,2,08,74,71,304,24,75,27,241,39,82,05,025,25,83,04,072,35*60
$GNGLL,3951.85068,N,11622.42406,E,101114.00,A,A*7C
$GNRMC,101115.00,A,3951.85079,N,11622.42416,E,0.058,,071217,,,A*6A
$GNVTG,,T,,M,0.058,N,0.108,K,A*39
$GNGGA,101115.00,3951.85079,N,11622.42416,E,1,12,0.85,57.2,M,-8.5,M,,*67
$GNGSA,A,3,10,12,32,25,14,03,31,22,26,29,,,1.48,0.85,1.22*12
$GNGSA,A,3,65,71,72,74,73,75,,,,,,,1.48,0.85,1.22*18
$GPGSV,4,1,16,01,02,285,13,03,12,321,16,04,,,38,10,22,182,26*43
$GPGSV,4,2,16,12,15,040,19,14,77,351,12,22,26,305,31,25,51,057,26*77
$GPGSV,4,3,16,26,26,204,12,29,17,107,21,31,61,289,26,32,73,099,20*71
$GPGSV,4,4,16,40,13,251,,41,33,226,29,42,35,140,,50,35,140,*75
$GLGSV,2,1,08,65,26,326,24,71,46,162,31,72,74,298,30,73,34,037,33*6A
$GLGSV,2,2,08,74,71,304,22,75,27,241,39,82,05,025,25,83,04,072,35*66
$GNGLL,3951.85079,N,11622.42416,E,101115.00,A,A*7C
$GNRMC,101116.00,A,3951.85086,N,11622.42432,E,0.042,,071217,,,A*64
$GNVTG,,T,,M,0.042,N,0.078,K,A*34
$GNGGA,101116.00,3951.85086,N,11622.42432,E,1,12,0.92,57.5,M,-8.5,M,,*63
$GNGSA,A,3,10,12,32,25,14,03,31,22,26,29,,,1.58,0.92,1.28*1F
$GNGSA,A,3,65,71,72,74,73,75,,,,,,,1.58,0.92,1.28*15
$GPGSV,4,1,16,01,02,285,13,03,12,321,15,04,,,38,10,22,182,27*41
$GPGSV,4,2,16,12,15,040,20,14,77,351,13,22,26,305,31,25,51,057,27*7D
$GPGSV,4,3,16,26,26,204,12,29,17,107,22,31,61,289,25,32,73,099,20*71
$GPGSV,4,4,16,40,13,251,,41,33,226,29,42,35,140,,50,35,140,*75
$GLGSV,2,1,08,65,26,326,26,71,46,162,32,72,74,298,30,73,34,037,33*6B
$GLGSV,2,2,08,74,71,304,20,75,27,241,39,82,05,025,26,83,04,072,34*66
$GNGLL,3951.85086,N,11622.42432,E,101116.00,A,A*79
$GNRMC,101117.00,A,3951.85092,N,11622.42447,E,0.056,,071217,,,A*67
$GNVTG,,T,,M,0.056,N,0.104,K,A*3B
$GNGGA,101117.00,3951.85092,N,11622.42447,E,1,12,0.80,57.9,M,-8.5,M,,*6A
$GNGSA,A,3,10,12,32,25,14,03,31,22,26,29,,,1.57,0.80,1.35*1F
$GNGSA,A,3,65,71,72,74,73,75,,,,,,,1.57,0.80,1.35*15
$GPGSV,4,1,16,01,02,285,11,03,12,321,18,04,,,39,10,22,182,27*4F
$GPGSV,4,2,16,12,15,040,21,14,77,351,12,22,26,305,31,25,51,057,28*72
$GPGSV,4,3,16,26,26,204,13,29,17,107,23,31,61,289,23,32,73,099,19*7D
$GPGSV,4,4,16,40,13,251,,41,33,226,28,42,35,140,,50,35,140,*74
$GLGSV,2,1,08,65,26,326,27,71,46,162,32,72,74,298,29,73,34,037,32*63
$GLGSV,2,2,08,74,71,304,16,75,27,241,39,82,05,025,27,83,04,072,34*62
$GNGLL,3951.85092,N,11622.42447,E,101117.00,A,A*7F
$GNRMC,101118.00,A,3951.85102,N,11622.42456,E,0.024,,071217,,,A*65
$GNVTG,,T,,M,0.024,N,0.045,K,A*3A
$GNGGA,101118.00,3951.85102,N,11622.42456,E,1,12,0.87,58.3,M,-8.5,M,,*6F
$GNGSA,A,3,10,12,32,25,14,03,31,22,26,29,,,1.52,0.87,1.25*1C
$GNGSA,A,3,65,71,72,74,73,75,,,,,,,1.52,0.87,1.25*16
$GPGSV,4,1,16,01,02,285,10,03,12,321,20,04,,,38,10,22,182,28*4B
$GPGSV,4,2,16,12,15,040,23,14,77,351,18,22,26,305,30,25,51,057,28*7B
$GPGSV,4,3,16,26,26,204,15,29,17,107,23,31,61,289,22,32,73,099,17*74
$GPGSV,4,4,16,40,13,251,,41,33,226,29,42,35,140,,50,35,140,*75
$GLGSV,2,1,08,65,26,326,27,71,46,162,33,72,74,298,28,73,34,037,31*60
$GLGSV,2,2,08,74,71,304,13,75,27,241,39,82,05,025,27,83,04,072,34*67
$GNGLL,3951.85102,N,11622.42456,E,101118.00,A,A*78
$GNRMC,101119.00,A,3951.85112,N,11622.42464,E,0.106,,071217,,,A*65
$GNVTG,,T,,M,0.106,N,0.196,K,A*34
$GNGGA,101119.00,3951.85112,N,11622.42464,E,1,12,0.87,58.7,M,-8.5,M,,*6A
$GNGSA,A,3,10,12,32,25,14,03,31,22,26,29,,,1.52,0.87,1.25*1C
$GNGSA,A,3,65,71,72,74,73,75,,,,,,,1.52,0.87,1.25*16
$GPGSV,4,1,16,01,02,285,11,03,12,321,22,04,,,38,10,22,182,28*48
$GPGSV,4,2,16,12,15,040,24,14,77,351,17,22,26,305,30,25,51,057,29*72
$GPGSV,4,3,16,26,26,204,17,29,17,107,24,31,61,289,23,32,73,099,16*71
$GPGSV,4,4,16,40,13,251,,41,33,226,28,42,35,140,,50,35,140,*74
$GLGSV,2,1,08,65,26,326,25,71,46,162,32,72,74,298,28,73,34,037,31*63
$GLGSV,2,2,08,74,71,304,17,75,27,241,38,82,05,025,26,83,04,072,33*64
$GNGLL,3951.85112,N,11622.42464,E,101119.00,A,A*79
$GNRMC,101120.00,A,3951.85124,N,11622.42473,E,0.027,,071217,,,A*6E
$GNVTG,,T,,M,0.027,N,0.049,K,A*35
$GNGGA,101120.00,3951.85124,N,11622.42473,E,1,12,0.88,59.2,M,-8.5,M,,*68
$GNGSA,A,3,10,12,32,25,14,03,31,22,26,29,,,1.83,0.88,1.60*1E
$GNGSA,A,3,65,71,72,74,73,75,,,,,,,1.83,0.88,1.60*14
$GPGSV,4,1,16,01,02,285,08,03,12,321,23,04,,,39,10,22,182,28*40
$GPGSV,4,2,16,12,15,040,24,14,77,351,20,22,26,305,30,25,51,057,30*7E
$GPGSV,4,3,16,26,26,204,17,29,17,107,25,31,61,289,23,32,73,099,18*7E
$GPGSV,4,4,16,40,13,251,,41,33,226,29,42,35,140,,50,35,140,*75
$GLGSV,2,1,08,65,26,326,24,71,46,162,30,72,74,298,28,73,34,037,30*61
$GLGSV,2,2,08,74,71,304,14,75,27,241,38,82,05,025,25,83,04,072,33*64
$GNGLL,3951.85124,N,11622.42473,E,101120.00,A,A*70
$GNRMC,101121.00,A,3951.85134,N,11622.42485,E,0.043,,071217,,,A*65
$GNVTG,,T,,M,0.043,N,0.080,K,A*32
$GNGGA,101121.00,3951.85134,N,11622.42485,E,1,12,0.80,59.7,M,-8.5,M,,*6C
$GNGSA,A,3,10,12,32,25,14,03,31,22,26,29,,,1.45,0.80,1.21*19
$GNGSA,A,3,65,71,72,74,73,75,,,,,,,1.45,0.80,1.21*13
$GPGSV,4,1,16,01,02,285,12,03,12,321,24,04,,,39,10,22,182,29*4D
$GPGSV,4,2,16,12,15,040,26,14,77,351,17,22,26,305,31,25,51,057,30*79
$GPGSV,4,3,16,26,26,204,16,29,17,107,26,31,61,289,25,32,73,099,21*70
$GPGSV,4,4,16,40,13,251,,41,33,226,29,42,35,140,,50,35,140,*75
$GLGSV,2,1,08,65,26,326,24,71,46,162,31,72,74,298,29,73,34,037,31*60
$GLGSV,2,2,08,74,71,304,19,75,27,241,38,82,05,025,22,83,04,072,33*6E
$GNGLL,3951.85134,N,11622.42485,E,101121.00,A,A*79
$GNRMC,101122.00,A,3951.85151,N,11622.42496,E,0.022,,071217,,,A*60
$GNVTG,,T,,M,0.022,N,0.040,K,A*39
$GNGGA,101122.00,3951.85151,N,11622.42496,E,1,12,0.83,60.0,M,-8.5,M,,*60
$GNGSA,A,3,10,12,32,25,14,03,31,22,26,29,,,1.45,0.83,1.19*11
$GNGSA,A,3,65,71,72,74,73,75,,,,,,,1.45,0.83,1.19*1B
$GPGSV,4,1,16,01,02,285,15,03,12,321,24,04,,,39,10,22,182,28*4B
$GPGSV,4,2,16,12,15,040,28,14,77,351,20,22,26,305,32,25,51,057,30*70
$GPGSV,4,3,16,26,26,204,17,29,17,107,26,31,61,289,27,32,73,099,22*70
$GPGSV,4,4,16,40,13,251,,41,33,226,29,42,35,140,,50,35,140,*75
$GLGSV,2,1,08,65,26,326,23,71,46,162,32,72,74,298,29,73,34,037,31*64
$GLGSV,2,2,08,74,71,304,18,75,27,241,36,82,05,025,22,83,04,072,31*63
$GNGLL,3951.85151,N,11622.42496,E,101122.00,A,A*7B
$GNRMC,101123.00,A,3951.85166,N,11622.42505,E,0.046,,071217,,,A*6C
$GNVTG,,T,,M,0.046,N,0.085,K,A*32
$GNGGA,101123.00,3951.85166,N,11622.42505,E,1,12,0.83,60.2,M,-8.5,M,,*6C
$GNGSA,A,3,10,12,32,25,14,03,31,22,26,29,,,1.45,0.83,1.19*11
$GNGSA,A,3,65,71,72,74,73,75,,,,,,,1.45,0.83,1.19*1B
$GPGSV,4,1,16,01,02,285,08,03,12,321,25,04,,,39,10,22,182,28*46
$GPGSV,4,2,16,12,15,040,28,14,77,351,21,22,26,305,32,25,51,057,31*70
$GPGSV,4,3,16,26,26,204,18,29,17,107,26,31,61,289,28,32,73,099,22*70
$GPGSV,4,4,16,40,13,251,,41,33,226,28,42,35,140,,50,35,140,*74
$GLGSV,2,1,08,65,26,326,22,71,46,162,32,72,74,298,29,73,34,037,32*66
$GLGSV,2,2,08,74,71,304,19,75,27,241,36,82,05,025,25,83,04,072,31*65
$GNGLL,3951.85166,N,11622.42505,E,101123.00,A,A*75
$GNRMC,101124.00,A,3951.85182,N,11622.42508,E,0.041,,071217,,,A*6B
$GNVTG,,T,,M,0.041,N,0.075,K,A*3A
$GNGGA,101124.00,3951.85182,N,11622.42508,E,1,12,0.84,60.4,M,-8.5,M,,*6D
$GNGSA,A,3,10,12,32,25,14,03,31,22,26,29,,,1.47,0.84,1.21*1F
$GNGSA,A,3,65,71,72,74,73,75,,,,,,,1.47,0.84,1.21*15
$GPGSV,4,1,16,01,02,285,11,03,12,321,26,04,,,39,10,22,182,28*4D
$GPGSV,4,2,16,12,15,040,29,14,77,351,21,22,26,305,33,25,51,057,31*70
$GPGSV,4,3,16,26,26,204,18,29,17,107,26,31,61,289,29,32,73,099,20*73
$GPGSV,4,4,16,40,13,251,,41,33,226,28,42,35,140,,50,35,140,*74
$GLGSV,2,1,08,65,26,326,23,71,46,162,32,72,74,298,28,73,34,037,33*67
$GLGSV,2,2,08,74,71,304,20,75,27,241,33,82,05,025,26,83,04,072,31*69
$GNGLL,3951.85182,N,11622.42508,E,101124.00,A,A*75
$GNRMC,101125.00,A,3951.85201,N,11622.42516,E,0.045,,071217,,,A*69
$GNVTG,,T,,M,0.045,N,0.083,K,A*37
$GNGGA,101125.00,3951.85201,N,11622.42516,E,1,12,0.83,60.4,M,-8.5,M,,*6C
$GNGSA,A,3,10,12,32,25,14,03,31,22,26,29,,,1.45,0.83,1.19*11
$GNGSA,A,3,65,71,72,74,73,75,,,,,,,1.45,0.83,1.19*1B
$GPGSV,4,1,16,01,02,285,08,03,12,321,26,04,,,38,10,22,182,28*44
$GPGSV,4,2,16,12,15,040,30,14,77,351,22,22,26,305,32,25,51,057,31*7A
$GPGSV,4,3,16,26,26,204,20,29,17,107,27,31,61,289,30,32,73,099,18*7A
$GPGSV,4,4,16,40,13,251,,41,33,226,28,42,35,140,,50,35,140,*74
$GLGSV,2,1,08,65,26,326,23,71,45,163,33,72,74,298,27,73,34,037,34*6C
$GLGSV,2,2,08,74,71,304,19,75,27,241,33,82,05,025,26,83,04,072,31*63
$GNGLL,3951.85201,N,11622.42516,E,101125.00,A,A*73
$GNRMC,101126.00,A,3951.85212,N,11622.42527,E,0.067,,071217,,,A*6A
$GNVTG,,T,,M,0.067,N,0.124,K,A*3B
$GNGGA,101126.00,3951.85212,N,11622.42527,E,1,12,0.88,60.3,M,-8.5,M,,*63
$GNGSA,A,3,10,12,32,25,14,03,31,22,26,29,,,1.52,0.88,1.24*12
$GNGSA,A,3,65,71,72,74,73,75,,,,,,,1.52,0.88,1.24*18
$GPGSV,4,1,16,01,02,285,11,03,12,321,26,04,,,38,10,22,182,28*4C
$GPGSV,4,2,16,12,15,040,30,14,77,351,22,22,26,305,32,25,51,057,32*79
$GPGSV,4,3,16,26,26,204,20,29,17,107,26,31,61,289,30,32,73,099,15*76
$GPGSV,4,4,16,40,13,251,,41,33,226,28,42,35,140,,50,35,140,*74
$GLGSV,2,1,08,65,26,326,22,71,45,163,33,72,74,296,27,73,34,037,34*63
$GLGSV,2,2,08,74,71,304,19,75,27,241,36,82,05,025,26,83,04,072,32*65
$GNGLL,3951.85212,N,11622.42527,E,101126.00,A,A*70
$GNRMC,101127.00,A,3951.85225,N,11622.42540,E,0.056,,071217,,,A*6C
$GNVTG,,T,,M,0.056,N,0.104,K,A*3B
$GNGGA,101127.00,3951.85225,N,11622.42540,E,1,12,0.80,60.2,M,-8.5,M,,*6E
$GNGSA,A,3,10,12,32,25,14,03,31,22,26,29,,,1.45,0.80,1.21*19
$GNGSA,A,3,65,71,72,74,73,75,,,,,,,1.45,0.80,1.21*13
$GPGSV,4,1,16,01,02,285,12,03,12,321,26,04,,,38,10,22,182,28*4F
$GPGSV,4,2,16,12,15,040,30,14,77,351,23,22,26,305,32,25,51,057,32*78
$GPGSV,4,3,16,26,26,204,21,29,17,107,27,31,61,289,29,32,73,099,14*7F
$GPGSV,4,4,16,40,13,251,,41,33,226,28,42,35,140,,50,35,140,*74
$GLGSV,2,1,08,65,26,326,21,71,45,163,33,72,74,296,27,73,34,037,34*60
$GLGSV,2,2,08,74,71,304,18,75,27,241,36,82,05,025,25,83,04,072,33*66
$GNGLL,3951.85225,N,11622.42540,E,101127.00,A,A*74
$GNRMC,101128.00,A,3951.85237,N,11622.42550,E,0.018,,071217,,,A*6B
$GNVTG,,T,,M,0.018,N,0.034,K,A*33
$GNGGA,101128.00,3951.85237,N,11622.42550,E,1,12,0.79,59.7,M,-8.5,M,,*6A
$GNGSA,A,3,10,12,32,25,14,03,31,22,26,29,,,1.42,0.79,1.18*12
$GNGSA,A,3,65,71,72,74,73,75,,,,,,,1.42,0.79,1.18*18
$GPGSV,4,1,16,01,02,285,12,03,12,321,25,04,,,38,10,22,182,27*43
$GPGSV,4,2,16,12,15,040,30,14,77,351,22,22,26,305,31,25,51,057,32*7A
$GPGSV,4,3,16,26,26,204,21,29,17,107,28,31,61,289,29,32,73,099,14*70
$GPGSV,4,4,16,40,13,251,,41,33,226,29,42,35,140,,50,35,140,*75
$GLGSV,2,1,08,65,26,326,20,71,45,163,34,72,74,296,28,73,34,037,34*69
$GLGSV,2,2,08,74,71,306,18,75,27,241,36,82,05,025,22,83,04,072,33*63
$GNGLL,3951.85237,N,11622.42550,E,101128.00,A,A*79
$GNRMC,101129.00,A,3951.85248,N,11622.42575,E,0.036,,071217,,,A*69
$GNVTG,,T,,M,0.036,N,0.067,K,A*39
$GNGGA,101129.00,3951.85248,N,11622.42575,E,1,12,0.87,59.0,M,-8.5,M,,*62
$GNGSA,A,3,10,12,32,25,14,03,31,22,26,29,,,1.50,0.87,1.22*19
$GNGSA,A,3,65,71,72,74,73,75,,,,,,,1.50,0.87,1.22*13
$GPGSV,4,1,16,01,02,285,11,03,12,321,25,04,,,37,10,22,182,27*4F
$GPGSV,4,2,16,12,15,040,30,14,77,351,22,22,26,305,30,25,51,057,33*7A
$GPGSV,4,3,16,26,26,204,21,29,17,107,30,31,61,289,28,32,73,099,18*74
$GPGSV,4,4,16,40,13,251,,41,33,226,29,42,35,140,,50,35,140,*75
$GLGSV,2,1,08,65,26,326,22,71,45,163,34,72,74,296,29,73,34,037,33*6D
$GLGSV,2,2,08,74,71,306,16,75,27,242,35,82,05,025,22,83,04,072,34*6A
$GNGLL,3951.85248,N,11622.42575,E,101129.00,A,A*77
$GNRMC,101130.00,A,3951.85261,N,11622.42598,E,0.071,,071217,,,A*6A
$GNVTG,,T,,M,0.071,N,0.132,K,A*3B
$GNGGA,101130.00,3951.85261,N,11622.42598,E,1,12,0.79,58.1,M,-8.5,M,,*63
$GNGSA,A,3,10,12,32,25,14,03,31,22,26,29,,,1.42,0.79,1.18*12
$GNGSA,A,3,65,71,72,74,73,75,,,,,,,1.42,0.79,1.18*18
$GPGSV,4,1,16,01,02,285,14,03,12,321,23,04,,,37,10,22,182,26*4D
$GPGSV,4,2,16,12,15,040,30,14,77,351,22,22,26,305,30,25,51,057,34*7D
$GPGSV,4,3,16,26,26,204,20,29,17,107,31,31,61,289,27,32,73,099,21*71
$GPGSV,4,4,16,40,13,251,,41,33,226,29,42,35,140,,50,35,140,*75
$GLGSV,2,1,08,65,26,326,25,71,45,163,34,72,74,296,30,73,34,037,33*62
$GLGSV,2,2,08,74,71,306,10,75,27,242,36,82,05,025,21,83,04,072,34*6C
$GNGLL,3951.85261,N,11622.42598,E,101130.00,A,A*77
$GNRMC,101131.00,A,3951.85272,N,11622.42615,E,0.052,,071217,,,A*6E
$GNVTG,,T,,M,0.052,N,0.097,K,A*34
$GNGGA,101131.00,3951.85272,N,11622.42615,E,1,12,0.80,57.5,M,-8.5,M,,*6B
$GNGSA,A,3,10,12,32,25,14,03,31,22,26,29,,,1.45,0.80,1.21*19
$GNGSA,A,3,65,71,72,74,73,75,,,,,,,1.45,0.80,1.21*13
$GPGSV,4,1,16,01,02,285,14,03,12,321,22,04,,,36,10,22,182,26*4D
$GPGSV,4,2,16,12,15,040,29,14,77,351,22,22,26,305,30,25,51,057,34*75
$GPGSV,4,3,16,26,26,204,21,29,17,107,32,31,61,289,25,32,73,099,23*73
$GPGSV,4,4,16,40,13,251,,41,33,226,29,42,35,140,,50,35,140,*75
$GLGSV,2,1,08,65,26,326,32,71,45,163,33,72,74,296,29,73,34,037,32*6A
$GLGSV,2,2,08,74,71,306,20,75,27,242,39,82,05,025,22,83,04,072,34*63
$GNGLL,3951.85272,N,11622.42615,E,101131.00,A,A*72
$GNRMC,101132.00,A,3951.85282,N,11622.42637,E,0.038,,071217,,,A*6E
$GNVTG,,T,,M,0.038,N,0.070,K,A*31
$GNGGA,101132.00,3951.85282,N,11622.42637,E,1,12,0.88,56.5,M,-8.5,M,,*6E
$GNGSA,A,3,10,12,32,25,14,03,31,22,26,29,,,1.52,0.88,1.24*12
$GNGSA,A,3,65,71,72,74,73,75,,,,,,,1.52,0.88,1.24*18
$GPGSV,4,1,16,01,02,285,11,03,12,321,21,04,,,35,10,22,182,26*48
$GPGSV,4,2,16,12,15,040,29,14,77,351,22,22,26,305,29,25,51,057,33*7A
$GPGSV,4,3,16,26,26,204,20,29,17,107,32,31,61,289,25,32,73,099,24*75
$GPGSV,4,4,16,40,13,251,,41,33,226,29,42,35,140,,50,35,140,*75
$GLGSV,2,1,08,65,26,326,32,71,45,163,33,72,74,296,29,73,34,037,30*68
$GLGSV,2,2,08,74,71,306,21,75,27,242,39,82,05,025,23,83,04,072,34*63
$GNGLL,3951.85282,N,11622.42637,E,101132.00,A,A*7E
$GNRMC,101133.00,A,3951.85286,N,11622.42656,E,0.074,,071217,,,A*64
$GNVTG,,T,,M,0.074,N,0.136,K,A*3A
$GNGGA,101133.00,3951.85286,N,11622.42656,E,1,12,0.84,55.5,M,-8.5,M,,*63
$GNGSA,A,3,10,12,32,25,14,03,31,22,26,29,,,1.50,0.84,1.24*1C
$GNGSA,A,3,65,71,72,74,73,75,,,,,,,1.50,0.84,1.24*16
$GPGSV,4,1,16,01,02,285,14,03,12,321,18,04,,,35,10,22,182,25*44
$GPGSV,4,2,16,12,15,040,27,14,77,351,22,22,26,305,27,25,51,057,32*7B
$GPGSV,4,3,16,26,26,204,20,29,17,107,33,31,61,289,22,32,73,099,25*72
$GPGSV,4,4,16,40,13,251,,41,33,226,28,42,35,140,,50,35,140,*74
$GLGSV,2,1,08,65,26,326,33,71,45,163,31,72,74,296,30,73,34,037,22*60
$GLGSV,2,2,08,74,71,306,25,75,27,242,40,82,05,025,23,83,04,072,34*69
$GNGLL,3951.85286,N,11622.42656,E,101133.00,A,A*7C
$GNRMC,101134.00,A,3951.85296,N,11622.42680,E,0.135,,071217,,,A*6D
$GNVTG,,T,,M,0.135,N,0.249,K,A*35
$GNGGA,101134.00,3951.85296,N,11622.42680,E,1,12,0.88,54.6,M,-8.5,M,,*60
$GNGSA,A,3,10,12,32,25,14,03,31,22,26,29,,,1.52,0.88,1.24*12
$GNGSA,A,3,65,71,72,74,73,75,,,,,,,1.52,0.88,1.24*18
$GPGSV,4,1,16,01,02,285,14,03,12,321,16,04,,,34,10,22,182,25*4B
$GPGSV,4,2,16,12,15,040,27,14,77,351,23,22,26,305,27,25,51,057,31*79
$GPGSV,4,3,16,26,26,204,20,29,17,107,33,31,61,289,20,32,73,099,26*73
$GPGSV,4,4,16,40,13,251,,41,33,226,29,42,35,140,,50,35,140,*75
$GLGSV,2,1,08,65,26,326,33,71,45,163,30,72,74,296,30,73,34,037,21*62
$GLGSV,2,2,08,74,71,306,26,75,27,242,41,82,05,025,26,83,04,072,34*6E
$GNGLL,3951.85296,N,11622.42680,E,101134.00,A,A*71
$GNRMC,101135.00,A,3951.85296,N,11622.42700,E,0.112,,071217,,,A*60
$GNVTG,,T,,M,0.112,N,0.208,K,A*35
$GNGGA,101135.00,3951.85296,N,11622.42700,E,1,12,0.95,53.7,M,-8.5,M,,*62
$GNGSA,A,3,10,12,32,25,14,03,31,22,26,29,,,1.63,0.95,1.33*1A
$GNGSA,A,3,65,71,72,74,73,75,,,,,,,1.63,0.95,1.33*10
$GPGSV,4,1,16,01,02,285,08,03,12,321,13,04,,,33,10,22,182,25*44
$GPGSV,4,2,16,12,15,040,26,14,77,351,23,22,26,305,26,25,51,057,29*70
$GPGSV,4,3,16,26,26,204,20,29,17,107,33,31,61,289,19,32,73,099,27*78
$GPGSV,4,4,16,40,13,251,,41,33,226,29,42,35,140,,50,35,140,*75
$GLGSV,2,1,08,65,26,326,33,71,45,163,29,72,74,296,29,73,34,037,22*61
$GLGSV,2,2,08,74,71,306,26,75,27,242,39,82,05,025,27,83,04,072,33*67
$GNGLL,3951.85296,N,11622.42700,E,101135.00,A,A*79
$GNRMC,101136.00,A,3951.85300,N,11622.42713,E,0.070,,071217,,,A*6A
$GNVTG,,T,,M,0.070,N,0.129,K,A*30
$GNGGA,101136.00,3951.85300,N,11622.42713,E,1,12,1.05,52.7,M,-8.5,M,,*64
$GNGSA,A,3,10,12,32,25,14,03,31,22,26,29,,,1.79,1.05,1.44*19
$GNGSA,A,3,65,71,72,74,73,75,,,,,,,1.79,1.05,1.44*13
$GPGSV,4,1,16,01,02,285,10,03,12,321,10,04,,,32,10,22,182,25*4F
$GPGSV,4,2,16,12,15,040,25,14,77,351,23,22,26,305,26,25,51,057,28*72
$GPGSV,4,3,16,26,26,204,23,29,17,107,32,31,61,289,19,32,73,099,27*7A
$GPGSV,4,4,16,40,13,251,,41,33,226,29,42,35,140,,50,35,140,*75
$GLGSV,2,1,08,65,26,326,33,71,45,163,27,72,74,296,29,73,34,037,26*6B
$GLGSV,2,2,08,74,71,306,25,75,27,242,41,82,05,024,30,83,04,072,32*6D
$GNGLL,3951.85300,N,11622.42713,E,101136.00,A,A*76
$GNRMC,101137.00,A,3951.85295,N,11622.42729,E,0.088,,071217,,,A*68
$GNVTG,,T,,M,0.088,N,0.163,K,A*39
$GNGGA,101137.00,3951.85295,N,11622.42729,E,1,12,0.94,51.8,M,-8.5,M,,*64
$GNGSA,A,3,10,12,32,25,14,03,31,22,26,29,,,1.62,0.94,1.32*1B
$GNGSA,A,3,65,71,72,74,73,75,,,,,,,1.62,0.94,1.32*11
$GPGSV,4,1,16,01,02,285,12,03,12,321,14,04,,,31,10,22,182,25*4A
$GPGSV,4,2,16,12,15,040,25,14,77,351,22,22,26,305,26,25,51,057,28*73
$GPGSV,4,3,16,26,26,204,23,29,17,107,31,31,61,289,19,32,73,099,27*79
$GPGSV,4,4,16,40,13,251,,41,33,226,30,42,35,140,,50,35,140,*7D
$GLGSV,2,1,08,65,26,326,32,71,45,163,26,72,74,296,29,73,34,037,26*6B
$GLGSV,2,2,08,74,71,306,24,75,27,242,41,82,05,024,33,83,04,071,31*6F
$GNGLL,3951.85295,N,11622.42729,E,101137.00,A,A*73
$GNRMC,101138.00,A,3951.85297,N,11622.42746,E,0.032,,071217,,,A*6D
$GNVTG,,T,,M,0.032,N,0.060,K,A*3A
$GNGGA,101138.00,3951.85297,N,11622.42746,E,1,12,0.98,51.1,M,-8.5,M,,*65
$GNGSA,A,3,10,12,32,25,14,03,31,22,26,29,,,1.74,0.98,1.44*11
$GNGSA,A,3,65,71,72,74,73,75,,,,,,,1.74,0.98,1.44*1B
$GPGSV,4,1,16,01,02,285,13,03,12,321,17,04,,,30,10,22,182,25*49
$GPGSV,4,2,16,12,15,040,24,14,77,351,23,22,26,305,26,25,51,057,28*73
$GPGSV,4,3,16,26,26,204,25,29,17,107,31,31,61,289,18,32,73,099,26*7F
$GPGSV,4,4,16,40,13,251,,41,33,226,30,42,35,140,,50,35,140,*7D
$GLGSV,2,1,08,65,26,326,30,71,45,163,26,72,74,296,28,73,34,037,26*68
$GLGSV,2,2,08,74,71,306,21,75,27,242,41,82,05,024,34,83,04,071,29*64
$GNGLL,3951.85297,N,11622.42746,E,101138.00,A,A*77
$GNRMC,101139.00,A,3951.85303,N,11622.42763,E,0.037,,071217,,,A*62
$GNVTG,,T,,M,0.037,N,0.069,K,A*36
$GNGGA,101139.00,3951.85303,N,11622.42763,E,1,12,0.81,50.5,M,-8.5,M,,*62
$GNGSA,A,3,10,12,32,25,14,03,31,22,26,29,,,1.41,0.81,1.16*18
$GNGSA,A,3,65,71,72,74,73,75,,,,,,,1.41,0.81,1.16*12
$GPGSV,4,1,16,01,02,285,14,03,12,321,15,04,,,29,10,22,182,25*44
$GPGSV,4,2,16,12,15,040,24,14,77,351,23,22,26,305,26,25,51,057,28*73
$GPGSV,4,3,16,26,26,204,25,29,17,107,31,31,61,289,17,32,73,099,25*73
$GPGSV,4,4,16,40,13,251,,41,33,226,29,42,35,140,,50,35,140,*75
$GLGSV,2,1,08,65,26,326,29,71,45,163,26,72,74,296,27,73,34,037,27*6E
$GLGSV,2,2,08,74,71,306,17,75,27,242,41,82,05,024,36,83,04,071,29*63
$GNGLL,3951.85303,N,11622.42763,E,101139.00,A,A*7D
$GNRMC,101140.00,A,3951.85300,N,11622.42788,E,0.029,,071217,,,A*65
$GNVTG,,T,,M,0.029,N,0.053,K,A*30
$GNGGA,101140.00,3951.85300,N,11622.42788,E,1,12,0.79,49.9,M,-8.5,M,,*69
$GNGSA,A,3,10,12,32,25,14,03,31,22,26,29,,,1.43,0.79,1.19*12
$GNGSA,A,3,65,71,72,74,73,75,,,,,,,1.43,0.79,1.19*18
$GPGSV,4,1,16,01,02,285,14,03,12,321,13,04,,,27,10,22,182,23*4A
$GPGSV,4,2,16,12,15,040,23,14,77,351,23,22,26,305,27,25,51,057,28*75
$GPGSV,4,3,16,26,26,204,26,29,17,107,31,31,61,289,15,32,73,099,24*73
$GPGSV,4,4,16,40,13,251,,41,33,226,28,42,35,140,,50,35,140,*74
$GLGSV,2,1,08,65,26,326,27,71,45,163,26,72,74,296,25,73,34,037,28*6D
$GLGSV,2,2,08,74,71,306,14,75,27,242,41,82,05,024,36,83,04,071,29*60
$GNGLL,3951.85300,N,11622.42788,E,101140.00,A,A*75
$GNRMC,101141.00,A,3951.85300,N,11622.42808,E,0.059,,071217,,,A*64
$GNVTG,,T,,M,0.059,N,0.108,K,A*38
$GNGGA,101141.00,3951.85300,N,11622.42808,E,1,12,0.99,49.7,M,-8.5,M,,*6F
$GNGSA,A,3,10,12,32,25,14,03,31,22,26,29,,,2.07,0.99,1.82*1D
$GNGSA,A,3,65,71,72,74,73,75,,,,,,,2.07,0.99,1.82*17
$GPGSV,4,1,16,01,02,285,15,03,12,321,14,04,,,25,10,22,182,22*4F
$GPGSV,4,2,16,12,15,040,24,14,77,351,24,22,26,305,27,25,51,057,27*7A
$GPGSV,4,3,16,26,26,204,31,29,17,107,31,31,61,289,13,32,73,099,24*73
$GPGSV,4,4,16,40,13,251,,41,33,226,28,42,35,140,,50,35,140,*74
$GLGSV,2,1,08,65,26,326,24,71,45,163,27,72,74,296,24,73,34,037,28*6E
